{"type":"FeatureCollection","features":[{"type":"Feature","properties":{"state":"Karnataka","district":13,"district_n":"CHITRADURGA","pc":18,"pc_name":"Chitradurga","ac":102,"ac_name":"Holalkere","booth":37,"booth_name":"Govt Higher Primary School Heggadehal"},"geometry":{"type":"Point","coordinates":[76.19565,14.3604841]}},{"type":"Feature","properties":{"state":"Karnataka","district":13,"district_n":"CHITRADURGA","pc":18,"pc_name":"Chitradurga","ac":102,"ac_name":"Holalkere","booth":39,"booth_name":"Govt Higher Primary School (room No 1) Bharamasagara Bharamasagara 1"},"geometry":{"type":"Point","coordinates":[76.18243,14.3689413]}},{"type":"Feature","properties":{"state":"Karnataka","district":13,"district_n":"CHITRADURGA","pc":18,"pc_name":"Chitradurga","ac":102,"ac_name":"Holalkere","booth":42,"booth_name":"Govt Higher Primary School (room No 4) Bharamasagara Bharamasagara 4"},"geometry":{"type":"Point","coordinates":[76.19874,14.3695555]}},{"type":"Feature","properties":{"state":"Karnataka","district":13,"district_n":"CHITRADURGA","pc":18,"pc_name":"Chitradurga","ac":102,"ac_name":"Holalkere","booth":45,"booth_name":"Govt Higher Primary School (right side) Hampanur 1"},"geometry":{"type":"Point","coordinates":[76.14408,14.3689623]}},{"type":"Feature","properties":{"state":"Karnataka","district":13,"district_n":"CHITRADURGA","pc":18,"pc_name":"Chitradurga","ac":102,"ac_name":"Holalkere","booth":31,"booth_name":"Govt Lower Primary School Haralikatte"},"geometry":{"type":"Point","coordinates":[76.2422943,14.4013224]}},{"type":"Feature","properties":{"state":"Karnataka","district":13,"district_n":"CHITRADURGA","pc":18,"pc_name":"Chitradurga","ac":102,"ac_name":"Holalkere","booth":33,"booth_name":"Govt Lower Primary School Bedarashivanakere"},"geometry":{"type":"Point","coordinates":[76.26129,14.3148518]}},{"type":"Feature","properties":{"state":"Karnataka","district":13,"district_n":"CHITRADURGA","pc":18,"pc_name":"Chitradurga","ac":102,"ac_name":"Holalkere","booth":48,"booth_name":"Govt Higher Primary School Obalapura"},"geometry":{"type":"Point","coordinates":[76.25955,14.3049345]}},{"type":"Feature","properties":{"state":"Karnataka","district":13,"district_n":"CHITRADURGA","pc":18,"pc_name":"Chitradurga","ac":102,"ac_name":"Holalkere","booth":50,"booth_name":"Govt Higher Primary School Halavudara"},"geometry":{"type":"Point","coordinates":[76.20993,14.3082209]}},{"type":"Feature","properties":{"state":"Karnataka","district":13,"district_n":"CHITRADURGA","pc":18,"pc_name":"Chitradurga","ac":102,"ac_name":"Holalkere","booth":51,"booth_name":"Govt Higher Primary School Arabagatta(h/o) Kolahal"},"geometry":{"type":"Point","coordinates":[76.20993,14.30823]}},{"type":"Feature","properties":{"state":"Karnataka","district":13,"district_n":"CHITRADURGA","pc":18,"pc_name":"Chitradurga","ac":102,"ac_name":"Holalkere","booth":53,"booth_name":"Govt Higher Primary School Hirebennur"},"geometry":{"type":"Point","coordinates":[76.24944,14.3144112]}},{"type":"Feature","properties":{"state":"Karnataka","district":13,"district_n":"CHITRADURGA","pc":18,"pc_name":"Chitradurga","ac":102,"ac_name":"Holalkere","booth":54,"booth_name":"Govt Lower Primary School Hirebennur Gollarahatty"},"geometry":{"type":"Point","coordinates":[76.25254,14.31124]}},{"type":"Feature","properties":{"state":"Karnataka","district":13,"district_n":"CHITRADURGA","pc":18,"pc_name":"Chitradurga","ac":102,"ac_name":"Holalkere","booth":56,"booth_name":"Govt Urdu Higher Primary School Gowrammanahally"},"geometry":{"type":"Point","coordinates":[76.25848,14.2960243]}},{"type":"Feature","properties":{"state":"Karnataka","district":13,"district_n":"CHITRADURGA","pc":18,"pc_name":"Chitradurga","ac":102,"ac_name":"Holalkere","booth":57,"booth_name":"Govt Higher Primary School Cheelangi"},"geometry":{"type":"Point","coordinates":[76.25955,14.3049345]}},{"type":"Feature","properties":{"state":"Karnataka","district":13,"district_n":"CHITRADURGA","pc":18,"pc_name":"Chitradurga","ac":102,"ac_name":"Holalkere","booth":59,"booth_name":"Govt Lower Primary School Kariyammanahatty(h)"},"geometry":{"type":"Point","coordinates":[76.21684,14.3366623]}},{"type":"Feature","properties":{"state":"Karnataka","district":13,"district_n":"CHITRADURGA","pc":18,"pc_name":"Chitradurga","ac":102,"ac_name":"Holalkere","booth":60,"booth_name":"Govt Lower Primary School Lingavvanagathihally"},"geometry":{"type":"Point","coordinates":[76.21684,14.3366623]}},{"type":"Feature","properties":{"state":"Karnataka","district":13,"district_n":"CHITRADURGA","pc":18,"pc_name":"Chitradurga","ac":102,"ac_name":"Holalkere","booth":62,"booth_name":"Govt Lower Primary School Seegehally"},"geometry":{"type":"Point","coordinates":[76.20993,14.3082209]}},{"type":"Feature","properties":{"state":"Karnataka","district":13,"district_n":"CHITRADURGA","pc":18,"pc_name":"Chitradurga","ac":102,"ac_name":"Holalkere","booth":65,"booth_name":"Govt Lower Primary School Pudakalahally"},"geometry":{"type":"Point","coordinates":[76.07315,14.3001328]}},{"type":"Feature","properties":{"state":"Karnataka","district":13,"district_n":"CHITRADURGA","pc":18,"pc_name":"Chitradurga","ac":102,"ac_name":"Holalkere","booth":68,"booth_name":"Govt Higher Primary School (room No 1) Sirigere 1"},"geometry":{"type":"Point","coordinates":[76.20993,14.3082209]}},{"type":"Feature","properties":{"state":"Karnataka","district":13,"district_n":"CHITRADURGA","pc":18,"pc_name":"Chitradurga","ac":102,"ac_name":"Holalkere","booth":71,"booth_name":"Govt Higher Primary School Chikkenahalli"},"geometry":{"type":"Point","coordinates":[76.22041,14.2574892]}},{"type":"Feature","properties":{"state":"Karnataka","district":13,"district_n":"CHITRADURGA","pc":18,"pc_name":"Chitradurga","ac":102,"ac_name":"Holalkere","booth":73,"booth_name":"Govt Higher Primary School Doddiganal"},"geometry":{"type":"Point","coordinates":[76.1925049,14.2633572]}},{"type":"Feature","properties":{"state":"Karnataka","district":13,"district_n":"CHITRADURGA","pc":18,"pc_name":"Chitradurga","ac":102,"ac_name":"Holalkere","booth":74,"booth_name":"Govt Lower Primary School Doddiganal Hosahatti Yane Sreeramanagara"},"geometry":{"type":"Point","coordinates":[76.1925049,14.2633572]}},{"type":"Feature","properties":{"state":"Karnataka","district":13,"district_n":"CHITRADURGA","pc":18,"pc_name":"Chitradurga","ac":102,"ac_name":"Holalkere","booth":76,"booth_name":"Govt Lower Primary School Bommavvanagathihally"},"geometry":{"type":"Point","coordinates":[76.22041,14.2574892]}},{"type":"Feature","properties":{"state":"Karnataka","district":13,"district_n":"CHITRADURGA","pc":18,"pc_name":"Chitradurga","ac":102,"ac_name":"Holalkere","booth":80,"booth_name":"Govt Higher Primary School Bandebommanahally"},"geometry":{"type":"Point","coordinates":[76.09562,14.2440853]}},{"type":"Feature","properties":{"state":"Karnataka","district":13,"district_n":"CHITRADURGA","pc":18,"pc_name":"Chitradurga","ac":102,"ac_name":"Holalkere","booth":82,"booth_name":"Govt Higher Primary School (left Side) Andanur 2"},"geometry":{"type":"Point","coordinates":[76.09035,14.226141]}},{"type":"Feature","properties":{"state":"Karnataka","district":13,"district_n":"CHITRADURGA","pc":18,"pc_name":"Chitradurga","ac":102,"ac_name":"Holalkere","booth":88,"booth_name":"Govt Higher Primary School Hiriyur"},"geometry":{"type":"Point","coordinates":[76.08064,14.2105131]}},{"type":"Feature","properties":{"state":"Karnataka","district":13,"district_n":"CHITRADURGA","pc":18,"pc_name":"Chitradurga","ac":102,"ac_name":"Holalkere","booth":91,"booth_name":"Govt Higher Primary School Thanigehally"},"geometry":{"type":"Point","coordinates":[76.18637,14.209363]}},{"type":"Feature","properties":{"state":"Karnataka","district":13,"district_n":"CHITRADURGA","pc":18,"pc_name":"Chitradurga","ac":102,"ac_name":"Holalkere","booth":93,"booth_name":"Govt Higher Primary School (right side) Hirekandavadi 2"},"geometry":{"type":"Point","coordinates":[76.19551,14.1864338]}},{"type":"Feature","properties":{"state":"Karnataka","district":13,"district_n":"CHITRADURGA","pc":18,"pc_name":"Chitradurga","ac":102,"ac_name":"Holalkere","booth":5,"booth_name":"Govt Higher Primary School Room No 1 Kalgere 1"},"geometry":{"type":"Point","coordinates":[76.2422943,14.4013224]}},{"type":"Feature","properties":{"state":"Karnataka","district":13,"district_n":"CHITRADURGA","pc":18,"pc_name":"Chitradurga","ac":102,"ac_name":"Holalkere","booth":10,"booth_name":"Govt Pre Primary School Hullehal"},"geometry":{"type":"Point","coordinates":[76.30321,14.3836565]}},{"type":"Feature","properties":{"state":"Karnataka","district":13,"district_n":"CHITRADURGA","pc":18,"pc_name":"Chitradurga","ac":102,"ac_name":"Holalkere","booth":11,"booth_name":"Govt, Lower Primary School Hullehal Gollarahatti (h)"},"geometry":{"type":"Point","coordinates":[76.30321,14.3836565]}},{"type":"Feature","properties":{"state":"Karnataka","district":13,"district_n":"CHITRADURGA","pc":18,"pc_name":"Chitradurga","ac":102,"ac_name":"Holalkere","booth":13,"booth_name":"Govt Higher Primary School Myasarahatti (h/o) Yalagodu"},"geometry":{"type":"Point","coordinates":[76.30321,14.3836565]}},{"type":"Feature","properties":{"state":"Karnataka","district":13,"district_n":"CHITRADURGA","pc":18,"pc_name":"Chitradurga","ac":102,"ac_name":"Holalkere","booth":14,"booth_name":"Govt Higher Primary School Yalagodu"},"geometry":{"type":"Point","coordinates":[76.30321,14.3836565]}},{"type":"Feature","properties":{"state":"Karnataka","district":13,"district_n":"CHITRADURGA","pc":18,"pc_name":"Chitradurga","ac":102,"ac_name":"Holalkere","booth":16,"booth_name":"Govt Urdu Lower Primary School Ajjappanahally"},"geometry":{"type":"Point","coordinates":[76.2422943,14.4013224]}},{"type":"Feature","properties":{"state":"Karnataka","district":13,"district_n":"CHITRADURGA","pc":18,"pc_name":"Chitradurga","ac":102,"ac_name":"Holalkere","booth":17,"booth_name":"Govt Higher Primary School Issamudra Hosahatty(h)"},"geometry":{"type":"Point","coordinates":[76.2422943,14.4013224]}},{"type":"Feature","properties":{"state":"Karnataka","district":13,"district_n":"CHITRADURGA","pc":18,"pc_name":"Chitradurga","ac":102,"ac_name":"Holalkere","booth":19,"booth_name":"Govt Higher Primary School Issamudra"},"geometry":{"type":"Point","coordinates":[76.1829453,14.3726206]}},{"type":"Feature","properties":{"state":"Karnataka","district":13,"district_n":"CHITRADURGA","pc":18,"pc_name":"Chitradurga","ac":102,"ac_name":"Holalkere","booth":113,"booth_name":"Govt Lower Primary School Anthapura"},"geometry":{"type":"Point","coordinates":[76.05758,14.1454477]}},{"type":"Feature","properties":{"state":"Karnataka","district":13,"district_n":"CHITRADURGA","pc":18,"pc_name":"Chitradurga","ac":102,"ac_name":"Holalkere","booth":114,"booth_name":"Govt Lower Primary School Keshavapura"},"geometry":{"type":"Point","coordinates":[76.2158661,14.141511]}},{"type":"Feature","properties":{"state":"Karnataka","district":13,"district_n":"CHITRADURGA","pc":18,"pc_name":"Chitradurga","ac":102,"ac_name":"Holalkere","booth":116,"booth_name":"Govt Higher Primary School T Thirumalapura"},"geometry":{"type":"Point","coordinates":[76.25431,14.1554918]}},{"type":"Feature","properties":{"state":"Karnataka","district":13,"district_n":"CHITRADURGA","pc":18,"pc_name":"Chitradurga","ac":102,"ac_name":"Holalkere","booth":117,"booth_name":"Govt Higher Primary School Kashipura"},"geometry":{"type":"Point","coordinates":[76.24518,14.1411514]}},{"type":"Feature","properties":{"state":"Karnataka","district":13,"district_n":"CHITRADURGA","pc":18,"pc_name":"Chitradurga","ac":102,"ac_name":"Holalkere","booth":119,"booth_name":"Govt Independent P U College Chikkajajuru 2"},"geometry":{"type":"Point","coordinates":[76.14017,14.127265]}},{"type":"Feature","properties":{"state":"Karnataka","district":13,"district_n":"CHITRADURGA","pc":18,"pc_name":"Chitradurga","ac":102,"ac_name":"Holalkere","booth":120,"booth_name":"Govt Boys Higher Primary School Chikkajajuru 3"},"geometry":{"type":"Point","coordinates":[76.14184,14.1245222]}},{"type":"Feature","properties":{"state":"Karnataka","district":13,"district_n":"CHITRADURGA","pc":18,"pc_name":"Chitradurga","ac":102,"ac_name":"Holalkere","booth":122,"booth_name":"S J M M Girls High School (right side) Chikkajajuru 5"},"geometry":{"type":"Point","coordinates":[76.1366348,14.1279736]}},{"type":"Feature","properties":{"state":"Karnataka","district":13,"district_n":"CHITRADURGA","pc":18,"pc_name":"Chitradurga","ac":102,"ac_name":"Holalkere","booth":125,"booth_name":"Govt Higher Primary School Chikkayemmiganur"},"geometry":{"type":"Point","coordinates":[76.07951,14.1073923]}},{"type":"Feature","properties":{"state":"Karnataka","district":13,"district_n":"CHITRADURGA","pc":18,"pc_name":"Chitradurga","ac":102,"ac_name":"Holalkere","booth":128,"booth_name":"Govt Higher Primary School Kamanahally"},"geometry":{"type":"Point","coordinates":[76.04192,14.1167793]}},{"type":"Feature","properties":{"state":"Karnataka","district":13,"district_n":"CHITRADURGA","pc":18,"pc_name":"Chitradurga","ac":102,"ac_name":"Holalkere","booth":131,"booth_name":"Govt Higher Primary School Hulemalali"},"geometry":{"type":"Point","coordinates":[76.11011,14.0848045]}},{"type":"Feature","properties":{"state":"Karnataka","district":13,"district_n":"CHITRADURGA","pc":18,"pc_name":"Chitradurga","ac":102,"ac_name":"Holalkere","booth":136,"booth_name":"Govt Higher Primary School Arasanagatta"},"geometry":{"type":"Point","coordinates":[76.20074,14.1301908]}},{"type":"Feature","properties":{"state":"Karnataka","district":13,"district_n":"CHITRADURGA","pc":18,"pc_name":"Chitradurga","ac":102,"ac_name":"Holalkere","booth":137,"booth_name":"Govt Lower Primary School Amruthapura"},"geometry":{"type":"Point","coordinates":[76.24498,14.1376772]}},{"type":"Feature","properties":{"state":"Karnataka","district":13,"district_n":"CHITRADURGA","pc":18,"pc_name":"Chitradurga","ac":102,"ac_name":"Holalkere","booth":143,"booth_name":"Govt Lower Primary School Kondapura"},"geometry":{"type":"Point","coordinates":[76.25291,14.1203861]}},{"type":"Feature","properties":{"state":"Karnataka","district":13,"district_n":"CHITRADURGA","pc":18,"pc_name":"Chitradurga","ac":102,"ac_name":"Holalkere","booth":154,"booth_name":"Govt Higher Primary School Kengunte"},"geometry":{"type":"Point","coordinates":[76.08679,14.0473433]}},{"type":"Feature","properties":{"state":"Karnataka","district":13,"district_n":"CHITRADURGA","pc":18,"pc_name":"Chitradurga","ac":102,"ac_name":"Holalkere","booth":156,"booth_name":"Govt Urdu Higher Primary School Malladihally 1"},"geometry":{"type":"Point","coordinates":[76.09116,14.0367222]}},{"type":"Feature","properties":{"state":"Karnataka","district":13,"district_n":"CHITRADURGA","pc":18,"pc_name":"Chitradurga","ac":102,"ac_name":"Holalkere","booth":157,"booth_name":"Govt Higher Primary School Room No 1 Malladihally 3"},"geometry":{"type":"Point","coordinates":[76.09103,14.0367594]}},{"type":"Feature","properties":{"state":"Karnataka","district":13,"district_n":"CHITRADURGA","pc":18,"pc_name":"Chitradurga","ac":102,"ac_name":"Holalkere","booth":148,"booth_name":"Govt Higher Primary School Room No 1 Adanuru 1"},"geometry":{"type":"Point","coordinates":[76.16441,14.0799417]}},{"type":"Feature","properties":{"state":"Karnataka","district":13,"district_n":"CHITRADURGA","pc":18,"pc_name":"Chitradurga","ac":102,"ac_name":"Holalkere","booth":151,"booth_name":"Govt Higher Primary School Kunagali"},"geometry":{"type":"Point","coordinates":[76.12205,14.06855]}},{"type":"Feature","properties":{"state":"Karnataka","district":13,"district_n":"CHITRADURGA","pc":18,"pc_name":"Chitradurga","ac":102,"ac_name":"Holalkere","booth":176,"booth_name":"Govt Higher Primary Schoolhalehalli Gollarahatty (h)"},"geometry":{"type":"Point","coordinates":[76.250824,14.068738]}},{"type":"Feature","properties":{"state":"Karnataka","district":13,"district_n":"CHITRADURGA","pc":18,"pc_name":"Chitradurga","ac":102,"ac_name":"Holalkere","booth":177,"booth_name":"Govt Higher Primary School Dasaiahnahatty(h)"},"geometry":{"type":"Point","coordinates":[76.2513351,14.0673361]}},{"type":"Feature","properties":{"state":"Karnataka","district":13,"district_n":"CHITRADURGA","pc":18,"pc_name":"Chitradurga","ac":102,"ac_name":"Holalkere","booth":179,"booth_name":"Govt Higher Primary School Room No 1 Shivaganga 1"},"geometry":{"type":"Point","coordinates":[76.251564,14.0822668]}},{"type":"Feature","properties":{"state":"Karnataka","district":13,"district_n":"CHITRADURGA","pc":18,"pc_name":"Chitradurga","ac":102,"ac_name":"Holalkere","booth":180,"booth_name":"Govt Higher Primary School Room No 2 Shivaganga 2"},"geometry":{"type":"Point","coordinates":[76.2516,14.0822439]}},{"type":"Feature","properties":{"state":"Karnataka","district":13,"district_n":"CHITRADURGA","pc":18,"pc_name":"Chitradurga","ac":102,"ac_name":"Holalkere","booth":182,"booth_name":"Govt Higher Primary School Banjagondanahally"},"geometry":{"type":"Point","coordinates":[76.29594,14.1109657]}},{"type":"Feature","properties":{"state":"Karnataka","district":13,"district_n":"CHITRADURGA","pc":18,"pc_name":"Chitradurga","ac":102,"ac_name":"Holalkere","booth":191,"booth_name":"Govt Lower Primary School Jaipura"},"geometry":{"type":"Point","coordinates":[76.15488,14.0397234]}},{"type":"Feature","properties":{"state":"Karnataka","district":13,"district_n":"CHITRADURGA","pc":18,"pc_name":"Chitradurga","ac":102,"ac_name":"Holalkere","booth":194,"booth_name":"Govt Higher Primary School (left Side) Arehally 2"},"geometry":{"type":"Point","coordinates":[76.13574,14.03619]}},{"type":"Feature","properties":{"state":"Karnataka","district":13,"district_n":"CHITRADURGA","pc":18,"pc_name":"Chitradurga","ac":102,"ac_name":"Holalkere","booth":196,"booth_name":"Govt Higher Primary School Basapura"},"geometry":{"type":"Point","coordinates":[76.11618,14.023241]}},{"type":"Feature","properties":{"state":"Karnataka","district":13,"district_n":"CHITRADURGA","pc":18,"pc_name":"Chitradurga","ac":102,"ac_name":"Holalkere","booth":197,"booth_name":"Govt Higher Primary School Dogganal"},"geometry":{"type":"Point","coordinates":[76.0775,14.0205774]}},{"type":"Feature","properties":{"state":"Karnataka","district":13,"district_n":"CHITRADURGA","pc":18,"pc_name":"Chitradurga","ac":102,"ac_name":"Holalkere","booth":199,"booth_name":"Govt Higher Primary School (right Side) Dummi 2"},"geometry":{"type":"Point","coordinates":[76.0664444,14.0288553]}},{"type":"Feature","properties":{"state":"Karnataka","district":13,"district_n":"CHITRADURGA","pc":18,"pc_name":"Chitradurga","ac":102,"ac_name":"Holalkere","booth":200,"booth_name":"Govt Lower Primary School Channappanahatty"},"geometry":{"type":"Point","coordinates":[76.07793,14.0395365]}},{"type":"Feature","properties":{"state":"Karnataka","district":13,"district_n":"CHITRADURGA","pc":18,"pc_name":"Chitradurga","ac":102,"ac_name":"Holalkere","booth":202,"booth_name":"Govt Higher Primary School (left Side) R Nulenur 1"},"geometry":{"type":"Point","coordinates":[76.12199,14.0082579]}},{"type":"Feature","properties":{"state":"Karnataka","district":13,"district_n":"CHITRADURGA","pc":18,"pc_name":"Chitradurga","ac":102,"ac_name":"Holalkere","booth":203,"booth_name":"Govt Higher Primary School (right Side)r Nulenuru 2"},"geometry":{"type":"Point","coordinates":[76.12194,14.0082159]}},{"type":"Feature","properties":{"state":"Karnataka","district":13,"district_n":"CHITRADURGA","pc":18,"pc_name":"Chitradurga","ac":102,"ac_name":"Holalkere","booth":205,"booth_name":"Govt Lower Primary School Holalkere Lambani hatty(h)"},"geometry":{"type":"Point","coordinates":[76.19709,14.0330954]}},{"type":"Feature","properties":{"state":"Karnataka","district":13,"district_n":"CHITRADURGA","pc":18,"pc_name":"Chitradurga","ac":102,"ac_name":"Holalkere","booth":208,"booth_name":"Govt Lower Primary School Ramenahally"},"geometry":{"type":"Point","coordinates":[76.31263,14.058609]}},{"type":"Feature","properties":{"state":"Karnataka","district":13,"district_n":"CHITRADURGA","pc":18,"pc_name":"Chitradurga","ac":102,"ac_name":"Holalkere","booth":222,"booth_name":"Govt Girls Higher Primary School (right Side) Talya 2"},"geometry":{"type":"Point","coordinates":[76.26948,14.0227842]}},{"type":"Feature","properties":{"state":"Karnataka","district":13,"district_n":"CHITRADURGA","pc":18,"pc_name":"Chitradurga","ac":102,"ac_name":"Holalkere","booth":223,"booth_name":"Govt Lower Primary School Sihineerakatte"},"geometry":{"type":"Point","coordinates":[76.22748,14.03226]}},{"type":"Feature","properties":{"state":"Karnataka","district":13,"district_n":"CHITRADURGA","pc":18,"pc_name":"Chitradurga","ac":102,"ac_name":"Holalkere","booth":225,"booth_name":"Govt Higher Primary School Lokadolalu"},"geometry":{"type":"Point","coordinates":[76.20455,13.9914608]}},{"type":"Feature","properties":{"state":"Karnataka","district":13,"district_n":"CHITRADURGA","pc":18,"pc_name":"Chitradurga","ac":102,"ac_name":"Holalkere","booth":226,"booth_name":"Govt Higher Primary School Bommanakatte"},"geometry":{"type":"Point","coordinates":[76.19348,13.9987516]}},{"type":"Feature","properties":{"state":"Karnataka","district":13,"district_n":"CHITRADURGA","pc":18,"pc_name":"Chitradurga","ac":102,"ac_name":"Holalkere","booth":228,"booth_name":"Govt Higher Primary School (right Side) Gunderi Gunderi 2"},"geometry":{"type":"Point","coordinates":[76.17434,13.9901085]}},{"type":"Feature","properties":{"state":"Karnataka","district":13,"district_n":"CHITRADURGA","pc":18,"pc_name":"Chitradurga","ac":102,"ac_name":"Holalkere","booth":231,"booth_name":"Govt Higher Primary School Hanumali"},"geometry":{"type":"Point","coordinates":[76.083,13.9998922]}},{"type":"Feature","properties":{"state":"Karnataka","district":13,"district_n":"CHITRADURGA","pc":18,"pc_name":"Chitradurga","ac":102,"ac_name":"Holalkere","booth":242,"booth_name":"Govt Higher Primary School (room No 2) Nandanahosuru 2"},"geometry":{"type":"Point","coordinates":[76.33311,14.0210838]}},{"type":"Feature","properties":{"state":"Karnataka","district":13,"district_n":"CHITRADURGA","pc":18,"pc_name":"Chitradurga","ac":102,"ac_name":"Holalkere","booth":243,"booth_name":"Govt Higher Primary School Upparigenahally"},"geometry":{"type":"Point","coordinates":[76.36413,14.0061226]}},{"type":"Feature","properties":{"state":"Karnataka","district":13,"district_n":"CHITRADURGA","pc":18,"pc_name":"Chitradurga","ac":102,"ac_name":"Holalkere","booth":245,"booth_name":"Govt Lower Primary School T Gollarahally"},"geometry":{"type":"Point","coordinates":[76.35914,14.0145111]}},{"type":"Feature","properties":{"state":"Karnataka","district":13,"district_n":"CHITRADURGA","pc":18,"pc_name":"Chitradurga","ac":102,"ac_name":"Holalkere","booth":246,"booth_name":"Govt Lower Primary School Kereyagalahally"},"geometry":{"type":"Point","coordinates":[76.3749,14.0164852]}},{"type":"Feature","properties":{"state":"Karnataka","district":13,"district_n":"CHITRADURGA","pc":18,"pc_name":"Chitradurga","ac":102,"ac_name":"Holalkere","booth":248,"booth_name":"Govt Lower Primary School Halenahally"},"geometry":{"type":"Point","coordinates":[76.35193,13.9959936]}},{"type":"Feature","properties":{"state":"Karnataka","district":13,"district_n":"CHITRADURGA","pc":18,"pc_name":"Chitradurga","ac":102,"ac_name":"Holalkere","booth":257,"booth_name":"Govt Lower Primary School Room No 1 Ramagiri 3"},"geometry":{"type":"Point","coordinates":[76.1231842,13.9541111]}},{"type":"Feature","properties":{"state":"Karnataka","district":13,"district_n":"CHITRADURGA","pc":18,"pc_name":"Chitradurga","ac":102,"ac_name":"Holalkere","booth":259,"booth_name":"Govt Higher Primary School Room No 1 Talikatte 1"},"geometry":{"type":"Point","coordinates":[76.08765,13.9573936]}},{"type":"Feature","properties":{"state":"Karnataka","district":13,"district_n":"CHITRADURGA","pc":18,"pc_name":"Chitradurga","ac":102,"ac_name":"Holalkere","booth":260,"booth_name":"Govt Higher Primary School Room No 2 Talikatte 1a"},"geometry":{"type":"Point","coordinates":[76.08749,13.9573889]}},{"type":"Feature","properties":{"state":"Karnataka","district":13,"district_n":"CHITRADURGA","pc":18,"pc_name":"Chitradurga","ac":102,"ac_name":"Holalkere","booth":262,"booth_name":"Sree Beeralingeshwara Rural High School Room No 2 Talikatte 3"},"geometry":{"type":"Point","coordinates":[76.08271,13.9532852]}},{"type":"Feature","properties":{"state":"Karnataka","district":13,"district_n":"CHITRADURGA","pc":18,"pc_name":"Chitradurga","ac":102,"ac_name":"Holalkere","booth":265,"booth_name":"Govt Higher Primary School Devarahosahally"},"geometry":{"type":"Point","coordinates":[76.0796661,13.9342213]}},{"type":"Feature","properties":{"state":"Karnataka","district":13,"district_n":"CHITRADURGA","pc":18,"pc_name":"Chitradurga","ac":102,"ac_name":"Holalkere","booth":266,"booth_name":"Govt Higher Primary School (left Side)thuppadahally 1"},"geometry":{"type":"Point","coordinates":[76.06613,13.9178371]}},{"type":"Feature","properties":{"state":"Karnataka","district":13,"district_n":"CHITRADURGA","pc":18,"pc_name":"Chitradurga","ac":102,"ac_name":"Holalkere","booth":268,"booth_name":"Govt Higher Primary School Kenchapura"},"geometry":{"type":"Point","coordinates":[76.08067,13.9239845]}},{"type":"Feature","properties":{"state":"Karnataka","district":13,"district_n":"CHITRADURGA","pc":18,"pc_name":"Chitradurga","ac":102,"ac_name":"Holalkere","booth":271,"booth_name":"Govt Higher Primary School Room No 1 Gangasamudra 1"},"geometry":{"type":"Point","coordinates":[76.14779,13.9180574]}},{"type":"Feature","properties":{"state":"Karnataka","district":13,"district_n":"CHITRADURGA","pc":18,"pc_name":"Chitradurga","ac":102,"ac_name":"Holalkere","booth":274,"booth_name":"Govt Higher Primary School Gowdihally"},"geometry":{"type":"Point","coordinates":[76.1673355,13.9163857]}},{"type":"Feature","properties":{"state":"Karnataka","district":13,"district_n":"CHITRADURGA","pc":18,"pc_name":"Chitradurga","ac":102,"ac_name":"Holalkere","booth":277,"booth_name":"Govt Lower Primary School Uganekatte Vaddarahatty(h)"},"geometry":{"type":"Point","coordinates":[76.20867,13.92958]}},{"type":"Feature","properties":{"state":"Karnataka","district":13,"district_n":"CHITRADURGA","pc":18,"pc_name":"Chitradurga","ac":102,"ac_name":"Holalkere","booth":279,"booth_name":"Govt Lower Primary School Upparahatty(h)"},"geometry":{"type":"Point","coordinates":[76.16138,13.9082708]}},{"type":"Feature","properties":{"state":"Karnataka","district":13,"district_n":"CHITRADURGA","pc":18,"pc_name":"Chitradurga","ac":102,"ac_name":"Holalkere","booth":280,"booth_name":"Govt Lower Primary School Channasamudra"},"geometry":{"type":"Point","coordinates":[76.15221,13.8807831]}},{"type":"Feature","properties":{"state":"Karnataka","district":13,"district_n":"CHITRADURGA","pc":18,"pc_name":"Chitradurga","ac":102,"ac_name":"Holalkere","booth":282,"booth_name":"Govt Higher Primary School Rangaiahnadurgada Kavalu"},"geometry":{"type":"Point","coordinates":[76.0986938,13.9367466]}},{"type":"Feature","properties":{"state":"Karnataka","district":13,"district_n":"CHITRADURGA","pc":18,"pc_name":"Chitradurga","ac":102,"ac_name":"Holalkere","booth":283,"booth_name":"Govt Higher Primary School Singenahally"},"geometry":{"type":"Point","coordinates":[76.074585,13.89586]}},{"type":"Feature","properties":{"state":"Karnataka","district":13,"district_n":"CHITRADURGA","pc":18,"pc_name":"Chitradurga","ac":102,"ac_name":"Holalkere","booth":285,"booth_name":"Govt Higher Primary School Muddapura Lambanihatty(h)"},"geometry":{"type":"Point","coordinates":[76.11395,13.8747311]}},{"type":"Feature","properties":{"state":"Karnataka","district":13,"district_n":"CHITRADURGA","pc":18,"pc_name":"Chitradurga","ac":102,"ac_name":"Holalkere","booth":286,"booth_name":"Govt Higher Primary School Bommanahally"},"geometry":{"type":"Point","coordinates":[76.16167,13.8867865]}},{"type":"Feature","properties":{"state":"Karnataka","district":13,"district_n":"CHITRADURGA","pc":18,"pc_name":"Chitradurga","ac":102,"ac_name":"Holalkere","booth":288,"booth_name":"Govt Higher Primary School Room No 2 Bidarakere 2"},"geometry":{"type":"Point","coordinates":[76.13282,13.87493]}},{"type":"Feature","properties":{"state":"Karnataka","district":13,"district_n":"CHITRADURGA","pc":18,"pc_name":"Chitradurga","ac":102,"ac_name":"Holalkere","booth":251,"booth_name":"Govt Lower Primary School Hulikere"},"geometry":{"type":"Point","coordinates":[76.277504,13.9441929]}},{"type":"Feature","properties":{"state":"Karnataka","district":13,"district_n":"CHITRADURGA","pc":18,"pc_name":"Chitradurga","ac":102,"ac_name":"Holalkere","booth":254,"booth_name":"Govt Higher Primary School Avinahatty(h)"},"geometry":{"type":"Point","coordinates":[76.20169,13.9644022]}},{"type":"Feature","properties":{"state":"Karnataka","district":13,"district_n":"CHITRADURGA","pc":18,"pc_name":"Chitradurga","ac":102,"ac_name":"Holalkere","booth":183,"booth_name":"Govt Lower Primary School Brahmapura"},"geometry":{"type":"Point","coordinates":[76.30054,14.0919724]}},{"type":"Feature","properties":{"state":"Karnataka","district":13,"district_n":"CHITRADURGA","pc":18,"pc_name":"Chitradurga","ac":102,"ac_name":"Holalkere","booth":185,"booth_name":"Govt Higher Primary Schoolnagaraghatta"},"geometry":{"type":"Point","coordinates":[76.28883,14.0739918]}},{"type":"Feature","properties":{"state":"Karnataka","district":13,"district_n":"CHITRADURGA","pc":18,"pc_name":"Chitradurga","ac":102,"ac_name":"Holalkere","booth":188,"booth_name":"Govt Higher Primary School Kudineerakatte"},"geometry":{"type":"Point","coordinates":[76.20215,14.0422506]}},{"type":"Feature","properties":{"state":"Karnataka","district":13,"district_n":"CHITRADURGA","pc":18,"pc_name":"Chitradurga","ac":102,"ac_name":"Holalkere","booth":139,"booth_name":"Govt Higher Primary School T Nulenur"},"geometry":{"type":"Point","coordinates":[76.28334,14.1184874]}},{"type":"Feature","properties":{"state":"Karnataka","district":13,"district_n":"CHITRADURGA","pc":18,"pc_name":"Chitradurga","ac":102,"ac_name":"Holalkere","booth":140,"booth_name":"Govt Lower Primary School Chitrahally Gollarahatty"},"geometry":{"type":"Point","coordinates":[76.26998,14.1051378]}},{"type":"Feature","properties":{"state":"Karnataka","district":13,"district_n":"CHITRADURGA","pc":18,"pc_name":"Chitradurga","ac":102,"ac_name":"Holalkere","booth":142,"booth_name":"Govt Higher Primary School Room No 2 Chitrahalli 2"},"geometry":{"type":"Point","coordinates":[76.2664642,14.1122227]}},{"type":"Feature","properties":{"state":"Karnataka","district":13,"district_n":"CHITRADURGA","pc":18,"pc_name":"Chitradurga","ac":102,"ac_name":"Holalkere","booth":145,"booth_name":"Govt Higher Primary School Room No 2 Gilikenahally 2"},"geometry":{"type":"Point","coordinates":[76.22688,14.0767822]}},{"type":"Feature","properties":{"state":"Karnataka","district":13,"district_n":"CHITRADURGA","pc":18,"pc_name":"Chitradurga","ac":102,"ac_name":"Holalkere","booth":141,"booth_name":"Govt Higher Primary School Room No 1 Chitrahalli 1"},"geometry":{"type":"Point","coordinates":[76.2664,14.1122122]}},{"type":"Feature","properties":{"state":"Karnataka","district":13,"district_n":"CHITRADURGA","pc":18,"pc_name":"Chitradurga","ac":102,"ac_name":"Holalkere","booth":184,"booth_name":"Govt Higher Primary School Pampapura"},"geometry":{"type":"Point","coordinates":[76.31036,14.0772982]}},{"type":"Feature","properties":{"state":"Karnataka","district":13,"district_n":"CHITRADURGA","pc":18,"pc_name":"Chitradurga","ac":102,"ac_name":"Holalkere","booth":22,"booth_name":"Govt Higher Primary School Choulihally"},"geometry":{"type":"Point","coordinates":[76.1829453,14.3726206]}},{"type":"Feature","properties":{"state":"Karnataka","district":13,"district_n":"CHITRADURGA","pc":18,"pc_name":"Chitradurga","ac":102,"ac_name":"Holalkere","booth":25,"booth_name":"Govt Higher Primary School Room No 1 Bahaddurgatta 2"},"geometry":{"type":"Point","coordinates":[76.1689148,14.431179]}},{"type":"Feature","properties":{"state":"Karnataka","district":13,"district_n":"CHITRADURGA","pc":18,"pc_name":"Chitradurga","ac":102,"ac_name":"Holalkere","booth":28,"booth_name":"Govt Lower Primary School Panjaiahanahatty(h)"},"geometry":{"type":"Point","coordinates":[76.1689148,14.431179]}},{"type":"Feature","properties":{"state":"Karnataka","district":13,"district_n":"CHITRADURGA","pc":18,"pc_name":"Chitradurga","ac":102,"ac_name":"Holalkere","booth":30,"booth_name":"Govt Higher Primary School Kodirangavvanahally"},"geometry":{"type":"Point","coordinates":[76.21683,14.3366737]}},{"type":"Feature","properties":{"state":"Karnataka","district":13,"district_n":"CHITRADURGA","pc":18,"pc_name":"Chitradurga","ac":102,"ac_name":"Holalkere","booth":34,"booth_name":"Govt Higher Primary School Basavanashivanakere"},"geometry":{"type":"Point","coordinates":[76.26129,14.3148518]}},{"type":"Feature","properties":{"state":"Karnataka","district":13,"district_n":"CHITRADURGA","pc":18,"pc_name":"Chitradurga","ac":102,"ac_name":"Holalkere","booth":36,"booth_name":"Govt Higher Primary School (room No 2) Kolahal 2"},"geometry":{"type":"Point","coordinates":[76.19564,14.3604984]}},{"type":"Feature","properties":{"state":"Karnataka","district":13,"district_n":"CHITRADURGA","pc":18,"pc_name":"Chitradurga","ac":102,"ac_name":"Holalkere","booth":24,"booth_name":"Govt Higher Primary School Room No 1 Bahaddurgatta 1"},"geometry":{"type":"Point","coordinates":[76.1689148,14.431179]}},{"type":"Feature","properties":{"state":"Karnataka","district":13,"district_n":"CHITRADURGA","pc":18,"pc_name":"Chitradurga","ac":102,"ac_name":"Holalkere","booth":27,"booth_name":"Govt Lower Primary School Nandihally"},"geometry":{"type":"Point","coordinates":[76.1829453,14.3726206]}},{"type":"Feature","properties":{"state":"Karnataka","district":13,"district_n":"CHITRADURGA","pc":18,"pc_name":"Chitradurga","ac":102,"ac_name":"Holalkere","booth":234,"booth_name":"Govt Higher Primary School Kalkere Lambanihatty (h)"},"geometry":{"type":"Point","coordinates":[76.05415,13.9980259]}},{"type":"Feature","properties":{"state":"Karnataka","district":13,"district_n":"CHITRADURGA","pc":18,"pc_name":"Chitradurga","ac":102,"ac_name":"Holalkere","booth":237,"booth_name":"Govt Higher Primary School Idehally"},"geometry":{"type":"Point","coordinates":[76.18834,13.9754362]}},{"type":"Feature","properties":{"state":"Karnataka","district":13,"district_n":"CHITRADURGA","pc":18,"pc_name":"Chitradurga","ac":102,"ac_name":"Holalkere","booth":239,"booth_name":"Govt Lower Primary School Neralakatte"},"geometry":{"type":"Point","coordinates":[76.2879257,14.01035]}},{"type":"Feature","properties":{"state":"Karnataka","district":13,"district_n":"CHITRADURGA","pc":18,"pc_name":"Chitradurga","ac":102,"ac_name":"Holalkere","booth":240,"booth_name":"Govt Higher Primary School Ghattihosahally"},"geometry":{"type":"Point","coordinates":[76.28705,13.9949856]}},{"type":"Feature","properties":{"state":"Karnataka","district":13,"district_n":"CHITRADURGA","pc":18,"pc_name":"Chitradurga","ac":102,"ac_name":"Holalkere","booth":168,"booth_name":"Govt Urdu Higher Primary School (left Sideholalkere 5"},"geometry":{"type":"Point","coordinates":[76.18438,14.0432186]}},{"type":"Feature","properties":{"state":"Karnataka","district":13,"district_n":"CHITRADURGA","pc":18,"pc_name":"Chitradurga","ac":102,"ac_name":"Holalkere","booth":171,"booth_name":"Govt Higher Primary School (left Side)near Bus Stand Holalkere 8"},"geometry":{"type":"Point","coordinates":[76.18467,14.0415535]}},{"type":"Feature","properties":{"state":"Karnataka","district":13,"district_n":"CHITRADURGA","pc":18,"pc_name":"Chitradurga","ac":102,"ac_name":"Holalkere","booth":174,"booth_name":"Govt Higher Primary School P W D Holalkere 11"},"geometry":{"type":"Point","coordinates":[76.18825,14.0432405]}},{"type":"Feature","properties":{"state":"Karnataka","district":13,"district_n":"CHITRADURGA","pc":18,"pc_name":"Chitradurga","ac":102,"ac_name":"Holalkere","booth":173,"booth_name":"Govt Urdu Higher Primary School (kote) Holalkere 10"},"geometry":{"type":"Point","coordinates":[76.18832,14.0429764]}},{"type":"Feature","properties":{"state":"Karnataka","district":13,"district_n":"CHITRADURGA","pc":18,"pc_name":"Chitradurga","ac":102,"ac_name":"Holalkere","booth":236,"booth_name":"Govt Higher Primary School Dasikatte"},"geometry":{"type":"Point","coordinates":[76.11021,13.96778]}},{"type":"Feature","properties":{"state":"Karnataka","district":13,"district_n":"CHITRADURGA","pc":18,"pc_name":"Chitradurga","ac":102,"ac_name":"Holalkere","booth":118,"booth_name":"Govt Girls Higher Primary School Chikkajajuru 1"},"geometry":{"type":"Point","coordinates":[76.14027,14.1276083]}},{"type":"Feature","properties":{"state":"Karnataka","district":13,"district_n":"CHITRADURGA","pc":18,"pc_name":"Chitradurga","ac":102,"ac_name":"Holalkere","booth":121,"booth_name":"S J M M Girls High School (left Side) Chikkajajuru 4"},"geometry":{"type":"Point","coordinates":[76.14094,14.1260681]}},{"type":"Feature","properties":{"state":"Karnataka","district":13,"district_n":"CHITRADURGA","pc":18,"pc_name":"Chitradurga","ac":102,"ac_name":"Holalkere","booth":124,"booth_name":"Govt Higher Primary School Kodagavalli Hatty (h)"},"geometry":{"type":"Point","coordinates":[76.10965,14.11087]}},{"type":"Feature","properties":{"state":"Karnataka","district":13,"district_n":"CHITRADURGA","pc":18,"pc_name":"Chitradurga","ac":102,"ac_name":"Holalkere","booth":127,"booth_name":"Govt Lower Primary School Chikkanakatte"},"geometry":{"type":"Point","coordinates":[76.05618,14.0949745]}},{"type":"Feature","properties":{"state":"Karnataka","district":13,"district_n":"CHITRADURGA","pc":18,"pc_name":"Chitradurga","ac":102,"ac_name":"Holalkere","booth":130,"booth_name":"Govt Lower Primary School Abradasikatte"},"geometry":{"type":"Point","coordinates":[76.0755157,14.0748549]}},{"type":"Feature","properties":{"state":"Karnataka","district":13,"district_n":"CHITRADURGA","pc":18,"pc_name":"Chitradurga","ac":102,"ac_name":"Holalkere","booth":144,"booth_name":"Govt Higher Primary School Room No 1 Gilikenahally 1"},"geometry":{"type":"Point","coordinates":[76.22687,14.0768766]}},{"type":"Feature","properties":{"state":"Karnataka","district":13,"district_n":"CHITRADURGA","pc":18,"pc_name":"Chitradurga","ac":102,"ac_name":"Holalkere","booth":147,"booth_name":"Govt Higher Primary School Apparasanahally"},"geometry":{"type":"Point","coordinates":[76.17515,14.1055889]}},{"type":"Feature","properties":{"state":"Karnataka","district":13,"district_n":"CHITRADURGA","pc":18,"pc_name":"Chitradurga","ac":102,"ac_name":"Holalkere","booth":150,"booth_name":"Govt Higherprimary School Padigatte"},"geometry":{"type":"Point","coordinates":[76.14808,14.0896778]}},{"type":"Feature","properties":{"state":"Karnataka","district":13,"district_n":"CHITRADURGA","pc":18,"pc_name":"Chitradurga","ac":102,"ac_name":"Holalkere","booth":181,"booth_name":"Govt Higher Primary School Echaghatta"},"geometry":{"type":"Point","coordinates":[76.2822342,14.0809164]}},{"type":"Feature","properties":{"state":"Karnataka","district":13,"district_n":"CHITRADURGA","pc":18,"pc_name":"Chitradurga","ac":102,"ac_name":"Holalkere","booth":207,"booth_name":"Govt Higher Primary School T Nellikatte"},"geometry":{"type":"Point","coordinates":[76.30086,14.06072]}},{"type":"Feature","properties":{"state":"Karnataka","district":13,"district_n":"CHITRADURGA","pc":18,"pc_name":"Chitradurga","ac":102,"ac_name":"Holalkere","booth":224,"booth_name":"Govt Higher Primary School Malasinganahally"},"geometry":{"type":"Point","coordinates":[76.25108,14.00852]}},{"type":"Feature","properties":{"state":"Karnataka","district":13,"district_n":"CHITRADURGA","pc":18,"pc_name":"Chitradurga","ac":102,"ac_name":"Holalkere","booth":227,"booth_name":"Govt Higher Primary School (left Side) Gunderi Gunderi 1"},"geometry":{"type":"Point","coordinates":[76.17455,13.9899445]}},{"type":"Feature","properties":{"state":"Karnataka","district":13,"district_n":"CHITRADURGA","pc":18,"pc_name":"Chitradurga","ac":102,"ac_name":"Holalkere","booth":230,"booth_name":"Govt Higher Primary School Room No 2 Rangapura 2"},"geometry":{"type":"Point","coordinates":[76.11228,13.9908543]}},{"type":"Feature","properties":{"state":"Karnataka","district":13,"district_n":"CHITRADURGA","pc":18,"pc_name":"Chitradurga","ac":102,"ac_name":"Holalkere","booth":244,"booth_name":"Govt Higher Primary School Chowdagondanahally"},"geometry":{"type":"Point","coordinates":[76.36646,14.0216122]}},{"type":"Feature","properties":{"state":"Karnataka","district":13,"district_n":"CHITRADURGA","pc":18,"pc_name":"Chitradurga","ac":102,"ac_name":"Holalkere","booth":247,"booth_name":"Govt Higher Primary School Goolihosahally"},"geometry":{"type":"Point","coordinates":[76.372345,13.9768362]}},{"type":"Feature","properties":{"state":"Karnataka","district":13,"district_n":"CHITRADURGA","pc":18,"pc_name":"Chitradurga","ac":102,"ac_name":"Holalkere","booth":250,"booth_name":"Govt Higher Primary School Giddannanahally"},"geometry":{"type":"Point","coordinates":[76.29832,13.9560232]}},{"type":"Feature","properties":{"state":"Karnataka","district":13,"district_n":"CHITRADURGA","pc":18,"pc_name":"Chitradurga","ac":102,"ac_name":"Holalkere","booth":253,"booth_name":"Govt Higher Primary School Santhenahally"},"geometry":{"type":"Point","coordinates":[76.21359,13.968605]}},{"type":"Feature","properties":{"state":"Karnataka","district":13,"district_n":"CHITRADURGA","pc":18,"pc_name":"Chitradurga","ac":102,"ac_name":"Holalkere","booth":256,"booth_name":"Govt Higher Primary School (right Side) Ramagiri 2"},"geometry":{"type":"Point","coordinates":[76.12406,13.9523916]}},{"type":"Feature","properties":{"state":"Karnataka","district":13,"district_n":"CHITRADURGA","pc":18,"pc_name":"Chitradurga","ac":102,"ac_name":"Holalkere","booth":284,"booth_name":"Govt Lower Primary School Kanivehally"},"geometry":{"type":"Point","coordinates":[76.07503,13.8889112]}},{"type":"Feature","properties":{"state":"Karnataka","district":13,"district_n":"CHITRADURGA","pc":18,"pc_name":"Chitradurga","ac":102,"ac_name":"Holalkere","booth":287,"booth_name":"Govt Higher Primary School Room No 1 Bidarakere 1"},"geometry":{"type":"Point","coordinates":[76.13311,13.8749485]}},{"type":"Feature","properties":{"state":"Karnataka","district":13,"district_n":"CHITRADURGA","pc":18,"pc_name":"Chitradurga","ac":102,"ac_name":"Holalkere","booth":264,"booth_name":"Govt Higher Primary School (a K Colony)talikatte 4"},"geometry":{"type":"Point","coordinates":[76.08154,13.9549656]}},{"type":"Feature","properties":{"state":"Karnataka","district":13,"district_n":"CHITRADURGA","pc":18,"pc_name":"Chitradurga","ac":102,"ac_name":"Holalkere","booth":267,"booth_name":"Govt Higher Primary School (right Side)thuppadahally 2"},"geometry":{"type":"Point","coordinates":[76.06624,13.9178228]}},{"type":"Feature","properties":{"state":"Karnataka","district":13,"district_n":"CHITRADURGA","pc":18,"pc_name":"Chitradurga","ac":102,"ac_name":"Holalkere","booth":270,"booth_name":"Govt Higher Primary School Room No 2 Talakatta 2"},"geometry":{"type":"Point","coordinates":[76.11957,13.9170017]}},{"type":"Feature","properties":{"state":"Karnataka","district":13,"district_n":"CHITRADURGA","pc":18,"pc_name":"Chitradurga","ac":102,"ac_name":"Holalkere","booth":273,"booth_name":"Govt Higher Primary School Gundasamudra"},"geometry":{"type":"Point","coordinates":[76.1471252,13.9030933]}},{"type":"Feature","properties":{"state":"Karnataka","district":13,"district_n":"CHITRADURGA","pc":18,"pc_name":"Chitradurga","ac":102,"ac_name":"Holalkere","booth":276,"booth_name":"Govt Higher Primary School Narayanagondanahally"},"geometry":{"type":"Point","coordinates":[76.20252,13.918788]}},{"type":"Feature","properties":{"state":"Karnataka","district":13,"district_n":"CHITRADURGA","pc":18,"pc_name":"Chitradurga","ac":102,"ac_name":"Holalkere","booth":190,"booth_name":"Govt Higher Primary Schoolgunderi Kavalu"},"geometry":{"type":"Point","coordinates":[76.182724,14.0134754]}},{"type":"Feature","properties":{"state":"Karnataka","district":13,"district_n":"CHITRADURGA","pc":18,"pc_name":"Chitradurga","ac":102,"ac_name":"Holalkere","booth":193,"booth_name":"Govt Higher Primary School (right Side) Arehally 1"},"geometry":{"type":"Point","coordinates":[76.1354141,14.036149]}},{"type":"Feature","properties":{"state":"Karnataka","district":13,"district_n":"CHITRADURGA","pc":18,"pc_name":"Chitradurga","ac":102,"ac_name":"Holalkere","booth":94,"booth_name":"Govt Higher Primary School Kallavvanagathihally"},"geometry":{"type":"Point","coordinates":[76.15246,14.1771374]}},{"type":"Feature","properties":{"state":"Karnataka","district":13,"district_n":"CHITRADURGA","pc":18,"pc_name":"Chitradurga","ac":102,"ac_name":"Holalkere","booth":96,"booth_name":"Govt Higher Primary School (left side) Bharamannanayakanadurga 2"},"geometry":{"type":"Point","coordinates":[76.13113,14.18038]}},{"type":"Feature","properties":{"state":"Karnataka","district":13,"district_n":"CHITRADURGA","pc":18,"pc_name":"Chitradurga","ac":102,"ac_name":"Holalkere","booth":97,"booth_name":"Govt Lower Primary School Gulaganji Lambanihatty(h)"},"geometry":{"type":"Point","coordinates":[76.12708,14.2028875]}},{"type":"Feature","properties":{"state":"Karnataka","district":13,"district_n":"CHITRADURGA","pc":18,"pc_name":"Chitradurga","ac":102,"ac_name":"Holalkere","booth":99,"booth_name":"Govt Lower Primary School Kalagatta Voddarahatty (h)"},"geometry":{"type":"Point","coordinates":[76.0835953,14.1863489]}},{"type":"Feature","properties":{"state":"Karnataka","district":13,"district_n":"CHITRADURGA","pc":18,"pc_name":"Chitradurga","ac":102,"ac_name":"Holalkere","booth":100,"booth_name":"Govt Lower Primary Schoolkalagatta Lambanihatty (h)"},"geometry":{"type":"Point","coordinates":[76.0835953,14.1863489]}},{"type":"Feature","properties":{"state":"Karnataka","district":13,"district_n":"CHITRADURGA","pc":18,"pc_name":"Chitradurga","ac":102,"ac_name":"Holalkere","booth":102,"booth_name":"Govt Higher Primary Schoolk Kaduru"},"geometry":{"type":"Point","coordinates":[76.13428,14.1469221]}},{"type":"Feature","properties":{"state":"Karnataka","district":13,"district_n":"CHITRADURGA","pc":18,"pc_name":"Chitradurga","ac":102,"ac_name":"Holalkere","booth":165,"booth_name":"B R C Office, Holalkere 2a"},"geometry":{"type":"Point","coordinates":[76.18393,14.0432091]}},{"type":"Feature","properties":{"state":"Karnataka","district":13,"district_n":"CHITRADURGA","pc":18,"pc_name":"Chitradurga","ac":102,"ac_name":"Holalkere","booth":38,"booth_name":"Govt Higher Primary School Bharamasagara Gollarahatty"},"geometry":{"type":"Point","coordinates":[76.20398,14.3512239]}},{"type":"Feature","properties":{"state":"Karnataka","district":13,"district_n":"CHITRADURGA","pc":18,"pc_name":"Chitradurga","ac":102,"ac_name":"Holalkere","booth":41,"booth_name":"Govt Higher Primary School (room No 3) Bharamasagara Bharamasagara 3"},"geometry":{"type":"Point","coordinates":[76.19874,14.3695555]}},{"type":"Feature","properties":{"state":"Karnataka","district":13,"district_n":"CHITRADURGA","pc":18,"pc_name":"Chitradurga","ac":102,"ac_name":"Holalkere","booth":44,"booth_name":"Govt Lower Primary School Emmehatty"},"geometry":{"type":"Point","coordinates":[76.14408,14.3689623]}},{"type":"Feature","properties":{"state":"Karnataka","district":13,"district_n":"CHITRADURGA","pc":18,"pc_name":"Chitradurga","ac":102,"ac_name":"Holalkere","booth":47,"booth_name":"Govt Higher Primary School Heggere"},"geometry":{"type":"Point","coordinates":[76.21683,14.3366737]}},{"type":"Feature","properties":{"state":"Karnataka","district":13,"district_n":"CHITRADURGA","pc":18,"pc_name":"Chitradurga","ac":102,"ac_name":"Holalkere","booth":55,"booth_name":"Govt Higher Primary School Byalal"},"geometry":{"type":"Point","coordinates":[76.26129,14.3148518]}},{"type":"Feature","properties":{"state":"Karnataka","district":13,"district_n":"CHITRADURGA","pc":18,"pc_name":"Chitradurga","ac":102,"ac_name":"Holalkere","booth":58,"booth_name":"Govt Lower Primary School Hanumanahally"},"geometry":{"type":"Point","coordinates":[76.20993,14.3082209]}},{"type":"Feature","properties":{"state":"Karnataka","district":13,"district_n":"CHITRADURGA","pc":18,"pc_name":"Chitradurga","ac":102,"ac_name":"Holalkere","booth":61,"booth_name":"Govt Lower Primary School Halerangapura"},"geometry":{"type":"Point","coordinates":[76.20993,14.3082209]}},{"type":"Feature","properties":{"state":"Karnataka","district":13,"district_n":"CHITRADURGA","pc":18,"pc_name":"Chitradurga","ac":102,"ac_name":"Holalkere","booth":64,"booth_name":"Govt Higher Primary School (room No 2) Alagavadi 2"},"geometry":{"type":"Point","coordinates":[76.20993,14.3082209]}},{"type":"Feature","properties":{"state":"Karnataka","district":13,"district_n":"CHITRADURGA","pc":18,"pc_name":"Chitradurga","ac":102,"ac_name":"Holalkere","booth":67,"booth_name":"Govt Higher Primary School Jammenahally"},"geometry":{"type":"Point","coordinates":[76.1925049,14.2633572]}},{"type":"Feature","properties":{"state":"Karnataka","district":13,"district_n":"CHITRADURGA","pc":18,"pc_name":"Chitradurga","ac":102,"ac_name":"Holalkere","booth":70,"booth_name":"Govt Higher Primary School (room No 2) Sirigere 2"},"geometry":{"type":"Point","coordinates":[76.20993,14.3082209]}},{"type":"Feature","properties":{"state":"Karnataka","district":13,"district_n":"CHITRADURGA","pc":18,"pc_name":"Chitradurga","ac":102,"ac_name":"Holalkere","booth":81,"booth_name":"Govt Higher Primary School (right Side) Andanur 1"},"geometry":{"type":"Point","coordinates":[76.09031,14.2261763]}},{"type":"Feature","properties":{"state":"Karnataka","district":13,"district_n":"CHITRADURGA","pc":18,"pc_name":"Chitradurga","ac":102,"ac_name":"Holalkere","booth":170,"booth_name":"Govt Urdu Higher Primary School (middle Side)holalkere 7"},"geometry":{"type":"Point","coordinates":[76.184494,14.0432014]}},{"type":"Feature","properties":{"state":"Karnataka","district":13,"district_n":"CHITRADURGA","pc":18,"pc_name":"Chitradurga","ac":102,"ac_name":"Holalkere","booth":172,"booth_name":"Govt Higher Primary School (right Side)near Bus Stand Holalkere 9"},"geometry":{"type":"Point","coordinates":[76.18467,14.0415535]}},{"type":"Feature","properties":{"state":"Karnataka","district":13,"district_n":"CHITRADURGA","pc":18,"pc_name":"Chitradurga","ac":102,"ac_name":"Holalkere","booth":235,"booth_name":"Govt Lower Primary School Talikatte Kavalu"},"geometry":{"type":"Point","coordinates":[76.08599,13.9745111]}},{"type":"Feature","properties":{"state":"Karnataka","district":13,"district_n":"CHITRADURGA","pc":18,"pc_name":"Chitradurga","ac":102,"ac_name":"Holalkere","booth":238,"booth_name":"Govt Lower Primary School K Thirumalapura"},"geometry":{"type":"Point","coordinates":[76.20232,13.9759912]}},{"type":"Feature","properties":{"state":"Karnataka","district":13,"district_n":"CHITRADURGA","pc":18,"pc_name":"Chitradurga","ac":102,"ac_name":"Holalkere","booth":241,"booth_name":"Govt Higher Primary School (room No 1) Nandanahosuru 1"},"geometry":{"type":"Point","coordinates":[76.33298,14.0210075]}},{"type":"Feature","properties":{"state":"Karnataka","district":13,"district_n":"CHITRADURGA","pc":18,"pc_name":"Chitradurga","ac":102,"ac_name":"Holalkere","booth":169,"booth_name":"Govt Urdu Higher Primary School (right Side)holalkere 6"},"geometry":{"type":"Point","coordinates":[76.1845,14.0432129]}},{"type":"Feature","properties":{"state":"Karnataka","district":13,"district_n":"CHITRADURGA","pc":18,"pc_name":"Chitradurga","ac":102,"ac_name":"Holalkere","booth":263,"booth_name":"Sree Beeralingeshwara Rural High School Room No 3 Talikatte 3a"},"geometry":{"type":"Point","coordinates":[76.08271,13.9532852]}},{"type":"Feature","properties":{"state":"Karnataka","district":13,"district_n":"CHITRADURGA","pc":18,"pc_name":"Chitradurga","ac":102,"ac_name":"Holalkere","booth":159,"booth_name":"Govt Higher Primary School Gundimadu"},"geometry":{"type":"Point","coordinates":[76.12386,14.0504465]}},{"type":"Feature","properties":{"state":"Karnataka","district":13,"district_n":"CHITRADURGA","pc":18,"pc_name":"Chitradurga","ac":102,"ac_name":"Holalkere","booth":160,"booth_name":"Govt Higher Primary School Gundimadu Gollarahatty"},"geometry":{"type":"Point","coordinates":[76.1293,14.0470629]}},{"type":"Feature","properties":{"state":"Karnataka","district":13,"district_n":"CHITRADURGA","pc":18,"pc_name":"Chitradurga","ac":102,"ac_name":"Holalkere","booth":162,"booth_name":"Govt Lower Primary School Malkapura"},"geometry":{"type":"Point","coordinates":[76.15192,14.0571566]}},{"type":"Feature","properties":{"state":"Karnataka","district":13,"district_n":"CHITRADURGA","pc":18,"pc_name":"Chitradurga","ac":102,"ac_name":"Holalkere","booth":163,"booth_name":"Govt (kote) Higher Primary School (right Side) Holalkere 1"},"geometry":{"type":"Point","coordinates":[76.18399,14.0432453]}},{"type":"Feature","properties":{"state":"Karnataka","district":13,"district_n":"CHITRADURGA","pc":18,"pc_name":"Chitradurga","ac":102,"ac_name":"Holalkere","booth":161,"booth_name":"Govt Higher Primary School Punajur"},"geometry":{"type":"Point","coordinates":[76.14155,14.0533361]}},{"type":"Feature","properties":{"state":"Karnataka","district":13,"district_n":"CHITRADURGA","pc":18,"pc_name":"Chitradurga","ac":102,"ac_name":"Holalkere","booth":18,"booth_name":"Issamudra Hosahatty Yane Hosapete 2"},"geometry":{"type":"Point","coordinates":[76.2422943,14.4013224]}},{"type":"Feature","properties":{"state":"Karnataka","district":13,"district_n":"CHITRADURGA","pc":18,"pc_name":"Chitradurga","ac":102,"ac_name":"Holalkere","booth":233,"booth_name":"Govt, Higher Primary School, Room No 2 Kalere 2"},"geometry":{"type":"Point","coordinates":[76.06179,14.0011091]}},{"type":"Feature","properties":{"state":"Karnataka","district":13,"district_n":"CHITRADURGA","pc":18,"pc_name":"Chitradurga","ac":102,"ac_name":"Holalkere","booth":158,"booth_name":"Govt Higher Primary School Room No 2 Malladihally 4"},"geometry":{"type":"Point","coordinates":[76.091,14.0367594]}},{"type":"Feature","properties":{"state":"Karnataka","district":13,"district_n":"CHITRADURGA","pc":18,"pc_name":"Chitradurga","ac":102,"ac_name":"Holalkere","booth":7,"booth_name":"Govt Urdu Lower Primary School Pinjarahatty(h)"},"geometry":{"type":"Point","coordinates":[76.2422943,14.4013224]}},{"type":"Feature","properties":{"state":"Karnataka","district":13,"district_n":"CHITRADURGA","pc":18,"pc_name":"Chitradurga","ac":102,"ac_name":"Holalkere","booth":15,"booth_name":"Govt Urdu Lower Primary School Sulthanipura"},"geometry":{"type":"Point","coordinates":[76.19341,14.3512239]}},{"type":"Feature","properties":{"state":"Karnataka","district":13,"district_n":"CHITRADURGA","pc":18,"pc_name":"Chitradurga","ac":102,"ac_name":"Holalkere","booth":21,"booth_name":"Govt Higher Primary School Kakabalu"},"geometry":{"type":"Point","coordinates":[76.18283,14.3725967]}},{"type":"Feature","properties":{"state":"Karnataka","district":13,"district_n":"CHITRADURGA","pc":18,"pc_name":"Chitradurga","ac":102,"ac_name":"Holalkere","booth":35,"booth_name":"Govt Higher Primary School (room No 1) Kolahal 1"},"geometry":{"type":"Point","coordinates":[76.21684,14.3366623]}},{"type":"Feature","properties":{"state":"Karnataka","district":13,"district_n":"CHITRADURGA","pc":18,"pc_name":"Chitradurga","ac":102,"ac_name":"Holalkere","booth":26,"booth_name":"Govt Lower Primary School Hemmanagatta"},"geometry":{"type":"Point","coordinates":[76.1689148,14.431179]}},{"type":"Feature","properties":{"state":"Karnataka","district":13,"district_n":"CHITRADURGA","pc":18,"pc_name":"Chitradurga","ac":102,"ac_name":"Holalkere","booth":29,"booth_name":"Govt Lower Primary School Dyapanahally"},"geometry":{"type":"Point","coordinates":[76.1829453,14.3726206]}},{"type":"Feature","properties":{"state":"Karnataka","district":13,"district_n":"CHITRADURGA","pc":18,"pc_name":"Chitradurga","ac":102,"ac_name":"Holalkere","booth":9,"booth_name":"Govt Higher Primary School B Nellikatte"},"geometry":{"type":"Point","coordinates":[76.2943649,14.4254227]}},{"type":"Feature","properties":{"state":"Karnataka","district":13,"district_n":"CHITRADURGA","pc":18,"pc_name":"Chitradurga","ac":102,"ac_name":"Holalkere","booth":12,"booth_name":"Govt Higher Primary School Basthihally"},"geometry":{"type":"Point","coordinates":[76.30321,14.3836565]}},{"type":"Feature","properties":{"state":"Karnataka","district":13,"district_n":"CHITRADURGA","pc":18,"pc_name":"Chitradurga","ac":102,"ac_name":"Holalkere","booth":20,"booth_name":"Govt Lower Primary School Issamudra Gollarahatty (h)"},"geometry":{"type":"Point","coordinates":[76.2422943,14.4013224]}},{"type":"Feature","properties":{"state":"Karnataka","district":13,"district_n":"CHITRADURGA","pc":18,"pc_name":"Chitradurga","ac":102,"ac_name":"Holalkere","booth":23,"booth_name":"Govt Higher Primary School Choulihally Gollarahatti"},"geometry":{"type":"Point","coordinates":[76.19814,14.3695555]}},{"type":"Feature","properties":{"state":"Karnataka","district":13,"district_n":"CHITRADURGA","pc":18,"pc_name":"Chitradurga","ac":102,"ac_name":"Holalkere","booth":187,"booth_name":"Govt Boys Higher Primary School T Yemmiganuru"},"geometry":{"type":"Point","coordinates":[76.24363,14.04922]}},{"type":"Feature","properties":{"state":"Karnataka","district":13,"district_n":"CHITRADURGA","pc":18,"pc_name":"Chitradurga","ac":102,"ac_name":"Holalkere","booth":146,"booth_name":"Govt Higherprimary School Mekenahatty(h)"},"geometry":{"type":"Point","coordinates":[76.19165,14.10465]}},{"type":"Feature","properties":{"state":"Karnataka","district":13,"district_n":"CHITRADURGA","pc":18,"pc_name":"Chitradurga","ac":102,"ac_name":"Holalkere","booth":186,"booth_name":"Govt Boys Higher Primary School Madderu"},"geometry":{"type":"Point","coordinates":[76.25736,14.043148]}},{"type":"Feature","properties":{"state":"Karnataka","district":13,"district_n":"CHITRADURGA","pc":18,"pc_name":"Chitradurga","ac":102,"ac_name":"Holalkere","booth":211,"booth_name":"Govt Higher Primary School Thekalavatti"},"geometry":{"type":"Point","coordinates":[76.3937,14.035717]}},{"type":"Feature","properties":{"state":"Karnataka","district":13,"district_n":"CHITRADURGA","pc":18,"pc_name":"Chitradurga","ac":102,"ac_name":"Holalkere","booth":214,"booth_name":"Govt Higher Primary School (left Side) Kolalu 1"},"geometry":{"type":"Point","coordinates":[76.44253,14.0443964]}},{"type":"Feature","properties":{"state":"Karnataka","district":13,"district_n":"CHITRADURGA","pc":18,"pc_name":"Chitradurga","ac":102,"ac_name":"Holalkere","booth":217,"booth_name":"Govt Higher Primary School Kanivejogihally"},"geometry":{"type":"Point","coordinates":[76.35006,14.0440454]}},{"type":"Feature","properties":{"state":"Karnataka","district":13,"district_n":"CHITRADURGA","pc":18,"pc_name":"Chitradurga","ac":102,"ac_name":"Holalkere","booth":219,"booth_name":"Govt Higher Primary School Room No 2 Horakeredevarapura Horakeredevarapura 1a"},"geometry":{"type":"Point","coordinates":[76.3294144,14.0335665]}},{"type":"Feature","properties":{"state":"Karnataka","district":13,"district_n":"CHITRADURGA","pc":18,"pc_name":"Chitradurga","ac":102,"ac_name":"Holalkere","booth":220,"booth_name":"S L N R High School Horakeredevarapura Horakeredevarapura 2"},"geometry":{"type":"Point","coordinates":[76.32985,14.0330811]}},{"type":"Feature","properties":{"state":"Karnataka","district":13,"district_n":"CHITRADURGA","pc":18,"pc_name":"Chitradurga","ac":102,"ac_name":"Holalkere","booth":210,"booth_name":"Govt Lower Primary School Kasavanahally"},"geometry":{"type":"Point","coordinates":[76.34625,14.066453]}},{"type":"Feature","properties":{"state":"Karnataka","district":13,"district_n":"CHITRADURGA","pc":18,"pc_name":"Chitradurga","ac":102,"ac_name":"Holalkere","booth":213,"booth_name":"Govt Lower Primary School Komaranahally"},"geometry":{"type":"Point","coordinates":[76.40957,14.024087]}},{"type":"Feature","properties":{"state":"Karnataka","district":13,"district_n":"CHITRADURGA","pc":18,"pc_name":"Chitradurga","ac":102,"ac_name":"Holalkere","booth":216,"booth_name":"Govt Lower Primary School Maddappanahatty(h)"},"geometry":{"type":"Point","coordinates":[76.45057,14.0477428]}},{"type":"Feature","properties":{"state":"Karnataka","district":13,"district_n":"CHITRADURGA","pc":18,"pc_name":"Chitradurga","ac":102,"ac_name":"Holalkere","booth":209,"booth_name":"Govt Higher Primary School Mathigatta"},"geometry":{"type":"Point","coordinates":[76.3143845,14.0480642]}},{"type":"Feature","properties":{"state":"Karnataka","district":13,"district_n":"CHITRADURGA","pc":18,"pc_name":"Chitradurga","ac":102,"ac_name":"Holalkere","booth":126,"booth_name":"Govt, Higher Primary School, Room No 2 Chikkayemmiganur 2"},"geometry":{"type":"Point","coordinates":[76.07951,14.1073923]}},{"type":"Feature","properties":{"state":"Karnataka","district":13,"district_n":"CHITRADURGA","pc":18,"pc_name":"Chitradurga","ac":102,"ac_name":"Holalkere","booth":2,"booth_name":"Govt Higher Primary School (east wing) Kogunde Kogunde 2"},"geometry":{"type":"Point","coordinates":[76.21603,14.4993362]}},{"type":"Feature","properties":{"state":"Karnataka","district":13,"district_n":"CHITRADURGA","pc":18,"pc_name":"Chitradurga","ac":102,"ac_name":"Holalkere","booth":133,"booth_name":"Govt Lower Primary School Kotehal"},"geometry":{"type":"Point","coordinates":[76.1325,14.1169233]}},{"type":"Feature","properties":{"state":"Karnataka","district":13,"district_n":"CHITRADURGA","pc":18,"pc_name":"Chitradurga","ac":102,"ac_name":"Holalkere","booth":134,"booth_name":"Govt Lower Primary School Banagere"},"geometry":{"type":"Point","coordinates":[76.14759,14.10641]}},{"type":"Feature","properties":{"state":"Karnataka","district":13,"district_n":"CHITRADURGA","pc":18,"pc_name":"Chitradurga","ac":102,"ac_name":"Holalkere","booth":1,"booth_name":"Govt Higher Primary School (west wing) Kogunde Kogunde 1"},"geometry":{"type":"Point","coordinates":[76.21603,14.4993362]}},{"type":"Feature","properties":{"state":"Karnataka","district":13,"district_n":"CHITRADURGA","pc":18,"pc_name":"Chitradurga","ac":102,"ac_name":"Holalkere","booth":132,"booth_name":"Govt Lower Primary School Hosahally"},"geometry":{"type":"Point","coordinates":[76.11946,14.094121]}},{"type":"Feature","properties":{"state":"Karnataka","district":13,"district_n":"CHITRADURGA","pc":18,"pc_name":"Chitradurga","ac":102,"ac_name":"Holalkere","booth":135,"booth_name":"Govt Lower Primary School Channapattana"},"geometry":{"type":"Point","coordinates":[76.1607,14.1124191]}},{"type":"Feature","properties":{"state":"Karnataka","district":13,"district_n":"CHITRADURGA","pc":18,"pc_name":"Chitradurga","ac":102,"ac_name":"Holalkere","booth":3,"booth_name":"Govt Lower Primary School Kodihally"},"geometry":{"type":"Point","coordinates":[76.2422943,14.4013224]}},{"type":"Feature","properties":{"state":"Karnataka","district":13,"district_n":"CHITRADURGA","pc":18,"pc_name":"Chitradurga","ac":102,"ac_name":"Holalkere","booth":105,"booth_name":"Govt Higher Primary School (left Side) Chikkandavadi 1"},"geometry":{"type":"Point","coordinates":[76.1780243,14.1372557]}},{"type":"Feature","properties":{"state":"Karnataka","district":13,"district_n":"CHITRADURGA","pc":18,"pc_name":"Chitradurga","ac":102,"ac_name":"Holalkere","booth":108,"booth_name":"Govt Lower Primary School Shrungerihanumanahally"},"geometry":{"type":"Point","coordinates":[76.12336,14.1764021]}},{"type":"Feature","properties":{"state":"Karnataka","district":13,"district_n":"CHITRADURGA","pc":18,"pc_name":"Chitradurga","ac":102,"ac_name":"Holalkere","booth":111,"booth_name":"Govt Higher Primary School (left Side) Hireyammiganur Hireyammiganur 1"},"geometry":{"type":"Point","coordinates":[76.059166,14.11833]}},{"type":"Feature","properties":{"state":"Karnataka","district":13,"district_n":"CHITRADURGA","pc":18,"pc_name":"Chitradurga","ac":102,"ac_name":"Holalkere","booth":104,"booth_name":"Govt Lower Primary School Rangavvanahally"},"geometry":{"type":"Point","coordinates":[76.13776,14.1614437]}},{"type":"Feature","properties":{"state":"Karnataka","district":13,"district_n":"CHITRADURGA","pc":18,"pc_name":"Chitradurga","ac":102,"ac_name":"Holalkere","booth":107,"booth_name":"Govt Higher Primary School Gunjiganur"},"geometry":{"type":"Point","coordinates":[76.14689,14.1466589]}},{"type":"Feature","properties":{"state":"Karnataka","district":13,"district_n":"CHITRADURGA","pc":18,"pc_name":"Chitradurga","ac":102,"ac_name":"Holalkere","booth":110,"booth_name":"Govt Lower Primary School Honnakaluve"},"geometry":{"type":"Point","coordinates":[76.13299,14.144948]}},{"type":"Feature","properties":{"state":"Karnataka","district":13,"district_n":"CHITRADURGA","pc":18,"pc_name":"Chitradurga","ac":102,"ac_name":"Holalkere","booth":103,"booth_name":"Govt Higher Primary School Iyyanahally"},"geometry":{"type":"Point","coordinates":[76.12157,14.2037773]}},{"type":"Feature","properties":{"state":"Karnataka","district":13,"district_n":"CHITRADURGA","pc":18,"pc_name":"Chitradurga","ac":102,"ac_name":"Holalkere","booth":106,"booth_name":"Govt Higher Primary School (right Side) Chikkandavadi 2"},"geometry":{"type":"Point","coordinates":[76.17803,14.1372395]}},{"type":"Feature","properties":{"state":"Karnataka","district":13,"district_n":"CHITRADURGA","pc":18,"pc_name":"Chitradurga","ac":102,"ac_name":"Holalkere","booth":109,"booth_name":"Govt Higher Primary School Shrungerihanumanahally Gollarahatty (h)"},"geometry":{"type":"Point","coordinates":[76.128746,14.1530113]}},{"type":"Feature","properties":{"state":"Karnataka","district":13,"district_n":"CHITRADURGA","pc":18,"pc_name":"Chitradurga","ac":102,"ac_name":"Holalkere","booth":90,"booth_name":"Govt Higher Primary School Sasalu"},"geometry":{"type":"Point","coordinates":[76.11605,14.198514]}},{"type":"Feature","properties":{"state":"Karnataka","district":13,"district_n":"CHITRADURGA","pc":18,"pc_name":"Chitradurga","ac":102,"ac_name":"Holalkere","booth":98,"booth_name":"Govt Higher Primary School (right side) Kalagatta"},"geometry":{"type":"Point","coordinates":[76.0835953,14.1863489]}},{"type":"Feature","properties":{"state":"Karnataka","district":13,"district_n":"CHITRADURGA","pc":18,"pc_name":"Chitradurga","ac":102,"ac_name":"Holalkere","booth":101,"booth_name":"Govt Lower Primary School Nandihally"},"geometry":{"type":"Point","coordinates":[76.0606842,14.1502571]}},{"type":"Feature","properties":{"state":"Karnataka","district":13,"district_n":"CHITRADURGA","pc":18,"pc_name":"Chitradurga","ac":102,"ac_name":"Holalkere","booth":32,"booth_name":"Govt Higher Primary School Adavigollarahally"},"geometry":{"type":"Point","coordinates":[76.26454,14.325531]}},{"type":"Feature","properties":{"state":"Karnataka","district":13,"district_n":"CHITRADURGA","pc":18,"pc_name":"Chitradurga","ac":102,"ac_name":"Holalkere","booth":40,"booth_name":"Govt Higher Primary School (room No 2) Bharamasagara Bharamasagara 2"},"geometry":{"type":"Point","coordinates":[76.18243,14.3689413]}},{"type":"Feature","properties":{"state":"Karnataka","district":13,"district_n":"CHITRADURGA","pc":18,"pc_name":"Chitradurga","ac":102,"ac_name":"Holalkere","booth":43,"booth_name":"Govt Higher Primary School Bevinahally"},"geometry":{"type":"Point","coordinates":[76.1829453,14.3726206]}},{"type":"Feature","properties":{"state":"Karnataka","district":13,"district_n":"CHITRADURGA","pc":18,"pc_name":"Chitradurga","ac":102,"ac_name":"Holalkere","booth":46,"booth_name":"Govt Higher Primary School (right side) Hampanur 1"},"geometry":{"type":"Point","coordinates":[76.14408,14.3689623]}},{"type":"Feature","properties":{"state":"Karnataka","district":13,"district_n":"CHITRADURGA","pc":18,"pc_name":"Chitradurga","ac":102,"ac_name":"Holalkere","booth":49,"booth_name":"Govt Higher Primary School Halavudara Lambanihatty yane Eshwaranagara"},"geometry":{"type":"Point","coordinates":[76.216835,14.3366623]}},{"type":"Feature","properties":{"state":"Karnataka","district":13,"district_n":"CHITRADURGA","pc":18,"pc_name":"Chitradurga","ac":102,"ac_name":"Holalkere","booth":52,"booth_name":"Govt Higher Primary School Chikkabennuru"},"geometry":{"type":"Point","coordinates":[76.21684,14.3366623]}},{"type":"Feature","properties":{"state":"Karnataka","district":13,"district_n":"CHITRADURGA","pc":18,"pc_name":"Chitradurga","ac":102,"ac_name":"Holalkere","booth":201,"booth_name":"Govt Higher Primary School Dummi Gollarahatty (h)"},"geometry":{"type":"Point","coordinates":[76.0619354,14.0124846]}},{"type":"Feature","properties":{"state":"Karnataka","district":13,"district_n":"CHITRADURGA","pc":18,"pc_name":"Chitradurga","ac":102,"ac_name":"Holalkere","booth":204,"booth_name":"Govt Higher Primary School Malenahally"},"geometry":{"type":"Point","coordinates":[76.14303,14.006321]}},{"type":"Feature","properties":{"state":"Karnataka","district":13,"district_n":"CHITRADURGA","pc":18,"pc_name":"Chitradurga","ac":102,"ac_name":"Holalkere","booth":153,"booth_name":"Govt Higher Primary School Room No 2 Shivapura 2"},"geometry":{"type":"Point","coordinates":[76.10259,14.0667753]}},{"type":"Feature","properties":{"state":"Karnataka","district":13,"district_n":"CHITRADURGA","pc":18,"pc_name":"Chitradurga","ac":102,"ac_name":"Holalkere","booth":164,"booth_name":"Govt (kote) Higher Primary School (left Side) Holalkere 2"},"geometry":{"type":"Point","coordinates":[76.18393,14.0432091]}},{"type":"Feature","properties":{"state":"Karnataka","district":13,"district_n":"CHITRADURGA","pc":18,"pc_name":"Chitradurga","ac":102,"ac_name":"Holalkere","booth":167,"booth_name":"Govt Boys Higher Primary School (lift Side) Holalkere 4"},"geometry":{"type":"Point","coordinates":[76.1841354,14.043088]}},{"type":"Feature","properties":{"state":"Karnataka","district":13,"district_n":"CHITRADURGA","pc":18,"pc_name":"Chitradurga","ac":102,"ac_name":"Holalkere","booth":115,"booth_name":"Govt Lower Primary School Basavapura"},"geometry":{"type":"Point","coordinates":[76.2386246,14.1542149]}},{"type":"Feature","properties":{"state":"Karnataka","district":13,"district_n":"CHITRADURGA","pc":18,"pc_name":"Chitradurga","ac":102,"ac_name":"Holalkere","booth":123,"booth_name":"Govt Lower Primary School Kodagavalli"},"geometry":{"type":"Point","coordinates":[76.11335,14.1113548]}},{"type":"Feature","properties":{"state":"Karnataka","district":13,"district_n":"CHITRADURGA","pc":18,"pc_name":"Chitradurga","ac":102,"ac_name":"Holalkere","booth":129,"booth_name":"Govt Higher Primary School Ramagatta"},"geometry":{"type":"Point","coordinates":[76.0656,14.0834408]}},{"type":"Feature","properties":{"state":"Karnataka","district":13,"district_n":"CHITRADURGA","pc":18,"pc_name":"Chitradurga","ac":102,"ac_name":"Holalkere","booth":138,"booth_name":"Govt Higher Primary School Thodaranahal"},"geometry":{"type":"Point","coordinates":[76.27043,14.1340551]}},{"type":"Feature","properties":{"state":"Karnataka","district":13,"district_n":"CHITRADURGA","pc":18,"pc_name":"Chitradurga","ac":102,"ac_name":"Holalkere","booth":149,"booth_name":"Govt Higher Primary School Room No 2 Adanuru 2"},"geometry":{"type":"Point","coordinates":[76.1643753,14.0799818]}},{"type":"Feature","properties":{"state":"Karnataka","district":13,"district_n":"CHITRADURGA","pc":18,"pc_name":"Chitradurga","ac":102,"ac_name":"Holalkere","booth":175,"booth_name":"Govt Lower Primary School Cheeranahalli"},"geometry":{"type":"Point","coordinates":[76.18213,14.06302]}},{"type":"Feature","properties":{"state":"Karnataka","district":13,"district_n":"CHITRADURGA","pc":18,"pc_name":"Chitradurga","ac":102,"ac_name":"Holalkere","booth":178,"booth_name":"Govt Lower Primary School Halehalli Lambanihatty(h)"},"geometry":{"type":"Point","coordinates":[76.22461,14.053875]}},{"type":"Feature","properties":{"state":"Karnataka","district":13,"district_n":"CHITRADURGA","pc":18,"pc_name":"Chitradurga","ac":102,"ac_name":"Holalkere","booth":206,"booth_name":"Govt Lower Primary School Shirapanahally"},"geometry":{"type":"Point","coordinates":[76.24886,14.0297985]}},{"type":"Feature","properties":{"state":"Karnataka","district":13,"district_n":"CHITRADURGA","pc":18,"pc_name":"Chitradurga","ac":102,"ac_name":"Holalkere","booth":229,"booth_name":"Govt Higher Primary School Room No 1 Rangapura 1"},"geometry":{"type":"Point","coordinates":[76.11198,13.99085]}},{"type":"Feature","properties":{"state":"Karnataka","district":13,"district_n":"CHITRADURGA","pc":18,"pc_name":"Chitradurga","ac":102,"ac_name":"Holalkere","booth":232,"booth_name":"Govt Higher Primary School Kalkere"},"geometry":{"type":"Point","coordinates":[76.06179,14.0011091]}},{"type":"Feature","properties":{"state":"Karnataka","district":13,"district_n":"CHITRADURGA","pc":18,"pc_name":"Chitradurga","ac":102,"ac_name":"Holalkere","booth":249,"booth_name":"Govt Lower Primary School Kumminaghatta"},"geometry":{"type":"Point","coordinates":[76.29771,13.9808168]}},{"type":"Feature","properties":{"state":"Karnataka","district":13,"district_n":"CHITRADURGA","pc":18,"pc_name":"Chitradurga","ac":102,"ac_name":"Holalkere","booth":252,"booth_name":"Govt Lower Primary School Papenahally"},"geometry":{"type":"Point","coordinates":[76.26306,13.9661922]}},{"type":"Feature","properties":{"state":"Karnataka","district":13,"district_n":"CHITRADURGA","pc":18,"pc_name":"Chitradurga","ac":102,"ac_name":"Holalkere","booth":255,"booth_name":"Govt Higher Primary School (left Side) Ramagiri 1"},"geometry":{"type":"Point","coordinates":[76.12397,13.952527]}},{"type":"Feature","properties":{"state":"Karnataka","district":13,"district_n":"CHITRADURGA","pc":18,"pc_name":"Chitradurga","ac":102,"ac_name":"Holalkere","booth":63,"booth_name":"Govt Higher Primary School (room No 1) Alagavadi 1"},"geometry":{"type":"Point","coordinates":[76.20993,14.3082209]}},{"type":"Feature","properties":{"state":"Karnataka","district":13,"district_n":"CHITRADURGA","pc":18,"pc_name":"Chitradurga","ac":102,"ac_name":"Holalkere","booth":66,"booth_name":"Govt Higher Primary School Palakihally"},"geometry":{"type":"Point","coordinates":[76.1925049,14.2633572]}},{"type":"Feature","properties":{"state":"Karnataka","district":13,"district_n":"CHITRADURGA","pc":18,"pc_name":"Chitradurga","ac":102,"ac_name":"Holalkere","booth":69,"booth_name":"Govt Higher Primary School (room No 3) Sirigere 1a"},"geometry":{"type":"Point","coordinates":[76.20993,14.3082209]}},{"type":"Feature","properties":{"state":"Karnataka","district":13,"district_n":"CHITRADURGA","pc":18,"pc_name":"Chitradurga","ac":102,"ac_name":"Holalkere","booth":72,"booth_name":"Govt Higherprimary School Siddapura"},"geometry":{"type":"Point","coordinates":[76.1925049,14.2633572]}},{"type":"Feature","properties":{"state":"Karnataka","district":13,"district_n":"CHITRADURGA","pc":18,"pc_name":"Chitradurga","ac":102,"ac_name":"Holalkere","booth":75,"booth_name":"Govt Higher Primary School Konanur"},"geometry":{"type":"Point","coordinates":[76.22041,14.2574892]}},{"type":"Feature","properties":{"state":"Karnataka","district":13,"district_n":"CHITRADURGA","pc":18,"pc_name":"Chitradurga","ac":102,"ac_name":"Holalkere","booth":89,"booth_name":"Govt Higher Primary School Dandigenahally"},"geometry":{"type":"Point","coordinates":[76.06414,14.9044962]}},{"type":"Feature","properties":{"state":"Karnataka","district":13,"district_n":"CHITRADURGA","pc":18,"pc_name":"Chitradurga","ac":102,"ac_name":"Holalkere","booth":92,"booth_name":"Govt Higher Primary School (left side) Hirekandavadi 1"},"geometry":{"type":"Point","coordinates":[76.19553,14.1866446]}},{"type":"Feature","properties":{"state":"Karnataka","district":13,"district_n":"CHITRADURGA","pc":18,"pc_name":"Chitradurga","ac":102,"ac_name":"Holalkere","booth":95,"booth_name":"Govt Higher Primary School (right side) Bharamannanayakanadurga 1"},"geometry":{"type":"Point","coordinates":[76.13122,14.180377]}},{"type":"Feature","properties":{"state":"Karnataka","district":13,"district_n":"CHITRADURGA","pc":18,"pc_name":"Chitradurga","ac":102,"ac_name":"Holalkere","booth":212,"booth_name":"Govt Lower Primary School Thekalavatti Gollarahatty (h)"},"geometry":{"type":"Point","coordinates":[76.38835,14.0315828]}},{"type":"Feature","properties":{"state":"Karnataka","district":13,"district_n":"CHITRADURGA","pc":18,"pc_name":"Chitradurga","ac":102,"ac_name":"Holalkere","booth":215,"booth_name":"Govt Higher Primary School (right Side) Kolalu 2"},"geometry":{"type":"Point","coordinates":[76.4424744,14.0443878]}},{"type":"Feature","properties":{"state":"Karnataka","district":13,"district_n":"CHITRADURGA","pc":18,"pc_name":"Chitradurga","ac":102,"ac_name":"Holalkere","booth":218,"booth_name":"Govt Higher Primary School Room No 1 Horakeredevarapura Horakeredevarapura 1"},"geometry":{"type":"Point","coordinates":[76.3292542,14.0334587]}},{"type":"Feature","properties":{"state":"Karnataka","district":13,"district_n":"CHITRADURGA","pc":18,"pc_name":"Chitradurga","ac":102,"ac_name":"Holalkere","booth":221,"booth_name":"Govt Girls Higher Primary School (left Side)talya 1"},"geometry":{"type":"Point","coordinates":[76.26947,14.0228319]}},{"type":"Feature","properties":{"state":"Karnataka","district":13,"district_n":"CHITRADURGA","pc":18,"pc_name":"Chitradurga","ac":102,"ac_name":"Holalkere","booth":112,"booth_name":"Govt Higher Primary School (right Side) Hireyammiganur Hireyammiganur 2"},"geometry":{"type":"Point","coordinates":[76.0593,14.1181574]}},{"type":"Feature","properties":{"state":"Karnataka","district":13,"district_n":"CHITRADURGA","pc":18,"pc_name":"Chitradurga","ac":102,"ac_name":"Holalkere","booth":258,"booth_name":"Govt Lower Primary School Room No 2 Ramagiri 4"},"geometry":{"type":"Point","coordinates":[76.1231461,13.9541426]}},{"type":"Feature","properties":{"state":"Karnataka","district":13,"district_n":"CHITRADURGA","pc":18,"pc_name":"Chitradurga","ac":102,"ac_name":"Holalkere","booth":261,"booth_name":"Sree Beeralingeshwara Rural High School Room No 1 Talikatte 2"},"geometry":{"type":"Point","coordinates":[76.08269,13.9532175]}},{"type":"Feature","properties":{"state":"Karnataka","district":13,"district_n":"CHITRADURGA","pc":18,"pc_name":"Chitradurga","ac":102,"ac_name":"Holalkere","booth":281,"booth_name":"Govt Lower Primary School Arabhagatta"},"geometry":{"type":"Point","coordinates":[76.13949,13.8948517]}},{"type":"Feature","properties":{"state":"Karnataka","district":13,"district_n":"CHITRADURGA","pc":18,"pc_name":"Chitradurga","ac":102,"ac_name":"Holalkere","booth":269,"booth_name":"Govt Higher Primary School Room No 1talakatta 1"},"geometry":{"type":"Point","coordinates":[76.11949,13.917079]}},{"type":"Feature","properties":{"state":"Karnataka","district":13,"district_n":"CHITRADURGA","pc":18,"pc_name":"Chitradurga","ac":102,"ac_name":"Holalkere","booth":272,"booth_name":"Govt Higher Primary School Room No 2 Gangasamudra 2"},"geometry":{"type":"Point","coordinates":[76.14284,13.9180441]}},{"type":"Feature","properties":{"state":"Karnataka","district":13,"district_n":"CHITRADURGA","pc":18,"pc_name":"Chitradurga","ac":102,"ac_name":"Holalkere","booth":275,"booth_name":"Govt Lower Primary School R Gollarahally"},"geometry":{"type":"Point","coordinates":[76.18255,13.9272842]}},{"type":"Feature","properties":{"state":"Karnataka","district":13,"district_n":"CHITRADURGA","pc":18,"pc_name":"Chitradurga","ac":102,"ac_name":"Holalkere","booth":278,"booth_name":"Govt Lower Primary School Uganekatte"},"geometry":{"type":"Point","coordinates":[76.21515,13.9335194]}},{"type":"Feature","properties":{"state":"Karnataka","district":13,"district_n":"CHITRADURGA","pc":18,"pc_name":"Chitradurga","ac":102,"ac_name":"Holalkere","booth":189,"booth_name":"Govt Lower Primary School Kudineerakatte Lambanihaty(h)"},"geometry":{"type":"Point","coordinates":[76.20242,14.0381393]}},{"type":"Feature","properties":{"state":"Karnataka","district":13,"district_n":"CHITRADURGA","pc":18,"pc_name":"Chitradurga","ac":102,"ac_name":"Holalkere","booth":192,"booth_name":"Govt Higher Primary School Kamasamudra"},"geometry":{"type":"Point","coordinates":[76.1549,14.0279]}},{"type":"Feature","properties":{"state":"Karnataka","district":13,"district_n":"CHITRADURGA","pc":18,"pc_name":"Chitradurga","ac":102,"ac_name":"Holalkere","booth":195,"booth_name":"Govt Lower Primary School Arehally Kavalu"},"geometry":{"type":"Point","coordinates":[76.1356,14.0236664]}},{"type":"Feature","properties":{"state":"Karnataka","district":13,"district_n":"CHITRADURGA","pc":18,"pc_name":"Chitradurga","ac":102,"ac_name":"Holalkere","booth":198,"booth_name":"Govt Higher Primary School (left Side) Dummi 1"},"geometry":{"type":"Point","coordinates":[76.06647,14.0288954]}},{"type":"Feature","properties":{"state":"Karnataka","district":13,"district_n":"CHITRADURGA","pc":18,"pc_name":"Chitradurga","ac":102,"ac_name":"Holalkere","booth":152,"booth_name":"Govt Higher Primary School Room No 1 Shivapura 1"},"geometry":{"type":"Point","coordinates":[76.1027756,14.066803]}},{"type":"Feature","properties":{"state":"Karnataka","district":13,"district_n":"CHITRADURGA","pc":18,"pc_name":"Chitradurga","ac":102,"ac_name":"Holalkere","booth":155,"booth_name":"Govt Higher Primary School Vanakemaradikaval"},"geometry":{"type":"Point","coordinates":[76.0645752,14.0501451]}},{"type":"Feature","properties":{"state":"Karnataka","district":13,"district_n":"CHITRADURGA","pc":18,"pc_name":"Chitradurga","ac":102,"ac_name":"Holalkere","booth":166,"booth_name":"Govt Boys Higher Primary School (right Side) Holalkere 3"},"geometry":{"type":"Point","coordinates":[76.18412,14.0430937]}},{"type":"Feature","properties":{"state":"Karnataka","district":13,"district_n":"CHITRADURGA","pc":18,"pc_name":"Chitradurga","ac":102,"ac_name":"Holalkere","booth":77,"booth_name":"Govt Higher Primary School D Madakaripura"},"geometry":{"type":"Point","coordinates":[76.1925049,14.2633572]}},{"type":"Feature","properties":{"state":"Karnataka","district":13,"district_n":"CHITRADURGA","pc":18,"pc_name":"Chitradurga","ac":102,"ac_name":"Holalkere","booth":79,"booth_name":"Govt Higher Primary School Ganjigatte"},"geometry":{"type":"Point","coordinates":[76.11815,14.2344837]}},{"type":"Feature","properties":{"state":"Karnataka","district":13,"district_n":"CHITRADURGA","pc":18,"pc_name":"Chitradurga","ac":102,"ac_name":"Holalkere","booth":85,"booth_name":"Govt Higher Primary School Room No 1 Muttugaduru 1"},"geometry":{"type":"Point","coordinates":[76.11901,14.2197208]}},{"type":"Feature","properties":{"state":"Karnataka","district":13,"district_n":"CHITRADURGA","pc":18,"pc_name":"Chitradurga","ac":102,"ac_name":"Holalkere","booth":78,"booth_name":"Govt Lower Primary School Udogere"},"geometry":{"type":"Point","coordinates":[76.13007,14.2342834]}},{"type":"Feature","properties":{"state":"Karnataka","district":13,"district_n":"CHITRADURGA","pc":18,"pc_name":"Chitradurga","ac":102,"ac_name":"Holalkere","booth":84,"booth_name":"Govt Higher Primary Schoolkagalagere"},"geometry":{"type":"Point","coordinates":[76.13419,14.2274084]}},{"type":"Feature","properties":{"state":"Karnataka","district":13,"district_n":"CHITRADURGA","pc":18,"pc_name":"Chitradurga","ac":102,"ac_name":"Holalkere","booth":87,"booth_name":"Govt Lower Primary School B Mallenahally"},"geometry":{"type":"Point","coordinates":[76.08429,14.208725]}},{"type":"Feature","properties":{"state":"Karnataka","district":13,"district_n":"CHITRADURGA","pc":18,"pc_name":"Chitradurga","ac":102,"ac_name":"Holalkere","booth":83,"booth_name":"Govt Lower Primary School Gyarehally"},"geometry":{"type":"Point","coordinates":[76.1099243,14.2291145]}},{"type":"Feature","properties":{"state":"Karnataka","district":13,"district_n":"CHITRADURGA","pc":18,"pc_name":"Chitradurga","ac":102,"ac_name":"Holalkere","booth":86,"booth_name":"Govt Higher Primary School Room No 2 Muttugaduru 2"},"geometry":{"type":"Point","coordinates":[76.11886,14.2194729]}}]}