{"type":"FeatureCollection","features":[{"type":"Feature","properties":{"state":"Karnataka","district":14,"district_n":"DAVANGERE","pc":13,"pc_name":"Davanagere","ac":103,"ac_name":"Jagalur","booth":6,"booth_name":"Group of Resource Centre Arasikere"},"geometry":{"type":"Point","coordinates":[76.07234,14.667408]}},{"type":"Feature","properties":{"state":"Karnataka","district":14,"district_n":"DAVANGERE","pc":13,"pc_name":"Davanagere","ac":103,"ac_name":"Jagalur","booth":9,"booth_name":"Govt Higher Primary School, North Wing Near Hospital Arasikere"},"geometry":{"type":"Point","coordinates":[76.07217,14.6686516]}},{"type":"Feature","properties":{"state":"Karnataka","district":14,"district_n":"DAVANGERE","pc":13,"pc_name":"Davanagere","ac":103,"ac_name":"Jagalur","booth":12,"booth_name":"Govt Higher Primary School School (east Wing) Basavanakote"},"geometry":{"type":"Point","coordinates":[76.07458,14.39963]}},{"type":"Feature","properties":{"state":"Karnataka","district":14,"district_n":"DAVANGERE","pc":13,"pc_name":"Davanagere","ac":103,"ac_name":"Jagalur","booth":14,"booth_name":"Govt Higher Primary School School ( Middle Wing) Basavanakote"},"geometry":{"type":"Point","coordinates":[76.0722,14.39966]}},{"type":"Feature","properties":{"state":"Karnataka","district":14,"district_n":"DAVANGERE","pc":13,"pc_name":"Davanagere","ac":103,"ac_name":"Jagalur","booth":15,"booth_name":"Govt Higher Primary School Uddaboranahalli"},"geometry":{"type":"Point","coordinates":[76.07553,14.4195]}},{"type":"Feature","properties":{"state":"Karnataka","district":14,"district_n":"DAVANGERE","pc":13,"pc_name":"Davanagere","ac":103,"ac_name":"Jagalur","booth":17,"booth_name":"Govt Higher Primary School Magadi"},"geometry":{"type":"Point","coordinates":[76.10108,14.40523]}},{"type":"Feature","properties":{"state":"Karnataka","district":14,"district_n":"DAVANGERE","pc":13,"pc_name":"Davanagere","ac":103,"ac_name":"Jagalur","booth":26,"booth_name":"Govt Higher Primary School Chikka Ujjani"},"geometry":{"type":"Point","coordinates":[76.19281,14.40933]}},{"type":"Feature","properties":{"state":"Karnataka","district":14,"district_n":"DAVANGERE","pc":13,"pc_name":"Davanagere","ac":103,"ac_name":"Jagalur","booth":29,"booth_name":"Govt Higher Primary School Lakkampura"},"geometry":{"type":"Point","coordinates":[76.14187,14.40191]}},{"type":"Feature","properties":{"state":"Karnataka","district":14,"district_n":"DAVANGERE","pc":13,"pc_name":"Davanagere","ac":103,"ac_name":"Jagalur","booth":32,"booth_name":"Govt Higher Primary School ( East Wing) Gurusiddapura"},"geometry":{"type":"Point","coordinates":[76.11771,14.39719]}},{"type":"Feature","properties":{"state":"Karnataka","district":14,"district_n":"DAVANGERE","pc":13,"pc_name":"Davanagere","ac":103,"ac_name":"Jagalur","booth":38,"booth_name":"Govt Higher Primary School Hosakote"},"geometry":{"type":"Point","coordinates":[76.10305,14.6435785]}},{"type":"Feature","properties":{"state":"Karnataka","district":14,"district_n":"DAVANGERE","pc":13,"pc_name":"Davanagere","ac":103,"ac_name":"Jagalur","booth":40,"booth_name":"Govt Lower Primary School Nelagondanahalli"},"geometry":{"type":"Point","coordinates":[76.04039,14.6500273]}},{"type":"Feature","properties":{"state":"Karnataka","district":14,"district_n":"DAVANGERE","pc":13,"pc_name":"Davanagere","ac":103,"ac_name":"Jagalur","booth":41,"booth_name":"Govt Higher Primary School Towduru"},"geometry":{"type":"Point","coordinates":[76.03669,14.6439457]}},{"type":"Feature","properties":{"state":"Karnataka","district":14,"district_n":"DAVANGERE","pc":13,"pc_name":"Davanagere","ac":103,"ac_name":"Jagalur","booth":43,"booth_name":"Govt Higher Primary School Yaraballi"},"geometry":{"type":"Point","coordinates":[76.03884,14.6594095]}},{"type":"Feature","properties":{"state":"Karnataka","district":14,"district_n":"DAVANGERE","pc":13,"pc_name":"Davanagere","ac":103,"ac_name":"Jagalur","booth":46,"booth_name":"Govt Lower Primary School Punabagatta Thanda"},"geometry":{"type":"Point","coordinates":[76.03642,14.5954447]}},{"type":"Feature","properties":{"state":"Karnataka","district":14,"district_n":"DAVANGERE","pc":13,"pc_name":"Davanagere","ac":103,"ac_name":"Jagalur","booth":49,"booth_name":"Govt Lower Primary School Nandikamba"},"geometry":{"type":"Point","coordinates":[76.04651,14.6036472]}},{"type":"Feature","properties":{"state":"Karnataka","district":14,"district_n":"DAVANGERE","pc":13,"pc_name":"Davanagere","ac":103,"ac_name":"Jagalur","booth":60,"booth_name":"Govt Lower Primary School Urlakatte"},"geometry":{"type":"Point","coordinates":[76.199295,14.6009521]}},{"type":"Feature","properties":{"state":"Karnataka","district":14,"district_n":"DAVANGERE","pc":13,"pc_name":"Davanagere","ac":103,"ac_name":"Jagalur","booth":61,"booth_name":"Govt Lower Primary School Gowdikatte"},"geometry":{"type":"Point","coordinates":[76.1461,14.3705]}},{"type":"Feature","properties":{"state":"Karnataka","district":14,"district_n":"DAVANGERE","pc":13,"pc_name":"Davanagere","ac":103,"ac_name":"Jagalur","booth":64,"booth_name":"Govt Lower Primary School Chikkabannihatti"},"geometry":{"type":"Point","coordinates":[76.17079,14.36123]}},{"type":"Feature","properties":{"state":"Karnataka","district":14,"district_n":"DAVANGERE","pc":13,"pc_name":"Davanagere","ac":103,"ac_name":"Jagalur","booth":66,"booth_name":"Govt Higher Primary School Hosakere"},"geometry":{"type":"Point","coordinates":[76.17655,14.36903]}},{"type":"Feature","properties":{"state":"Karnataka","district":14,"district_n":"DAVANGERE","pc":13,"pc_name":"Davanagere","ac":103,"ac_name":"Jagalur","booth":81,"booth_name":"Govt Higher Primary School Kechhenahalli"},"geometry":{"type":"Point","coordinates":[76.18413,14.34242]}},{"type":"Feature","properties":{"state":"Karnataka","district":14,"district_n":"DAVANGERE","pc":13,"pc_name":"Davanagere","ac":103,"ac_name":"Jagalur","booth":86,"booth_name":"Govt Lower Primary School Gode"},"geometry":{"type":"Point","coordinates":[76.22283,14.5729628]}},{"type":"Feature","properties":{"state":"Karnataka","district":14,"district_n":"DAVANGERE","pc":13,"pc_name":"Davanagere","ac":103,"ac_name":"Jagalur","booth":95,"booth_name":"Govt Higher Primary School, New Buildinng Jangamatumbigere"},"geometry":{"type":"Point","coordinates":[76.11409,14.58799]}},{"type":"Feature","properties":{"state":"Karnataka","district":14,"district_n":"DAVANGERE","pc":13,"pc_name":"Davanagere","ac":103,"ac_name":"Jagalur","booth":97,"booth_name":"Govt Lower Primary School Daggibasapura"},"geometry":{"type":"Point","coordinates":[76.04651,14.6036472]}},{"type":"Feature","properties":{"state":"Karnataka","district":14,"district_n":"DAVANGERE","pc":13,"pc_name":"Davanagere","ac":103,"ac_name":"Jagalur","booth":103,"booth_name":"Govt Lower Primary School,( Shikhara ) Ucchangidurga 4"},"geometry":{"type":"Point","coordinates":[76.04818,14.5610323]}},{"type":"Feature","properties":{"state":"Karnataka","district":14,"district_n":"DAVANGERE","pc":13,"pc_name":"Davanagere","ac":103,"ac_name":"Jagalur","booth":104,"booth_name":"Govt Model Higher Primary School Uchhangidurga 5"},"geometry":{"type":"Point","coordinates":[76.05348,14.55968]}},{"type":"Feature","properties":{"state":"Karnataka","district":14,"district_n":"DAVANGERE","pc":13,"pc_name":"Davanagere","ac":103,"ac_name":"Jagalur","booth":112,"booth_name":"Govt Higher Primary School School Ramaghatta"},"geometry":{"type":"Point","coordinates":[76.12528,14.5431337]}},{"type":"Feature","properties":{"state":"Karnataka","district":14,"district_n":"DAVANGERE","pc":13,"pc_name":"Davanagere","ac":103,"ac_name":"Jagalur","booth":118,"booth_name":"Govt Model Model Higher Primary School School (new Building)(east Wing)asagodu 1"},"geometry":{"type":"Point","coordinates":[76.15096,14.5620222]}},{"type":"Feature","properties":{"state":"Karnataka","district":14,"district_n":"DAVANGERE","pc":13,"pc_name":"Davanagere","ac":103,"ac_name":"Jagalur","booth":120,"booth_name":"Govt Higher Primary School School (old Blding) Blding) North Wing Asagodu"},"geometry":{"type":"Point","coordinates":[76.15103,14.5622768]}},{"type":"Feature","properties":{"state":"Karnataka","district":14,"district_n":"DAVANGERE","pc":13,"pc_name":"Davanagere","ac":103,"ac_name":"Jagalur","booth":123,"booth_name":"Govt Lower Primary School Obalapura"},"geometry":{"type":"Point","coordinates":[76.16482,14.5509558]}},{"type":"Feature","properties":{"state":"Karnataka","district":14,"district_n":"DAVANGERE","pc":13,"pc_name":"Davanagere","ac":103,"ac_name":"Jagalur","booth":124,"booth_name":"Govt Higher Primary School Thuppadahalli"},"geometry":{"type":"Point","coordinates":[76.1396,14.5301733]}},{"type":"Feature","properties":{"state":"Karnataka","district":14,"district_n":"DAVANGERE","pc":13,"pc_name":"Davanagere","ac":103,"ac_name":"Jagalur","booth":129,"booth_name":"Govt Higher Primary School Guddadalingahalli"},"geometry":{"type":"Point","coordinates":[76.23971,14.5500774]}},{"type":"Feature","properties":{"state":"Karnataka","district":14,"district_n":"DAVANGERE","pc":13,"pc_name":"Davanagere","ac":103,"ac_name":"Jagalur","booth":135,"booth_name":"Govt Higher Primary School Kananakatte"},"geometry":{"type":"Point","coordinates":[76.25766,14.3327]}},{"type":"Feature","properties":{"state":"Karnataka","district":14,"district_n":"DAVANGERE","pc":13,"pc_name":"Davanagere","ac":103,"ac_name":"Jagalur","booth":140,"booth_name":"Govt Lower Primary School Chikkamallanahole(h)gollarahatti"},"geometry":{"type":"Point","coordinates":[76.29619,14.33117]}},{"type":"Feature","properties":{"state":"Karnataka","district":14,"district_n":"DAVANGERE","pc":13,"pc_name":"Davanagere","ac":103,"ac_name":"Jagalur","booth":141,"booth_name":"Govt Higher Primary School Mallapura"},"geometry":{"type":"Point","coordinates":[76.3035,14.31905]}},{"type":"Feature","properties":{"state":"Karnataka","district":14,"district_n":"DAVANGERE","pc":13,"pc_name":"Davanagere","ac":103,"ac_name":"Jagalur","booth":143,"booth_name":"Govt Lower Primary School Tayitone"},"geometry":{"type":"Point","coordinates":[76.27964,14.31925]}},{"type":"Feature","properties":{"state":"Karnataka","district":14,"district_n":"DAVANGERE","pc":13,"pc_name":"Davanagere","ac":103,"ac_name":"Jagalur","booth":144,"booth_name":"Govt Composit High School School Hiremallanahole"},"geometry":{"type":"Point","coordinates":[76.26798,14.3129]}},{"type":"Feature","properties":{"state":"Karnataka","district":14,"district_n":"DAVANGERE","pc":13,"pc_name":"Davanagere","ac":103,"ac_name":"Jagalur","booth":146,"booth_name":"Govt Higher Primary School School Bangarakkanagudda"},"geometry":{"type":"Point","coordinates":[76.25053,14.31837]}},{"type":"Feature","properties":{"state":"Karnataka","district":14,"district_n":"DAVANGERE","pc":13,"pc_name":"Davanagere","ac":103,"ac_name":"Jagalur","booth":147,"booth_name":"Govt Lower Primary School School Thimlapura"},"geometry":{"type":"Point","coordinates":[76.23053,14.31985]}},{"type":"Feature","properties":{"state":"Karnataka","district":14,"district_n":"DAVANGERE","pc":13,"pc_name":"Davanagere","ac":103,"ac_name":"Jagalur","booth":149,"booth_name":"Govt Lower Primary School Hanumanthapura(h) Gollarahatti"},"geometry":{"type":"Point","coordinates":[76.21133,14.33633]}},{"type":"Feature","properties":{"state":"Karnataka","district":14,"district_n":"DAVANGERE","pc":13,"pc_name":"Davanagere","ac":103,"ac_name":"Jagalur","booth":152,"booth_name":"Govt Higher Primary School Bhairanayakanahalli"},"geometry":{"type":"Point","coordinates":[76.17717,14.31727]}},{"type":"Feature","properties":{"state":"Karnataka","district":14,"district_n":"DAVANGERE","pc":13,"pc_name":"Davanagere","ac":103,"ac_name":"Jagalur","booth":155,"booth_name":"Govt Lower Primary School Minigarahalli"},"geometry":{"type":"Point","coordinates":[76.222374,14.5248222]}},{"type":"Feature","properties":{"state":"Karnataka","district":14,"district_n":"DAVANGERE","pc":13,"pc_name":"Davanagere","ac":103,"ac_name":"Jagalur","booth":161,"booth_name":"Govt Higher Primary School (south Wing) Wing) Bilichodu Bilichodu 2"},"geometry":{"type":"Point","coordinates":[76.16125,14.49523]}},{"type":"Feature","properties":{"state":"Karnataka","district":14,"district_n":"DAVANGERE","pc":13,"pc_name":"Davanagere","ac":103,"ac_name":"Jagalur","booth":163,"booth_name":"Grama Panchyath Office (new Bilding) Bilichodu 4"},"geometry":{"type":"Point","coordinates":[76.1604462,14.4947958]}},{"type":"Feature","properties":{"state":"Karnataka","district":14,"district_n":"DAVANGERE","pc":13,"pc_name":"Davanagere","ac":103,"ac_name":"Jagalur","booth":164,"booth_name":"Govt Higher Primary School Narasimharajapura"},"geometry":{"type":"Point","coordinates":[76.19168,14.4825773]}},{"type":"Feature","properties":{"state":"Karnataka","district":14,"district_n":"DAVANGERE","pc":13,"pc_name":"Davanagere","ac":103,"ac_name":"Jagalur","booth":169,"booth_name":"Govt Lower Primary School School Shettigondanahlli"},"geometry":{"type":"Point","coordinates":[76.2453,14.5035877]}},{"type":"Feature","properties":{"state":"Karnataka","district":14,"district_n":"DAVANGERE","pc":13,"pc_name":"Davanagere","ac":103,"ac_name":"Jagalur","booth":172,"booth_name":"Govt Lower Primary School School Bullenahalli"},"geometry":{"type":"Point","coordinates":[76.2956848,14.4970207]}},{"type":"Feature","properties":{"state":"Karnataka","district":14,"district_n":"DAVANGERE","pc":13,"pc_name":"Davanagere","ac":103,"ac_name":"Jagalur","booth":180,"booth_name":"Govt Higher Higher Primary Urdu School School School (north Wing)jagalur Town"},"geometry":{"type":"Point","coordinates":[76.20446,14.31332]}},{"type":"Feature","properties":{"state":"Karnataka","district":14,"district_n":"DAVANGERE","pc":13,"pc_name":"Davanagere","ac":103,"ac_name":"Jagalur","booth":181,"booth_name":"Govt Higher Primary School Girls (kannada) North Wing Wing New Building Jagalur Town"},"geometry":{"type":"Point","coordinates":[76.20229,14.3113]}},{"type":"Feature","properties":{"state":"Karnataka","district":14,"district_n":"DAVANGERE","pc":13,"pc_name":"Davanagere","ac":103,"ac_name":"Jagalur","booth":178,"booth_name":"Govt Lower Urdu Primary School (horakere) (horakere) Neharu Road ( Horakere )jagalur Town"},"geometry":{"type":"Point","coordinates":[76.20349,14.31378]}},{"type":"Feature","properties":{"state":"Karnataka","district":14,"district_n":"DAVANGERE","pc":13,"pc_name":"Davanagere","ac":103,"ac_name":"Jagalur","booth":183,"booth_name":"Govt Higher Boys School School (middle Wing) Jagalur Town"},"geometry":{"type":"Point","coordinates":[76.20277,14.31089]}},{"type":"Feature","properties":{"state":"Karnataka","district":14,"district_n":"DAVANGERE","pc":13,"pc_name":"Davanagere","ac":103,"ac_name":"Jagalur","booth":184,"booth_name":"Town Panchayath Office Office Jagalur town"},"geometry":{"type":"Point","coordinates":[76.20392,14.31178]}},{"type":"Feature","properties":{"state":"Karnataka","district":14,"district_n":"DAVANGERE","pc":13,"pc_name":"Davanagere","ac":103,"ac_name":"Jagalur","booth":189,"booth_name":"Govt Higher Primary School Santhe pete (north Wing) Jagalur Town"},"geometry":{"type":"Point","coordinates":[76.20213,14.30881]}},{"type":"Feature","properties":{"state":"Karnataka","district":14,"district_n":"DAVANGERE","pc":13,"pc_name":"Davanagere","ac":103,"ac_name":"Jagalur","booth":198,"booth_name":"Govt Lower Primary School Salehalli"},"geometry":{"type":"Point","coordinates":[76.28817,14.31294]}},{"type":"Feature","properties":{"state":"Karnataka","district":14,"district_n":"DAVANGERE","pc":13,"pc_name":"Davanagere","ac":103,"ac_name":"Jagalur","booth":201,"booth_name":"Govt Lower Primary School Mudalamachikere"},"geometry":{"type":"Point","coordinates":[76.25448,14.30285]}},{"type":"Feature","properties":{"state":"Karnataka","district":14,"district_n":"DAVANGERE","pc":13,"pc_name":"Davanagere","ac":103,"ac_name":"Jagalur","booth":206,"booth_name":"Govt Higher Primary School Medaginkere"},"geometry":{"type":"Point","coordinates":[76.25406,14.493247]}},{"type":"Feature","properties":{"state":"Karnataka","district":14,"district_n":"DAVANGERE","pc":13,"pc_name":"Davanagere","ac":103,"ac_name":"Jagalur","booth":158,"booth_name":"Govt Lower Primary School Madanahalli"},"geometry":{"type":"Point","coordinates":[76.1755447,14.5022154]}},{"type":"Feature","properties":{"state":"Karnataka","district":14,"district_n":"DAVANGERE","pc":13,"pc_name":"Davanagere","ac":103,"ac_name":"Jagalur","booth":209,"booth_name":"Govt Lower Primary School Benchikatte(h)"},"geometry":{"type":"Point","coordinates":[76.14966,14.4769964]}},{"type":"Feature","properties":{"state":"Karnataka","district":14,"district_n":"DAVANGERE","pc":13,"pc_name":"Davanagere","ac":103,"ac_name":"Jagalur","booth":210,"booth_name":"Govt Higher Primary School Muggidaragihalli"},"geometry":{"type":"Point","coordinates":[76.13737,14.4806595]}},{"type":"Feature","properties":{"state":"Karnataka","district":14,"district_n":"DAVANGERE","pc":13,"pc_name":"Davanagere","ac":103,"ac_name":"Jagalur","booth":215,"booth_name":"Govt Higher Primary School Chaduragolla"},"geometry":{"type":"Point","coordinates":[76.210434,14.4752483]}},{"type":"Feature","properties":{"state":"Karnataka","district":14,"district_n":"DAVANGERE","pc":13,"pc_name":"Davanagere","ac":103,"ac_name":"Jagalur","booth":218,"booth_name":"Govt Higher Primary School Sagalagatte"},"geometry":{"type":"Point","coordinates":[76.2225,14.4553947]}},{"type":"Feature","properties":{"state":"Karnataka","district":14,"district_n":"DAVANGERE","pc":13,"pc_name":"Davanagere","ac":103,"ac_name":"Jagalur","booth":223,"booth_name":"Govt Lower Primary School School Koratikere"},"geometry":{"type":"Point","coordinates":[76.26222,14.4756546]}},{"type":"Feature","properties":{"state":"Karnataka","district":14,"district_n":"DAVANGERE","pc":13,"pc_name":"Davanagere","ac":103,"ac_name":"Jagalur","booth":226,"booth_name":"Govt Higher Primary School Lingannanahalli"},"geometry":{"type":"Point","coordinates":[76.20121,14.28886]}},{"type":"Feature","properties":{"state":"Karnataka","district":14,"district_n":"DAVANGERE","pc":13,"pc_name":"Davanagere","ac":103,"ac_name":"Jagalur","booth":227,"booth_name":"Govt Lower Primary School Bommakkanahalli"},"geometry":{"type":"Point","coordinates":[76.2152,14.21189]}},{"type":"Feature","properties":{"state":"Karnataka","district":14,"district_n":"DAVANGERE","pc":13,"pc_name":"Davanagere","ac":103,"ac_name":"Jagalur","booth":229,"booth_name":"Govt Model Higher Primary School (north Wing) Donehalli"},"geometry":{"type":"Point","coordinates":[76.24332,14.29343]}},{"type":"Feature","properties":{"state":"Karnataka","district":14,"district_n":"DAVANGERE","pc":13,"pc_name":"Davanagere","ac":103,"ac_name":"Jagalur","booth":230,"booth_name":"Govt Model Higher Primary School School (south Wing) Donehalli"},"geometry":{"type":"Point","coordinates":[76.24335,14.29333]}},{"type":"Feature","properties":{"state":"Karnataka","district":14,"district_n":"DAVANGERE","pc":13,"pc_name":"Davanagere","ac":103,"ac_name":"Jagalur","booth":232,"booth_name":"Govt Model Higher Primary School School (west Wing) Musturu"},"geometry":{"type":"Point","coordinates":[76.26474,14.28215]}},{"type":"Feature","properties":{"state":"Karnataka","district":14,"district_n":"DAVANGERE","pc":13,"pc_name":"Davanagere","ac":103,"ac_name":"Jagalur","booth":235,"booth_name":"Anganavadi Kendra Jamapurada Jamapurada Myasaratti (h)"},"geometry":{"type":"Point","coordinates":[76.21385,14.27151]}},{"type":"Feature","properties":{"state":"Karnataka","district":14,"district_n":"DAVANGERE","pc":13,"pc_name":"Davanagere","ac":103,"ac_name":"Jagalur","booth":238,"booth_name":"Govt Lower Primary School Rastemakunte(h)gollarahatti"},"geometry":{"type":"Point","coordinates":[76.18263,14.27388]}},{"type":"Feature","properties":{"state":"Karnataka","district":14,"district_n":"DAVANGERE","pc":13,"pc_name":"Davanagere","ac":103,"ac_name":"Jagalur","booth":244,"booth_name":"Govt Lower Primary School Mattada Dhyamenahalli"},"geometry":{"type":"Point","coordinates":[76.17764,14.27436]}},{"type":"Feature","properties":{"state":"Karnataka","district":14,"district_n":"DAVANGERE","pc":13,"pc_name":"Davanagere","ac":103,"ac_name":"Jagalur","booth":246,"booth_name":"Govt Model Higher Primary School School (east Wing) Old Building Bidarakere"},"geometry":{"type":"Point","coordinates":[76.17991,14.25914]}},{"type":"Feature","properties":{"state":"Karnataka","district":14,"district_n":"DAVANGERE","pc":13,"pc_name":"Davanagere","ac":103,"ac_name":"Jagalur","booth":249,"booth_name":"Govt Lower Primary School Nibaguru"},"geometry":{"type":"Point","coordinates":[76.18721,14.26419]}},{"type":"Feature","properties":{"state":"Karnataka","district":14,"district_n":"DAVANGERE","pc":13,"pc_name":"Davanagere","ac":103,"ac_name":"Jagalur","booth":175,"booth_name":"Govt Lower Primary School Baggenahalli"},"geometry":{"type":"Point","coordinates":[76.2816849,14.5097466]}},{"type":"Feature","properties":{"state":"Karnataka","district":14,"district_n":"DAVANGERE","pc":13,"pc_name":"Davanagere","ac":103,"ac_name":"Jagalur","booth":250,"booth_name":"Govt Higher Primary School School Kttigehalli"},"geometry":{"type":"Point","coordinates":[76.19649,14.26866]}},{"type":"Feature","properties":{"state":"Karnataka","district":14,"district_n":"DAVANGERE","pc":13,"pc_name":"Davanagere","ac":103,"ac_name":"Jagalur","booth":18,"booth_name":"Govt Higher Primary School ( East Wing) New Building Sokke"},"geometry":{"type":"Point","coordinates":[76.15451,14.40833]}},{"type":"Feature","properties":{"state":"Karnataka","district":14,"district_n":"DAVANGERE","pc":13,"pc_name":"Davanagere","ac":103,"ac_name":"Jagalur","booth":20,"booth_name":"Govt Higher Primary School ( West Wing) Old Building Sokke"},"geometry":{"type":"Point","coordinates":[76.15151,14.40927]}},{"type":"Feature","properties":{"state":"Karnataka","district":14,"district_n":"DAVANGERE","pc":13,"pc_name":"Davanagere","ac":103,"ac_name":"Jagalur","booth":23,"booth_name":"Govt Lower Primary School Gopalapura"},"geometry":{"type":"Point","coordinates":[76.16937,14.40257]}},{"type":"Feature","properties":{"state":"Karnataka","district":14,"district_n":"DAVANGERE","pc":13,"pc_name":"Davanagere","ac":103,"ac_name":"Jagalur","booth":35,"booth_name":"Govt Higher Primary School Siddayyanakote"},"geometry":{"type":"Point","coordinates":[76.08694,14.38252]}},{"type":"Feature","properties":{"state":"Karnataka","district":14,"district_n":"DAVANGERE","pc":13,"pc_name":"Davanagere","ac":103,"ac_name":"Jagalur","booth":37,"booth_name":"Govt Lower Primary School New Building Keregudihalli"},"geometry":{"type":"Point","coordinates":[76.08382,14.6590385]}},{"type":"Feature","properties":{"state":"Karnataka","district":14,"district_n":"DAVANGERE","pc":13,"pc_name":"Davanagere","ac":103,"ac_name":"Jagalur","booth":69,"booth_name":"Govt Higher Primary School Gowdagondanahalli"},"geometry":{"type":"Point","coordinates":[76.19131,14.36899]}},{"type":"Feature","properties":{"state":"Karnataka","district":14,"district_n":"DAVANGERE","pc":13,"pc_name":"Davanagere","ac":103,"ac_name":"Jagalur","booth":72,"booth_name":"Govt Composite High School Doddabommanahalli"},"geometry":{"type":"Point","coordinates":[76.236,14.36967]}},{"type":"Feature","properties":{"state":"Karnataka","district":14,"district_n":"DAVANGERE","pc":13,"pc_name":"Davanagere","ac":103,"ac_name":"Jagalur","booth":247,"booth_name":"Govt Model Higher Primary School School Room No No 2, 2, Old Building Bidarakere"},"geometry":{"type":"Point","coordinates":[76.17957,14.25915]}},{"type":"Feature","properties":{"state":"Karnataka","district":14,"district_n":"DAVANGERE","pc":13,"pc_name":"Davanagere","ac":103,"ac_name":"Jagalur","booth":258,"booth_name":"Govt Lower Primary School Sangenahalli"},"geometry":{"type":"Point","coordinates":[76.22834,14.25452]}},{"type":"Feature","properties":{"state":"Karnataka","district":14,"district_n":"DAVANGERE","pc":13,"pc_name":"Davanagere","ac":103,"ac_name":"Jagalur","booth":21,"booth_name":"Govt Higher Primary School Room No 2, Sokke"},"geometry":{"type":"Point","coordinates":[76.15146,14.40937]}},{"type":"Feature","properties":{"state":"Karnataka","district":14,"district_n":"DAVANGERE","pc":13,"pc_name":"Davanagere","ac":103,"ac_name":"Jagalur","booth":132,"booth_name":"Govt Lower Primary School Rangapura"},"geometry":{"type":"Point","coordinates":[76.20531,14.33683]}},{"type":"Feature","properties":{"state":"Karnataka","district":14,"district_n":"DAVANGERE","pc":13,"pc_name":"Davanagere","ac":103,"ac_name":"Jagalur","booth":212,"booth_name":"Govt Model Higher Primary School Room No No 2, 2, Halekallu"},"geometry":{"type":"Point","coordinates":[76.13975,14.4571285]}},{"type":"Feature","properties":{"state":"Karnataka","district":14,"district_n":"DAVANGERE","pc":13,"pc_name":"Davanagere","ac":103,"ac_name":"Jagalur","booth":195,"booth_name":"Govt Higher Primary School Room No No 1, 1, Bharamasamudra"},"geometry":{"type":"Point","coordinates":[76.2383,14.31074]}},{"type":"Feature","properties":{"state":"Karnataka","district":14,"district_n":"DAVANGERE","pc":13,"pc_name":"Davanagere","ac":103,"ac_name":"Jagalur","booth":190,"booth_name":"Govt Higher Primary School Santhe pete Room No No 3, Jagalur Town"},"geometry":{"type":"Point","coordinates":[76.20201,14.30898]}},{"type":"Feature","properties":{"state":"Karnataka","district":14,"district_n":"DAVANGERE","pc":13,"pc_name":"Davanagere","ac":103,"ac_name":"Jagalur","booth":160,"booth_name":"Govt Higher Primary School Room No No 2, Bilichodu Bilichodu 1"},"geometry":{"type":"Point","coordinates":[76.1612854,14.4951324]}},{"type":"Feature","properties":{"state":"Karnataka","district":14,"district_n":"DAVANGERE","pc":13,"pc_name":"Davanagere","ac":103,"ac_name":"Jagalur","booth":126,"booth_name":"Govt Higher Primary School Room No No 2, 2, Marikunte"},"geometry":{"type":"Point","coordinates":[76.17336,14.5342026]}},{"type":"Feature","properties":{"state":"Karnataka","district":14,"district_n":"DAVANGERE","pc":13,"pc_name":"Davanagere","ac":103,"ac_name":"Jagalur","booth":52,"booth_name":"Govt Higher Primary School Room No No 2, Anajigere"},"geometry":{"type":"Point","coordinates":[76.086,14.5874634]}},{"type":"Feature","properties":{"state":"Karnataka","district":14,"district_n":"DAVANGERE","pc":13,"pc_name":"Davanagere","ac":103,"ac_name":"Jagalur","booth":44,"booth_name":"Govt Higher Primary School Room No No 2, 2, Yaraballi"},"geometry":{"type":"Point","coordinates":[76.0393143,14.6550188]}},{"type":"Feature","properties":{"state":"Karnataka","district":14,"district_n":"DAVANGERE","pc":13,"pc_name":"Davanagere","ac":103,"ac_name":"Jagalur","booth":3,"booth_name":"Govt Higher Primary School,room No 2 Kyarakatte"},"geometry":{"type":"Point","coordinates":[76.00858,14.6561327]}},{"type":"Feature","properties":{"state":"Karnataka","district":14,"district_n":"DAVANGERE","pc":13,"pc_name":"Davanagere","ac":103,"ac_name":"Jagalur","booth":75,"booth_name":"Govt Lower Primary School Jyothipura (h)lambanihatti"},"geometry":{"type":"Point","coordinates":[76.22136,14.3675]}},{"type":"Feature","properties":{"state":"Karnataka","district":14,"district_n":"DAVANGERE","pc":13,"pc_name":"Davanagere","ac":103,"ac_name":"Jagalur","booth":157,"booth_name":"Govt Lower Primary School Katenahalli"},"geometry":{"type":"Point","coordinates":[76.1886444,14.5255117]}},{"type":"Feature","properties":{"state":"Karnataka","district":14,"district_n":"DAVANGERE","pc":13,"pc_name":"Davanagere","ac":103,"ac_name":"Jagalur","booth":25,"booth_name":"Govt Higher Primary School Room No No 2,gadimakunte"},"geometry":{"type":"Point","coordinates":[76.179,14.40285]}},{"type":"Feature","properties":{"state":"Karnataka","district":14,"district_n":"DAVANGERE","pc":13,"pc_name":"Davanagere","ac":103,"ac_name":"Jagalur","booth":177,"booth_name":"Anganavadi Kendra Kendra (t M Swami House near) near) Jagalur Jagalur Town"},"geometry":{"type":"Point","coordinates":[76.20344,14.31263]}},{"type":"Feature","properties":{"state":"Karnataka","district":14,"district_n":"DAVANGERE","pc":13,"pc_name":"Davanagere","ac":103,"ac_name":"Jagalur","booth":19,"booth_name":"Sri Maruthi High School Romm No 2 Sokke"},"geometry":{"type":"Point","coordinates":[76.15451,14.40826]}},{"type":"Feature","properties":{"state":"Karnataka","district":14,"district_n":"DAVANGERE","pc":13,"pc_name":"Davanagere","ac":103,"ac_name":"Jagalur","booth":188,"booth_name":"Govt Higher Primary School School Santhepete (north Wing) Jagalur Town"},"geometry":{"type":"Point","coordinates":[76.20126,14.30538]}},{"type":"Feature","properties":{"state":"Karnataka","district":14,"district_n":"DAVANGERE","pc":13,"pc_name":"Davanagere","ac":103,"ac_name":"Jagalur","booth":191,"booth_name":"Govt Higher Primary Boys School School (west Wing) First Grade College Jagalur"},"geometry":{"type":"Point","coordinates":[76.19902,14.30428]}},{"type":"Feature","properties":{"state":"Karnataka","district":14,"district_n":"DAVANGERE","pc":13,"pc_name":"Davanagere","ac":103,"ac_name":"Jagalur","booth":197,"booth_name":"Govt Lower Primary School Halehalli"},"geometry":{"type":"Point","coordinates":[76.27844,14.31271]}},{"type":"Feature","properties":{"state":"Karnataka","district":14,"district_n":"DAVANGERE","pc":13,"pc_name":"Davanagere","ac":103,"ac_name":"Jagalur","booth":200,"booth_name":"Govt Higher Primary School Siddihalli"},"geometry":{"type":"Point","coordinates":[76.26922,14.29867]}},{"type":"Feature","properties":{"state":"Karnataka","district":14,"district_n":"DAVANGERE","pc":13,"pc_name":"Davanagere","ac":103,"ac_name":"Jagalur","booth":42,"booth_name":"Govt Higher Primary School Kavalahalli"},"geometry":{"type":"Point","coordinates":[76.01956,14.6365871]}},{"type":"Feature","properties":{"state":"Karnataka","district":14,"district_n":"DAVANGERE","pc":13,"pc_name":"Davanagere","ac":103,"ac_name":"Jagalur","booth":45,"booth_name":"Govt Higher Primary School Punabhagatta"},"geometry":{"type":"Point","coordinates":[76.04651,14.6036472]}},{"type":"Feature","properties":{"state":"Karnataka","district":14,"district_n":"DAVANGERE","pc":13,"pc_name":"Davanagere","ac":103,"ac_name":"Jagalur","booth":208,"booth_name":"Govt Higher Primary School Hire Arakere"},"geometry":{"type":"Point","coordinates":[76.21369,14.4887009]}},{"type":"Feature","properties":{"state":"Karnataka","district":14,"district_n":"DAVANGERE","pc":13,"pc_name":"Davanagere","ac":103,"ac_name":"Jagalur","booth":214,"booth_name":"Govt Higher Primary School Muchhanuru"},"geometry":{"type":"Point","coordinates":[76.16735,14.4500866]}},{"type":"Feature","properties":{"state":"Karnataka","district":14,"district_n":"DAVANGERE","pc":13,"pc_name":"Davanagere","ac":103,"ac_name":"Jagalur","booth":68,"booth_name":"Govt Lower Primary School Gowripura"},"geometry":{"type":"Point","coordinates":[76.19471,14.38245]}},{"type":"Feature","properties":{"state":"Karnataka","district":14,"district_n":"DAVANGERE","pc":13,"pc_name":"Davanagere","ac":103,"ac_name":"Jagalur","booth":217,"booth_name":"Govt Lower Primary School Chikka Arakere(h)hosur"},"geometry":{"type":"Point","coordinates":[76.2257462,14.4734488]}},{"type":"Feature","properties":{"state":"Karnataka","district":14,"district_n":"DAVANGERE","pc":13,"pc_name":"Davanagere","ac":103,"ac_name":"Jagalur","booth":231,"booth_name":"Govt Lower Primary School Donihalli(h)akanuru"},"geometry":{"type":"Point","coordinates":[76.23755,14.28739]}},{"type":"Feature","properties":{"state":"Karnataka","district":14,"district_n":"DAVANGERE","pc":13,"pc_name":"Davanagere","ac":103,"ac_name":"Jagalur","booth":234,"booth_name":"Govt Higher Primary School Bennehalli"},"geometry":{"type":"Point","coordinates":[76.23934,14.27965]}},{"type":"Feature","properties":{"state":"Karnataka","district":14,"district_n":"DAVANGERE","pc":13,"pc_name":"Davanagere","ac":103,"ac_name":"Jagalur","booth":240,"booth_name":"Govt Higher Primary School Santhemuddapura"},"geometry":{"type":"Point","coordinates":[76.16409,14.27095]}},{"type":"Feature","properties":{"state":"Karnataka","district":14,"district_n":"DAVANGERE","pc":13,"pc_name":"Davanagere","ac":103,"ac_name":"Jagalur","booth":237,"booth_name":"Govt Higher Primary School Arashinagundi"},"geometry":{"type":"Point","coordinates":[76.20669,14.27683]}},{"type":"Feature","properties":{"state":"Karnataka","district":14,"district_n":"DAVANGERE","pc":13,"pc_name":"Davanagere","ac":103,"ac_name":"Jagalur","booth":111,"booth_name":"Govt Lower Primary School Kuremaganahlli"},"geometry":{"type":"Point","coordinates":[76.06211,14.5266418]}},{"type":"Feature","properties":{"state":"Karnataka","district":14,"district_n":"DAVANGERE","pc":13,"pc_name":"Davanagere","ac":103,"ac_name":"Jagalur","booth":131,"booth_name":"Govt Lower Primary School Chikkammanahatti"},"geometry":{"type":"Point","coordinates":[76.18774,14.32727]}},{"type":"Feature","properties":{"state":"Karnataka","district":14,"district_n":"DAVANGERE","pc":13,"pc_name":"Davanagere","ac":103,"ac_name":"Jagalur","booth":134,"booth_name":"Govt Lower Primary School Goguddu"},"geometry":{"type":"Point","coordinates":[76.2211,14.33104]}},{"type":"Feature","properties":{"state":"Karnataka","district":14,"district_n":"DAVANGERE","pc":13,"pc_name":"Davanagere","ac":103,"ac_name":"Jagalur","booth":154,"booth_name":"Govt Lower Primary School Mustigarahalli"},"geometry":{"type":"Point","coordinates":[76.2445145,14.531971]}},{"type":"Feature","properties":{"state":"Karnataka","district":14,"district_n":"DAVANGERE","pc":13,"pc_name":"Davanagere","ac":103,"ac_name":"Jagalur","booth":148,"booth_name":"Govt Higher Primary School School Uddagatta"},"geometry":{"type":"Point","coordinates":[76.2206,14.31792]}},{"type":"Feature","properties":{"state":"Karnataka","district":14,"district_n":"DAVANGERE","pc":13,"pc_name":"Davanagere","ac":103,"ac_name":"Jagalur","booth":211,"booth_name":"Govt Higher Primary School, Halekallu Room No 1"},"geometry":{"type":"Point","coordinates":[76.13975,14.4571285]}},{"type":"Feature","properties":{"state":"Karnataka","district":14,"district_n":"DAVANGERE","pc":13,"pc_name":"Davanagere","ac":103,"ac_name":"Jagalur","booth":145,"booth_name":"Govt Lower Primary School School Hiremallanahole (h) Gollarahatti"},"geometry":{"type":"Point","coordinates":[76.26491,14.31215]}},{"type":"Feature","properties":{"state":"Karnataka","district":14,"district_n":"DAVANGERE","pc":13,"pc_name":"Davanagere","ac":103,"ac_name":"Jagalur","booth":251,"booth_name":"Govt Composit High School Toranagatte 1"},"geometry":{"type":"Point","coordinates":[76.21403,14.26918]}},{"type":"Feature","properties":{"state":"Karnataka","district":14,"district_n":"DAVANGERE","pc":13,"pc_name":"Davanagere","ac":103,"ac_name":"Jagalur","booth":54,"booth_name":"Govt Lower Primary School Chikkabballli"},"geometry":{"type":"Point","coordinates":[76.09256,14.6430445]}},{"type":"Feature","properties":{"state":"Karnataka","district":14,"district_n":"DAVANGERE","pc":13,"pc_name":"Davanagere","ac":103,"ac_name":"Jagalur","booth":254,"booth_name":"Govt Higher Primary School Gowrammanahalli"},"geometry":{"type":"Point","coordinates":[76.2194,14.25862]}},{"type":"Feature","properties":{"state":"Karnataka","district":14,"district_n":"DAVANGERE","pc":13,"pc_name":"Davanagere","ac":103,"ac_name":"Jagalur","booth":85,"booth_name":"Govt Lower Primary School Tharehalli"},"geometry":{"type":"Point","coordinates":[76.22027,14.5836182]}},{"type":"Feature","properties":{"state":"Karnataka","district":14,"district_n":"DAVANGERE","pc":13,"pc_name":"Davanagere","ac":103,"ac_name":"Jagalur","booth":62,"booth_name":"Govt Lower Primary School Malemachikere"},"geometry":{"type":"Point","coordinates":[76.15288,14.36795]}},{"type":"Feature","properties":{"state":"Karnataka","district":14,"district_n":"DAVANGERE","pc":13,"pc_name":"Davanagere","ac":103,"ac_name":"Jagalur","booth":228,"booth_name":"Govt Lower Primary School Honnamaradi"},"geometry":{"type":"Point","coordinates":[76.22737,14.28529]}},{"type":"Feature","properties":{"state":"Karnataka","district":14,"district_n":"DAVANGERE","pc":13,"pc_name":"Davanagere","ac":103,"ac_name":"Jagalur","booth":257,"booth_name":"Govt Lower Primary School Kalledevarapura(h)basappanahatti"},"geometry":{"type":"Point","coordinates":[76.23371,14.26185]}},{"type":"Feature","properties":{"state":"Karnataka","district":14,"district_n":"DAVANGERE","pc":13,"pc_name":"Davanagere","ac":103,"ac_name":"Jagalur","booth":125,"booth_name":"Govt Higher Primary School Marikunte"},"geometry":{"type":"Point","coordinates":[76.17321,14.5342827]}},{"type":"Feature","properties":{"state":"Karnataka","district":14,"district_n":"DAVANGERE","pc":13,"pc_name":"Davanagere","ac":103,"ac_name":"Jagalur","booth":48,"booth_name":"Gurudeva High School (right Wing) Kambathahalli 2"},"geometry":{"type":"Point","coordinates":[76.03615,14.6429138]}},{"type":"Feature","properties":{"state":"Karnataka","district":14,"district_n":"DAVANGERE","pc":13,"pc_name":"Davanagere","ac":103,"ac_name":"Jagalur","booth":165,"booth_name":"Govt Lower Primary School School Narenahalli"},"geometry":{"type":"Point","coordinates":[76.17938,14.4884167]}},{"type":"Feature","properties":{"state":"Karnataka","district":14,"district_n":"DAVANGERE","pc":13,"pc_name":"Davanagere","ac":103,"ac_name":"Jagalur","booth":168,"booth_name":"Govt Higher Primary School School Basavapura"},"geometry":{"type":"Point","coordinates":[76.24569,14.5153866]}},{"type":"Feature","properties":{"state":"Karnataka","district":14,"district_n":"DAVANGERE","pc":13,"pc_name":"Davanagere","ac":103,"ac_name":"Jagalur","booth":82,"booth_name":"Govt Higher Primary School Kelagote"},"geometry":{"type":"Point","coordinates":[76.17539,14.3361]}},{"type":"Feature","properties":{"state":"Karnataka","district":14,"district_n":"DAVANGERE","pc":13,"pc_name":"Davanagere","ac":103,"ac_name":"Jagalur","booth":5,"booth_name":"Govt Model Higher Primary School Right Side Near Hospital Arasikere"},"geometry":{"type":"Point","coordinates":[76.07237,14.6558342]}},{"type":"Feature","properties":{"state":"Karnataka","district":14,"district_n":"DAVANGERE","pc":13,"pc_name":"Davanagere","ac":103,"ac_name":"Jagalur","booth":186,"booth_name":"Govt Govt Junior Junior College (south Wing) Jagalur town Room No 3"},"geometry":{"type":"Point","coordinates":[76.20469,14.31153]}},{"type":"Feature","properties":{"state":"Karnataka","district":14,"district_n":"DAVANGERE","pc":13,"pc_name":"Davanagere","ac":103,"ac_name":"Jagalur","booth":55,"booth_name":"Govt Lower Primary School Budihal"},"geometry":{"type":"Point","coordinates":[76.1099854,14.6201372]}},{"type":"Feature","properties":{"state":"Karnataka","district":14,"district_n":"DAVANGERE","pc":13,"pc_name":"Davanagere","ac":103,"ac_name":"Jagalur","booth":57,"booth_name":"Govt Pre University College (left Side) Madihalli 2"},"geometry":{"type":"Point","coordinates":[76.12441,14.6281519]}},{"type":"Feature","properties":{"state":"Karnataka","district":14,"district_n":"DAVANGERE","pc":13,"pc_name":"Davanagere","ac":103,"ac_name":"Jagalur","booth":58,"booth_name":"Govt Lower Primary School Gadigudal"},"geometry":{"type":"Point","coordinates":[76.12676,14.605772]}},{"type":"Feature","properties":{"state":"Karnataka","district":14,"district_n":"DAVANGERE","pc":13,"pc_name":"Davanagere","ac":103,"ac_name":"Jagalur","booth":63,"booth_name":"Govt Lower Primary School Hirebannihatti"},"geometry":{"type":"Point","coordinates":[76.16864,14.36983]}},{"type":"Feature","properties":{"state":"Karnataka","district":14,"district_n":"DAVANGERE","pc":13,"pc_name":"Davanagere","ac":103,"ac_name":"Jagalur","booth":83,"booth_name":"Govt Lower Primary School Kanakuppe"},"geometry":{"type":"Point","coordinates":[76.17648,14.33109]}},{"type":"Feature","properties":{"state":"Karnataka","district":14,"district_n":"DAVANGERE","pc":13,"pc_name":"Davanagere","ac":103,"ac_name":"Jagalur","booth":84,"booth_name":"Govt Urdu Lower Primary School Petekanakuppe"},"geometry":{"type":"Point","coordinates":[76.17243,14.32472]}},{"type":"Feature","properties":{"state":"Karnataka","district":14,"district_n":"DAVANGERE","pc":13,"pc_name":"Davanagere","ac":103,"ac_name":"Jagalur","booth":127,"booth_name":"Govt Lower Primary School Suragondanahalli"},"geometry":{"type":"Point","coordinates":[76.19485,14.534812]}},{"type":"Feature","properties":{"state":"Karnataka","district":14,"district_n":"DAVANGERE","pc":13,"pc_name":"Davanagere","ac":103,"ac_name":"Jagalur","booth":203,"booth_name":"Govt Lower Primary School Kamagethanahalli(h)hosahatti"},"geometry":{"type":"Point","coordinates":[76.24439,14.30437]}},{"type":"Feature","properties":{"state":"Karnataka","district":14,"district_n":"DAVANGERE","pc":13,"pc_name":"Davanagere","ac":103,"ac_name":"Jagalur","booth":204,"booth_name":"Govt Higher Primary School Marenahalli"},"geometry":{"type":"Point","coordinates":[76.21249,14.29741]}},{"type":"Feature","properties":{"state":"Karnataka","district":14,"district_n":"DAVANGERE","pc":13,"pc_name":"Davanagere","ac":103,"ac_name":"Jagalur","booth":207,"booth_name":"Govt Higher Primary School Devikere"},"geometry":{"type":"Point","coordinates":[76.2313461,14.5005875]}},{"type":"Feature","properties":{"state":"Karnataka","district":14,"district_n":"DAVANGERE","pc":13,"pc_name":"Davanagere","ac":103,"ac_name":"Jagalur","booth":252,"booth_name":"Govt Composit High School (west Wing) Toranagatte 2"},"geometry":{"type":"Point","coordinates":[76.21403,14.26918]}},{"type":"Feature","properties":{"state":"Karnataka","district":14,"district_n":"DAVANGERE","pc":13,"pc_name":"Davanagere","ac":103,"ac_name":"Jagalur","booth":255,"booth_name":"Govt Higher Primary School School (south Wing) Kalledevarapura"},"geometry":{"type":"Point","coordinates":[76.23394,14.26634]}},{"type":"Feature","properties":{"state":"Karnataka","district":14,"district_n":"DAVANGERE","pc":13,"pc_name":"Davanagere","ac":103,"ac_name":"Jagalur","booth":186,"booth_name":"Govt Govt Junior Junior College (south Wing) Jagalur town"},"geometry":{"type":"Point","coordinates":[76.20469,14.31153]}},{"type":"Feature","properties":{"state":"Karnataka","district":14,"district_n":"DAVANGERE","pc":13,"pc_name":"Davanagere","ac":103,"ac_name":"Jagalur","booth":192,"booth_name":"Govt Higher Primary School (north Wing) Jaglur (h) Gollarahatti"},"geometry":{"type":"Point","coordinates":[76.20859,14.31016]}},{"type":"Feature","properties":{"state":"Karnataka","district":14,"district_n":"DAVANGERE","pc":13,"pc_name":"Davanagere","ac":103,"ac_name":"Jagalur","booth":77,"booth_name":"Govt Lower Primary School Byatagaranahalli"},"geometry":{"type":"Point","coordinates":[76.23203,14.3564]}},{"type":"Feature","properties":{"state":"Karnataka","district":14,"district_n":"DAVANGERE","pc":13,"pc_name":"Davanagere","ac":103,"ac_name":"Jagalur","booth":78,"booth_name":"Govt Lower Primary School Kasavanahalli"},"geometry":{"type":"Point","coordinates":[76.21932,14.33809]}},{"type":"Feature","properties":{"state":"Karnataka","district":14,"district_n":"DAVANGERE","pc":13,"pc_name":"Davanagere","ac":103,"ac_name":"Jagalur","booth":121,"booth_name":"Govt Higher Primary School School (old Blding) Room No No 2, 2, Asagodu"},"geometry":{"type":"Point","coordinates":[76.1510849,14.56202]}},{"type":"Feature","properties":{"state":"Karnataka","district":14,"district_n":"DAVANGERE","pc":13,"pc_name":"Davanagere","ac":103,"ac_name":"Jagalur","booth":109,"booth_name":"Govt Higher Primary School Room No No 2, 2, U Kallahalli"},"geometry":{"type":"Point","coordinates":[76.0550461,14.5381508]}},{"type":"Feature","properties":{"state":"Karnataka","district":14,"district_n":"DAVANGERE","pc":13,"pc_name":"Davanagere","ac":103,"ac_name":"Jagalur","booth":92,"booth_name":"Govt Higher Primary School Room No No 2, Diddige"},"geometry":{"type":"Point","coordinates":[76.17274,14.5911036]}},{"type":"Feature","properties":{"state":"Karnataka","district":14,"district_n":"DAVANGERE","pc":13,"pc_name":"Davanagere","ac":103,"ac_name":"Jagalur","booth":80,"booth_name":"Govt Higher Primary School Room No 2, Thamaleehalli"},"geometry":{"type":"Point","coordinates":[76.21144,14.34633]}},{"type":"Feature","properties":{"state":"Karnataka","district":14,"district_n":"DAVANGERE","pc":13,"pc_name":"Davanagere","ac":103,"ac_name":"Jagalur","booth":108,"booth_name":"Govt Higher Primary School U Kallahalli"},"geometry":{"type":"Point","coordinates":[76.0550842,14.5382]}},{"type":"Feature","properties":{"state":"Karnataka","district":14,"district_n":"DAVANGERE","pc":13,"pc_name":"Davanagere","ac":103,"ac_name":"Jagalur","booth":221,"booth_name":"Govt Lower Primary School Somanahalli"},"geometry":{"type":"Point","coordinates":[76.26482,14.45917]}},{"type":"Feature","properties":{"state":"Karnataka","district":14,"district_n":"DAVANGERE","pc":13,"pc_name":"Davanagere","ac":103,"ac_name":"Jagalur","booth":22,"booth_name":"Govt Higher Primary School Chikkabantanahalli"},"geometry":{"type":"Point","coordinates":[76.16202,14.40715]}},{"type":"Feature","properties":{"state":"Karnataka","district":14,"district_n":"DAVANGERE","pc":13,"pc_name":"Davanagere","ac":103,"ac_name":"Jagalur","booth":1,"booth_name":"Govt Higher Primary School Jittinakatte"},"geometry":{"type":"Point","coordinates":[75.9850159,14.70687]}},{"type":"Feature","properties":{"state":"Karnataka","district":14,"district_n":"DAVANGERE","pc":13,"pc_name":"Davanagere","ac":103,"ac_name":"Jagalur","booth":100,"booth_name":"V S S N N Uchhangidurga 2"},"geometry":{"type":"Point","coordinates":[76.05344,14.56343]}},{"type":"Feature","properties":{"state":"Karnataka","district":14,"district_n":"DAVANGERE","pc":13,"pc_name":"Davanagere","ac":103,"ac_name":"Jagalur","booth":101,"booth_name":"Uthsavamba High School Uchhangidurga 3"},"geometry":{"type":"Point","coordinates":[76.05461,14.5552053]}},{"type":"Feature","properties":{"state":"Karnataka","district":14,"district_n":"DAVANGERE","pc":13,"pc_name":"Davanagere","ac":103,"ac_name":"Jagalur","booth":137,"booth_name":"Govt Higher Primary School Huchhavvanahalli"},"geometry":{"type":"Point","coordinates":[76.26536,14.32919]}},{"type":"Feature","properties":{"state":"Karnataka","district":14,"district_n":"DAVANGERE","pc":13,"pc_name":"Davanagere","ac":103,"ac_name":"Jagalur","booth":106,"booth_name":"Govt Lower Primary School U,bevinahalli"},"geometry":{"type":"Point","coordinates":[76.01973,14.549325]}},{"type":"Feature","properties":{"state":"Karnataka","district":14,"district_n":"DAVANGERE","pc":13,"pc_name":"Davanagere","ac":103,"ac_name":"Jagalur","booth":107,"booth_name":"Govt Higher Primary School School Bevinahalli Dodda Thanda"},"geometry":{"type":"Point","coordinates":[76.0096,14.5548649]}},{"type":"Feature","properties":{"state":"Karnataka","district":14,"district_n":"DAVANGERE","pc":13,"pc_name":"Davanagere","ac":103,"ac_name":"Jagalur","booth":8,"booth_name":"Govt Higher Primary School Right Side Near Hospital Arasikere"},"geometry":{"type":"Point","coordinates":[76.0724,14.668663]}},{"type":"Feature","properties":{"state":"Karnataka","district":14,"district_n":"DAVANGERE","pc":13,"pc_name":"Davanagere","ac":103,"ac_name":"Jagalur","booth":28,"booth_name":"Govt Lower Primary School Thumbinakatte"},"geometry":{"type":"Point","coordinates":[76.20246,14.39099]}},{"type":"Feature","properties":{"state":"Karnataka","district":14,"district_n":"DAVANGERE","pc":13,"pc_name":"Davanagere","ac":103,"ac_name":"Jagalur","booth":31,"booth_name":"Govt Lower Primary School Venkateshapura(h)"},"geometry":{"type":"Point","coordinates":[76.13877,14.0381346]}},{"type":"Feature","properties":{"state":"Karnataka","district":14,"district_n":"DAVANGERE","pc":13,"pc_name":"Davanagere","ac":103,"ac_name":"Jagalur","booth":51,"booth_name":"Govt Higher Primary School Anajigere"},"geometry":{"type":"Point","coordinates":[76.08583,14.5874243]}},{"type":"Feature","properties":{"state":"Karnataka","district":14,"district_n":"DAVANGERE","pc":13,"pc_name":"Davanagere","ac":103,"ac_name":"Jagalur","booth":74,"booth_name":"Govt Higher Primary School Anaburu"},"geometry":{"type":"Point","coordinates":[76.24349,14.35858]}},{"type":"Feature","properties":{"state":"Karnataka","district":14,"district_n":"DAVANGERE","pc":13,"pc_name":"Davanagere","ac":103,"ac_name":"Jagalur","booth":99,"booth_name":"Grama Panchayat Office Uchhangidurga 1"},"geometry":{"type":"Point","coordinates":[76.0523148,14.56297]}},{"type":"Feature","properties":{"state":"Karnataka","district":14,"district_n":"DAVANGERE","pc":13,"pc_name":"Davanagere","ac":103,"ac_name":"Jagalur","booth":7,"booth_name":"Govt Lower Primary School Timlapura"},"geometry":{"type":"Point","coordinates":[76.0627747,14.6676331]}},{"type":"Feature","properties":{"state":"Karnataka","district":14,"district_n":"DAVANGERE","pc":13,"pc_name":"Davanagere","ac":103,"ac_name":"Jagalur","booth":10,"booth_name":"Old Grama Panchayathi Office Arasikere"},"geometry":{"type":"Point","coordinates":[76.07388,14.672349]}},{"type":"Feature","properties":{"state":"Karnataka","district":14,"district_n":"DAVANGERE","pc":13,"pc_name":"Davanagere","ac":103,"ac_name":"Jagalur","booth":16,"booth_name":"Govt Higher Primary School Agasanahalli"},"geometry":{"type":"Point","coordinates":[76.09137,14.41323]}},{"type":"Feature","properties":{"state":"Karnataka","district":14,"district_n":"DAVANGERE","pc":13,"pc_name":"Davanagere","ac":103,"ac_name":"Jagalur","booth":30,"booth_name":"Govt Higher Primary School Yarlakatte"},"geometry":{"type":"Point","coordinates":[76.13877,14.38135]}},{"type":"Feature","properties":{"state":"Karnataka","district":14,"district_n":"DAVANGERE","pc":13,"pc_name":"Davanagere","ac":103,"ac_name":"Jagalur","booth":39,"booth_name":"Govt Higher Primary School Polahalli Thanda"},"geometry":{"type":"Point","coordinates":[76.0406342,14.6571407]}},{"type":"Feature","properties":{"state":"Karnataka","district":14,"district_n":"DAVANGERE","pc":13,"pc_name":"Davanagere","ac":103,"ac_name":"Jagalur","booth":56,"booth_name":"Govt Pre University College (right Side) Madihalli 1"},"geometry":{"type":"Point","coordinates":[76.12422,14.628047]}},{"type":"Feature","properties":{"state":"Karnataka","district":14,"district_n":"DAVANGERE","pc":13,"pc_name":"Davanagere","ac":103,"ac_name":"Jagalur","booth":59,"booth_name":"Govt Higher Primary School Ujjappavaderahalli"},"geometry":{"type":"Point","coordinates":[76.09527,14.36916]}},{"type":"Feature","properties":{"state":"Karnataka","district":14,"district_n":"DAVANGERE","pc":13,"pc_name":"Davanagere","ac":103,"ac_name":"Jagalur","booth":73,"booth_name":"Govt Lower Primary School Anabur(h)gollarahatti"},"geometry":{"type":"Point","coordinates":[76.23964,14.35925]}},{"type":"Feature","properties":{"state":"Karnataka","district":14,"district_n":"DAVANGERE","pc":13,"pc_name":"Davanagere","ac":103,"ac_name":"Jagalur","booth":79,"booth_name":"Govt Higher Primary School Thamaleehalli"},"geometry":{"type":"Point","coordinates":[76.21145,14.34633]}},{"type":"Feature","properties":{"state":"Karnataka","district":14,"district_n":"DAVANGERE","pc":13,"pc_name":"Davanagere","ac":103,"ac_name":"Jagalur","booth":87,"booth_name":"Govt Model Higher Primary School ( Middle Wing) Pallagatte 1"},"geometry":{"type":"Point","coordinates":[76.19559,14.5699854]}},{"type":"Feature","properties":{"state":"Karnataka","district":14,"district_n":"DAVANGERE","pc":13,"pc_name":"Davanagere","ac":103,"ac_name":"Jagalur","booth":93,"booth_name":"Govt Higher Primary School ( New Building) Huchhangipura 1"},"geometry":{"type":"Point","coordinates":[76.15842,14.6045885]}},{"type":"Feature","properties":{"state":"Karnataka","district":14,"district_n":"DAVANGERE","pc":13,"pc_name":"Davanagere","ac":103,"ac_name":"Jagalur","booth":110,"booth_name":"Govt Higher Primary School School Chattnihlli"},"geometry":{"type":"Point","coordinates":[76.06162,14.5485945]}},{"type":"Feature","properties":{"state":"Karnataka","district":14,"district_n":"DAVANGERE","pc":13,"pc_name":"Davanagere","ac":103,"ac_name":"Jagalur","booth":122,"booth_name":"Govt Lower Primary School Asagodu(h)vaddarahatti"},"geometry":{"type":"Point","coordinates":[76.16291,14.5769758]}},{"type":"Feature","properties":{"state":"Karnataka","district":14,"district_n":"DAVANGERE","pc":13,"pc_name":"Davanagere","ac":103,"ac_name":"Jagalur","booth":133,"booth_name":"Govt Higher Primary School Hanumanthapura"},"geometry":{"type":"Point","coordinates":[76.21554,14.33179]}},{"type":"Feature","properties":{"state":"Karnataka","district":14,"district_n":"DAVANGERE","pc":13,"pc_name":"Davanagere","ac":103,"ac_name":"Jagalur","booth":139,"booth_name":"Govt Higher Primary School Chikkamallanahole"},"geometry":{"type":"Point","coordinates":[76.30075,14.32796]}},{"type":"Feature","properties":{"state":"Karnataka","district":14,"district_n":"DAVANGERE","pc":13,"pc_name":"Davanagere","ac":103,"ac_name":"Jagalur","booth":142,"booth_name":"Govt Lower Primary School Dibbadahalli"},"geometry":{"type":"Point","coordinates":[76.29701,14.32192]}},{"type":"Feature","properties":{"state":"Karnataka","district":14,"district_n":"DAVANGERE","pc":13,"pc_name":"Davanagere","ac":103,"ac_name":"Jagalur","booth":150,"booth_name":"Govt Lower Primary School School Giddanakatte"},"geometry":{"type":"Point","coordinates":[76.1853,14.31538]}},{"type":"Feature","properties":{"state":"Karnataka","district":14,"district_n":"DAVANGERE","pc":13,"pc_name":"Davanagere","ac":103,"ac_name":"Jagalur","booth":156,"booth_name":"Govt Lower Primary School Palanayakanakote"},"geometry":{"type":"Point","coordinates":[76.20877,14.5323458]}},{"type":"Feature","properties":{"state":"Karnataka","district":14,"district_n":"DAVANGERE","pc":13,"pc_name":"Davanagere","ac":103,"ac_name":"Jagalur","booth":162,"booth_name":"Nada Kacheri Bilichodu"},"geometry":{"type":"Point","coordinates":[76.16127,14.4950819]}},{"type":"Feature","properties":{"state":"Karnataka","district":14,"district_n":"DAVANGERE","pc":13,"pc_name":"Davanagere","ac":103,"ac_name":"Jagalur","booth":36,"booth_name":"Govt Higher Primary School Room No 2, Siddayyanakote"},"geometry":{"type":"Point","coordinates":[76.08694,14.38256]}},{"type":"Feature","properties":{"state":"Karnataka","district":14,"district_n":"DAVANGERE","pc":13,"pc_name":"Davanagere","ac":103,"ac_name":"Jagalur","booth":33,"booth_name":"Govt Higher Primary School Room No 2, Gurusiddapura"},"geometry":{"type":"Point","coordinates":[76.11772,14.39723]}},{"type":"Feature","properties":{"state":"Karnataka","district":14,"district_n":"DAVANGERE","pc":13,"pc_name":"Davanagere","ac":103,"ac_name":"Jagalur","booth":182,"booth_name":"Anganavadi Kendra Near Old Bhovi Bhovi Hostel Near Jagalurtown"},"geometry":{"type":"Point","coordinates":[76.20202,14.31155]}},{"type":"Feature","properties":{"state":"Karnataka","district":14,"district_n":"DAVANGERE","pc":13,"pc_name":"Davanagere","ac":103,"ac_name":"Jagalur","booth":196,"booth_name":"Govt Lower Primary School Siddammanahalli"},"geometry":{"type":"Point","coordinates":[76.24376,14.3169]}},{"type":"Feature","properties":{"state":"Karnataka","district":14,"district_n":"DAVANGERE","pc":13,"pc_name":"Davanagere","ac":103,"ac_name":"Jagalur","booth":199,"booth_name":"Govt Lower Primary School Kamandalagondi"},"geometry":{"type":"Point","coordinates":[76.29379,14.31595]}},{"type":"Feature","properties":{"state":"Karnataka","district":14,"district_n":"DAVANGERE","pc":13,"pc_name":"Davanagere","ac":103,"ac_name":"Jagalur","booth":202,"booth_name":"Govt Lower Primary School Kamagethanahalli"},"geometry":{"type":"Point","coordinates":[76.23547,14.30538]}},{"type":"Feature","properties":{"state":"Karnataka","district":14,"district_n":"DAVANGERE","pc":13,"pc_name":"Davanagere","ac":103,"ac_name":"Jagalur","booth":205,"booth_name":"Govt Lower Primary School Gopagondanahalli"},"geometry":{"type":"Point","coordinates":[76.19367,14.29086]}},{"type":"Feature","properties":{"state":"Karnataka","district":14,"district_n":"DAVANGERE","pc":13,"pc_name":"Davanagere","ac":103,"ac_name":"Jagalur","booth":219,"booth_name":"Govt Lower Primary School Halavadandi"},"geometry":{"type":"Point","coordinates":[76.24099,14.4798985]}},{"type":"Feature","properties":{"state":"Karnataka","district":14,"district_n":"DAVANGERE","pc":13,"pc_name":"Davanagere","ac":103,"ac_name":"Jagalur","booth":225,"booth_name":"Govt Higher Primary School Bistuvalli"},"geometry":{"type":"Point","coordinates":[76.17769,14.27813]}},{"type":"Feature","properties":{"state":"Karnataka","district":14,"district_n":"DAVANGERE","pc":13,"pc_name":"Davanagere","ac":103,"ac_name":"Jagalur","booth":233,"booth_name":"Govt Model Higher Primary School School (east Wing) Musturu"},"geometry":{"type":"Point","coordinates":[76.26469,14.28187]}},{"type":"Feature","properties":{"state":"Karnataka","district":14,"district_n":"DAVANGERE","pc":13,"pc_name":"Davanagere","ac":103,"ac_name":"Jagalur","booth":239,"booth_name":"Govt Higher Primary School Rastemakunte"},"geometry":{"type":"Point","coordinates":[76.17769,14.27138]}},{"type":"Feature","properties":{"state":"Karnataka","district":14,"district_n":"DAVANGERE","pc":13,"pc_name":"Davanagere","ac":103,"ac_name":"Jagalur","booth":236,"booth_name":"Govt Higher Primary School Jammapura"},"geometry":{"type":"Point","coordinates":[76.21786,14.27951]}},{"type":"Feature","properties":{"state":"Karnataka","district":14,"district_n":"DAVANGERE","pc":13,"pc_name":"Davanagere","ac":103,"ac_name":"Jagalur","booth":130,"booth_name":"Govt Higher Primary School School Iyyanahalli"},"geometry":{"type":"Point","coordinates":[76.2649841,14.5355015]}},{"type":"Feature","properties":{"state":"Karnataka","district":14,"district_n":"DAVANGERE","pc":13,"pc_name":"Davanagere","ac":103,"ac_name":"Jagalur","booth":153,"booth_name":"Govt Lower Primary School Kodadagudda"},"geometry":{"type":"Point","coordinates":[76.2496948,14.5245209]}},{"type":"Feature","properties":{"state":"Karnataka","district":14,"district_n":"DAVANGERE","pc":13,"pc_name":"Davanagere","ac":103,"ac_name":"Jagalur","booth":159,"booth_name":"Govt Higher Primary School North wing Bilichodu Bilichodu 1"},"geometry":{"type":"Point","coordinates":[76.16776,14.4950647]}},{"type":"Feature","properties":{"state":"Karnataka","district":14,"district_n":"DAVANGERE","pc":13,"pc_name":"Davanagere","ac":103,"ac_name":"Jagalur","booth":151,"booth_name":"Govt , Lower primary School, Biranayakanahalli Gollarahatti"},"geometry":{"type":"Point","coordinates":[76.17586,14.31934]}},{"type":"Feature","properties":{"state":"Karnataka","district":14,"district_n":"DAVANGERE","pc":13,"pc_name":"Davanagere","ac":103,"ac_name":"Jagalur","booth":65,"booth_name":"Govt Lower Primary School Room No No 2 Chikkabannihatti"},"geometry":{"type":"Point","coordinates":[76.17179,14.35936]}},{"type":"Feature","properties":{"state":"Karnataka","district":14,"district_n":"DAVANGERE","pc":13,"pc_name":"Davanagere","ac":103,"ac_name":"Jagalur","booth":2,"booth_name":"Govt Higher Primary School Room No No 1 Kyarakatte"},"geometry":{"type":"Point","coordinates":[76.00849,14.6559916]}},{"type":"Feature","properties":{"state":"Karnataka","district":14,"district_n":"DAVANGERE","pc":13,"pc_name":"Davanagere","ac":103,"ac_name":"Jagalur","booth":248,"booth_name":"Govt Lower Primary School Bidarakere(h)gollarahatti"},"geometry":{"type":"Point","coordinates":[76.17819,14.25138]}},{"type":"Feature","properties":{"state":"Karnataka","district":14,"district_n":"DAVANGERE","pc":13,"pc_name":"Davanagere","ac":103,"ac_name":"Jagalur","booth":70,"booth_name":"Govt Higher Primary School Kyasenahalli"},"geometry":{"type":"Point","coordinates":[76.20435,14.38261]}},{"type":"Feature","properties":{"state":"Karnataka","district":14,"district_n":"DAVANGERE","pc":13,"pc_name":"Davanagere","ac":103,"ac_name":"Jagalur","booth":88,"booth_name":"Govt Model Higher Primary School (south Wing) Pallagatte 2"},"geometry":{"type":"Point","coordinates":[76.1956253,14.5697556]}},{"type":"Feature","properties":{"state":"Karnataka","district":14,"district_n":"DAVANGERE","pc":13,"pc_name":"Davanagere","ac":103,"ac_name":"Jagalur","booth":94,"booth_name":"Govt Higher Primary School ( Old Building) Huchhangipura 2"},"geometry":{"type":"Point","coordinates":[76.15847,14.6045914]}},{"type":"Feature","properties":{"state":"Karnataka","district":14,"district_n":"DAVANGERE","pc":13,"pc_name":"Davanagere","ac":103,"ac_name":"Jagalur","booth":105,"booth_name":"Govt Model Higher Primary School School (right Wing) Uchhangidurga"},"geometry":{"type":"Point","coordinates":[76.05343,14.5596724]}},{"type":"Feature","properties":{"state":"Karnataka","district":14,"district_n":"DAVANGERE","pc":13,"pc_name":"Davanagere","ac":103,"ac_name":"Jagalur","booth":128,"booth_name":"Govt Lower Primary School Kallenahalli"},"geometry":{"type":"Point","coordinates":[76.20265,14.5519981]}},{"type":"Feature","properties":{"state":"Karnataka","district":14,"district_n":"DAVANGERE","pc":13,"pc_name":"Davanagere","ac":103,"ac_name":"Jagalur","booth":119,"booth_name":"Govt Model Higher Primary School School School (east Wing) Asagodu"},"geometry":{"type":"Point","coordinates":[76.15095,14.5621557]}},{"type":"Feature","properties":{"state":"Karnataka","district":14,"district_n":"DAVANGERE","pc":13,"pc_name":"Davanagere","ac":103,"ac_name":"Jagalur","booth":47,"booth_name":"Gurudeva High School (left Wing) Kambathahalli"},"geometry":{"type":"Point","coordinates":[76.03615,14.6429138]}},{"type":"Feature","properties":{"state":"Karnataka","district":14,"district_n":"DAVANGERE","pc":13,"pc_name":"Davanagere","ac":103,"ac_name":"Jagalur","booth":170,"booth_name":"Govt Lower Primary School School Vyasagondanahalli"},"geometry":{"type":"Point","coordinates":[76.27236,14.4955053]}},{"type":"Feature","properties":{"state":"Karnataka","district":14,"district_n":"DAVANGERE","pc":13,"pc_name":"Davanagere","ac":103,"ac_name":"Jagalur","booth":173,"booth_name":"Govt Higher Primary School School Rasthemachikere"},"geometry":{"type":"Point","coordinates":[76.29774,14.5077629]}},{"type":"Feature","properties":{"state":"Karnataka","district":14,"district_n":"DAVANGERE","pc":13,"pc_name":"Davanagere","ac":103,"ac_name":"Jagalur","booth":176,"booth_name":"Govt Higher Primary School School Jagalur Jagalur Town Town Horakere"},"geometry":{"type":"Point","coordinates":[76.20137,14.31146]}},{"type":"Feature","properties":{"state":"Karnataka","district":14,"district_n":"DAVANGERE","pc":13,"pc_name":"Davanagere","ac":103,"ac_name":"Jagalur","booth":185,"booth_name":"Govt Govt Junior College(north Wing) Wing) Jagalur Town"},"geometry":{"type":"Point","coordinates":[76.20469,14.31153]}},{"type":"Feature","properties":{"state":"Karnataka","district":14,"district_n":"DAVANGERE","pc":13,"pc_name":"Davanagere","ac":103,"ac_name":"Jagalur","booth":179,"booth_name":"Govt Higher Primary Urdu Urdu Boys School (north Wing) Jagalur Town"},"geometry":{"type":"Point","coordinates":[76.20445,14.31332]}},{"type":"Feature","properties":{"state":"Karnataka","district":14,"district_n":"DAVANGERE","pc":13,"pc_name":"Davanagere","ac":103,"ac_name":"Jagalur","booth":136,"booth_name":"Govt Lower Primary School Madamuttenahalli"},"geometry":{"type":"Point","coordinates":[76.27205,14.34625]}},{"type":"Feature","properties":{"state":"Karnataka","district":14,"district_n":"DAVANGERE","pc":13,"pc_name":"Davanagere","ac":103,"ac_name":"Jagalur","booth":27,"booth_name":"Govt Higher Higher Primary School Marikatte"},"geometry":{"type":"Point","coordinates":[76.20816,14.39102]}},{"type":"Feature","properties":{"state":"Karnataka","district":14,"district_n":"DAVANGERE","pc":13,"pc_name":"Davanagere","ac":103,"ac_name":"Jagalur","booth":89,"booth_name":"Govt Model Higher Primary School ( South Wing) Pallagatta 3"},"geometry":{"type":"Point","coordinates":[76.1954651,14.5700483]}},{"type":"Feature","properties":{"state":"Karnataka","district":14,"district_n":"DAVANGERE","pc":13,"pc_name":"Davanagere","ac":103,"ac_name":"Jagalur","booth":115,"booth_name":"Govt Lower Primary School Ramaghatta Thanda"},"geometry":{"type":"Point","coordinates":[76.10476,14.5528326]}},{"type":"Feature","properties":{"state":"Karnataka","district":14,"district_n":"DAVANGERE","pc":13,"pc_name":"Davanagere","ac":103,"ac_name":"Jagalur","booth":91,"booth_name":"Govt Higher Primary School Diddige"},"geometry":{"type":"Point","coordinates":[76.17274,14.591197]}},{"type":"Feature","properties":{"state":"Karnataka","district":14,"district_n":"DAVANGERE","pc":13,"pc_name":"Davanagere","ac":103,"ac_name":"Jagalur","booth":114,"booth_name":"Govt Lower Primary School Nerebommanahalli"},"geometry":{"type":"Point","coordinates":[76.11009,14.5285177]}},{"type":"Feature","properties":{"state":"Karnataka","district":14,"district_n":"DAVANGERE","pc":13,"pc_name":"Davanagere","ac":103,"ac_name":"Jagalur","booth":90,"booth_name":"Govt Lower Primary School Kenchammanagtihalli"},"geometry":{"type":"Point","coordinates":[76.18602,14.5796309]}},{"type":"Feature","properties":{"state":"Karnataka","district":14,"district_n":"DAVANGERE","pc":13,"pc_name":"Davanagere","ac":103,"ac_name":"Jagalur","booth":116,"booth_name":"Govt Lower Primary School Hunasekatte"},"geometry":{"type":"Point","coordinates":[76.04646,14.5982628]}},{"type":"Feature","properties":{"state":"Karnataka","district":14,"district_n":"DAVANGERE","pc":13,"pc_name":"Davanagere","ac":103,"ac_name":"Jagalur","booth":34,"booth_name":"Govt Lower Primary School Jadanakatte"},"geometry":{"type":"Point","coordinates":[76.10199,14.39048]}},{"type":"Feature","properties":{"state":"Karnataka","district":14,"district_n":"DAVANGERE","pc":13,"pc_name":"Davanagere","ac":103,"ac_name":"Jagalur","booth":71,"booth_name":"Govt Higher Primary School Hanumavvanagithihalli"},"geometry":{"type":"Point","coordinates":[76.3309,14.38111]}},{"type":"Feature","properties":{"state":"Karnataka","district":14,"district_n":"DAVANGERE","pc":13,"pc_name":"Davanagere","ac":103,"ac_name":"Jagalur","booth":220,"booth_name":"Govt Composit High School Guttidurga"},"geometry":{"type":"Point","coordinates":[76.24671,14.4636431]}},{"type":"Feature","properties":{"state":"Karnataka","district":14,"district_n":"DAVANGERE","pc":13,"pc_name":"Davanagere","ac":103,"ac_name":"Jagalur","booth":76,"booth_name":"Govt Lower Primary School Jyothipura"},"geometry":{"type":"Point","coordinates":[76.2357,14.36234]}},{"type":"Feature","properties":{"state":"Karnataka","district":14,"district_n":"DAVANGERE","pc":13,"pc_name":"Davanagere","ac":103,"ac_name":"Jagalur","booth":253,"booth_name":"Govt Composit High School Room No No 2, 2, Toranagatte 2"},"geometry":{"type":"Point","coordinates":[76.21395,14.26917]}},{"type":"Feature","properties":{"state":"Karnataka","district":14,"district_n":"DAVANGERE","pc":13,"pc_name":"Davanagere","ac":103,"ac_name":"Jagalur","booth":24,"booth_name":"Govt Higher Primary School Room No No 2,gadimakunte"},"geometry":{"type":"Point","coordinates":[76.17913,14.40283]}},{"type":"Feature","properties":{"state":"Karnataka","district":14,"district_n":"DAVANGERE","pc":13,"pc_name":"Davanagere","ac":103,"ac_name":"Jagalur","booth":213,"booth_name":"Govt Model Higher Primary School Room No No 2, 2, Halekallu"},"geometry":{"type":"Point","coordinates":[76.1397247,14.4572906]}},{"type":"Feature","properties":{"state":"Karnataka","district":14,"district_n":"DAVANGERE","pc":13,"pc_name":"Davanagere","ac":103,"ac_name":"Jagalur","booth":193,"booth_name":"Govt Higher Primary School Room No No 1, 1, Jaglur (h) Gollarahatti"},"geometry":{"type":"Point","coordinates":[76.2086,14.31011]}},{"type":"Feature","properties":{"state":"Karnataka","district":14,"district_n":"DAVANGERE","pc":13,"pc_name":"Davanagere","ac":103,"ac_name":"Jagalur","booth":113,"booth_name":"Govt Higher Primary School Room No No 2, 2, Ramaghatta"},"geometry":{"type":"Point","coordinates":[76.12528,14.5431337]}},{"type":"Feature","properties":{"state":"Karnataka","district":14,"district_n":"DAVANGERE","pc":13,"pc_name":"Davanagere","ac":103,"ac_name":"Jagalur","booth":96,"booth_name":"Govt Higher Primary School, New Buildinng Room No No 2, Jangamatumbigere"},"geometry":{"type":"Point","coordinates":[76.11403,14.5881]}},{"type":"Feature","properties":{"state":"Karnataka","district":14,"district_n":"DAVANGERE","pc":13,"pc_name":"Davanagere","ac":103,"ac_name":"Jagalur","booth":67,"booth_name":"Govt Higher Primary School Room No No 2, Hosakere"},"geometry":{"type":"Point","coordinates":[76.17654,14.36902]}},{"type":"Feature","properties":{"state":"Karnataka","district":14,"district_n":"DAVANGERE","pc":13,"pc_name":"Davanagere","ac":103,"ac_name":"Jagalur","booth":50,"booth_name":"Govt Higher Primary School, Channapura"},"geometry":{"type":"Point","coordinates":[76.03642,14.5954447]}},{"type":"Feature","properties":{"state":"Karnataka","district":14,"district_n":"DAVANGERE","pc":13,"pc_name":"Davanagere","ac":103,"ac_name":"Jagalur","booth":4,"booth_name":"Govt Lower Primary School Balenahalli"},"geometry":{"type":"Point","coordinates":[75.97434,14.3682661]}},{"type":"Feature","properties":{"state":"Karnataka","district":14,"district_n":"DAVANGERE","pc":13,"pc_name":"Davanagere","ac":103,"ac_name":"Jagalur","booth":13,"booth_name":"Sri Bommalingeshwra High School,room No 2, Basavanakote"},"geometry":{"type":"Point","coordinates":[76.07451,14.39978]}},{"type":"Feature","properties":{"state":"Karnataka","district":14,"district_n":"DAVANGERE","pc":13,"pc_name":"Davanagere","ac":103,"ac_name":"Jagalur","booth":245,"booth_name":"Govt Model Higher Primary School School (west (west Wing ) ) Old Old Bilding Bidarakere"},"geometry":{"type":"Point","coordinates":[76.17956,14.25916]}},{"type":"Feature","properties":{"state":"Karnataka","district":14,"district_n":"DAVANGERE","pc":13,"pc_name":"Davanagere","ac":103,"ac_name":"Jagalur","booth":256,"booth_name":"Govt Higher Primary School School (south Wing) Kalledevarapura"},"geometry":{"type":"Point","coordinates":[76.23395,14.26632]}},{"type":"Feature","properties":{"state":"Karnataka","district":14,"district_n":"DAVANGERE","pc":13,"pc_name":"Davanagere","ac":103,"ac_name":"Jagalur","booth":166,"booth_name":"Govt Composit High School Medakeranahalli"},"geometry":{"type":"Point","coordinates":[76.20832,14.5137]}},{"type":"Feature","properties":{"state":"Karnataka","district":14,"district_n":"DAVANGERE","pc":13,"pc_name":"Davanagere","ac":103,"ac_name":"Jagalur","booth":167,"booth_name":"Govt Higher Primary School School Suraddihlli"},"geometry":{"type":"Point","coordinates":[76.2282,14.5132866]}},{"type":"Feature","properties":{"state":"Karnataka","district":14,"district_n":"DAVANGERE","pc":13,"pc_name":"Davanagere","ac":103,"ac_name":"Jagalur","booth":194,"booth_name":"Govt Higher Primary School Bharamasamudra"},"geometry":{"type":"Point","coordinates":[76.23085,14.3108]}},{"type":"Feature","properties":{"state":"Karnataka","district":14,"district_n":"DAVANGERE","pc":13,"pc_name":"Davanagere","ac":103,"ac_name":"Jagalur","booth":216,"booth_name":"Govt Lower Primary School Chikka Arakere"},"geometry":{"type":"Point","coordinates":[76.18936,14.4698906]}}]}