{"type":"FeatureCollection","features":[{"type":"Feature","properties":{"state":"Karnataka","district":14,"district_n":"DAVANGERE","pc":13,"pc_name":"Davanagere","ac":104,"ac_name":"Harapanahalli","booth":107,"booth_name":"Govt Higher Primary Urdu School School Gundinakeri New Building Harapanahalli"},"geometry":{"type":"Point","coordinates":[75.99014,14.7812614]}},{"type":"Feature","properties":{"state":"Karnataka","district":14,"district_n":"DAVANGERE","pc":13,"pc_name":"Davanagere","ac":104,"ac_name":"Harapanahalli","booth":108,"booth_name":"Govt Model Higher Primary School School (room No No 3 ) Megalapete Harapanahalli"},"geometry":{"type":"Point","coordinates":[75.9918747,14.7856655]}},{"type":"Feature","properties":{"state":"Karnataka","district":14,"district_n":"DAVANGERE","pc":13,"pc_name":"Davanagere","ac":104,"ac_name":"Harapanahalli","booth":110,"booth_name":"T A P C M S Harapanahalli"},"geometry":{"type":"Point","coordinates":[75.98585,14.7870893]}},{"type":"Feature","properties":{"state":"Karnataka","district":14,"district_n":"DAVANGERE","pc":13,"pc_name":"Davanagere","ac":104,"ac_name":"Harapanahalli","booth":213,"booth_name":"Govt Higher Primary School School Shiraganahalli"},"geometry":{"type":"Point","coordinates":[75.88458,14.61435]}},{"type":"Feature","properties":{"state":"Karnataka","district":14,"district_n":"DAVANGERE","pc":13,"pc_name":"Davanagere","ac":104,"ac_name":"Harapanahalli","booth":214,"booth_name":"Govt Lower Primary School Thunbigeri"},"geometry":{"type":"Point","coordinates":[75.8718948,14.6091146]}},{"type":"Feature","properties":{"state":"Karnataka","district":14,"district_n":"DAVANGERE","pc":13,"pc_name":"Davanagere","ac":104,"ac_name":"Harapanahalli","booth":159,"booth_name":"Govt Higher Primary School Room No 2 2 Tavaragundi"},"geometry":{"type":"Point","coordinates":[75.74905,14.6999454]}},{"type":"Feature","properties":{"state":"Karnataka","district":14,"district_n":"DAVANGERE","pc":13,"pc_name":"Davanagere","ac":104,"ac_name":"Harapanahalli","booth":142,"booth_name":"Govt Lower Primary School Bhyrapura"},"geometry":{"type":"Point","coordinates":[75.99707,14.7776642]}},{"type":"Feature","properties":{"state":"Karnataka","district":14,"district_n":"DAVANGERE","pc":13,"pc_name":"Davanagere","ac":104,"ac_name":"Harapanahalli","booth":144,"booth_name":"Govt Higher Primary School School Machihalli"},"geometry":{"type":"Point","coordinates":[75.9267654,14.73236]}},{"type":"Feature","properties":{"state":"Karnataka","district":14,"district_n":"DAVANGERE","pc":13,"pc_name":"Davanagere","ac":104,"ac_name":"Harapanahalli","booth":145,"booth_name":"Govt Higher Primary School School Machihalli Machihalli Thanda"},"geometry":{"type":"Point","coordinates":[75.9228058,14.7110815]}},{"type":"Feature","properties":{"state":"Karnataka","district":14,"district_n":"DAVANGERE","pc":13,"pc_name":"Davanagere","ac":104,"ac_name":"Harapanahalli","booth":147,"booth_name":"Govt Model Higher Primary School School (left Wing) Wing) Neelagunda"},"geometry":{"type":"Point","coordinates":[75.89765,14.7348528]}},{"type":"Feature","properties":{"state":"Karnataka","district":14,"district_n":"DAVANGERE","pc":13,"pc_name":"Davanagere","ac":104,"ac_name":"Harapanahalli","booth":148,"booth_name":"Govt Model Higher Primary School School (south Wing) Wing) Neelagunda"},"geometry":{"type":"Point","coordinates":[75.8982544,14.7349911]}},{"type":"Feature","properties":{"state":"Karnataka","district":14,"district_n":"DAVANGERE","pc":13,"pc_name":"Davanagere","ac":104,"ac_name":"Harapanahalli","booth":125,"booth_name":"Govt Higher Primary School School Hombalagatti"},"geometry":{"type":"Point","coordinates":[76.03251,14.7891083]}},{"type":"Feature","properties":{"state":"Karnataka","district":14,"district_n":"DAVANGERE","pc":13,"pc_name":"Davanagere","ac":104,"ac_name":"Harapanahalli","booth":127,"booth_name":"Govt Higher Primary School School Nichhapura"},"geometry":{"type":"Point","coordinates":[76.05858,14.7834558]}},{"type":"Feature","properties":{"state":"Karnataka","district":14,"district_n":"DAVANGERE","pc":13,"pc_name":"Davanagere","ac":104,"ac_name":"Harapanahalli","booth":128,"booth_name":"Govt Model Higher Primary School (right Wing) Wing) Bennehalli"},"geometry":{"type":"Point","coordinates":[76.11561,14.793644]}},{"type":"Feature","properties":{"state":"Karnataka","district":14,"district_n":"DAVANGERE","pc":13,"pc_name":"Davanagere","ac":104,"ac_name":"Harapanahalli","booth":130,"booth_name":"Govt Model Higher Primary School School (left Wing) Wing) Bennihalli"},"geometry":{"type":"Point","coordinates":[76.11573,14.7933645]}},{"type":"Feature","properties":{"state":"Karnataka","district":14,"district_n":"DAVANGERE","pc":13,"pc_name":"Davanagere","ac":104,"ac_name":"Harapanahalli","booth":131,"booth_name":"Govt Model Higher Primary School School Room Room No 1 Mattihalli"},"geometry":{"type":"Point","coordinates":[76.14371,14.7564774]}},{"type":"Feature","properties":{"state":"Karnataka","district":14,"district_n":"DAVANGERE","pc":13,"pc_name":"Davanagere","ac":104,"ac_name":"Harapanahalli","booth":116,"booth_name":"Public Library Old Building Harapanahalli"},"geometry":{"type":"Point","coordinates":[75.98464,14.7838812]}},{"type":"Feature","properties":{"state":"Karnataka","district":14,"district_n":"DAVANGERE","pc":13,"pc_name":"Davanagere","ac":104,"ac_name":"Harapanahalli","booth":85,"booth_name":"Govt Lower Primary School Bhimlatanda"},"geometry":{"type":"Point","coordinates":[75.89881,14.76663]}},{"type":"Feature","properties":{"state":"Karnataka","district":14,"district_n":"DAVANGERE","pc":13,"pc_name":"Davanagere","ac":104,"ac_name":"Harapanahalli","booth":67,"booth_name":"Govt Lower Primary School Kanavi"},"geometry":{"type":"Point","coordinates":[75.79129,14.7346849]}},{"type":"Feature","properties":{"state":"Karnataka","district":14,"district_n":"DAVANGERE","pc":13,"pc_name":"Davanagere","ac":104,"ac_name":"Harapanahalli","booth":45,"booth_name":"Govt Higher Primary School School New Building Building (east Wing) Myduru"},"geometry":{"type":"Point","coordinates":[76.11174,14.8470964]}},{"type":"Feature","properties":{"state":"Karnataka","district":14,"district_n":"DAVANGERE","pc":13,"pc_name":"Davanagere","ac":104,"ac_name":"Harapanahalli","booth":30,"booth_name":"Govt Higher Primary School Room No 2 Goverahalli"},"geometry":{"type":"Point","coordinates":[75.93303,14.8192968]}},{"type":"Feature","properties":{"state":"Karnataka","district":14,"district_n":"DAVANGERE","pc":13,"pc_name":"Davanagere","ac":104,"ac_name":"Harapanahalli","booth":188,"booth_name":"Govt Higher Primary School School (north Wing) Kadabageri"},"geometry":{"type":"Point","coordinates":[76.0916,14.7637634]}},{"type":"Feature","properties":{"state":"Karnataka","district":14,"district_n":"DAVANGERE","pc":13,"pc_name":"Davanagere","ac":104,"ac_name":"Harapanahalli","booth":190,"booth_name":"Govt Higher Primary School School School (south Wing) Wing) Kadabageri"},"geometry":{"type":"Point","coordinates":[76.05278,14.42935]}},{"type":"Feature","properties":{"state":"Karnataka","district":14,"district_n":"DAVANGERE","pc":13,"pc_name":"Davanagere","ac":104,"ac_name":"Harapanahalli","booth":179,"booth_name":"Govt Model Higher Primary School School (right Wing) Wing) Sasvihalli"},"geometry":{"type":"Point","coordinates":[76.12503,14.7326117]}},{"type":"Feature","properties":{"state":"Karnataka","district":14,"district_n":"DAVANGERE","pc":13,"pc_name":"Davanagere","ac":104,"ac_name":"Harapanahalli","booth":154,"booth_name":"Govt Lower Primary School School Matturu"},"geometry":{"type":"Point","coordinates":[75.77551,14.6573277]}},{"type":"Feature","properties":{"state":"Karnataka","district":14,"district_n":"DAVANGERE","pc":13,"pc_name":"Davanagere","ac":104,"ac_name":"Harapanahalli","booth":156,"booth_name":"Gram Panchayath Office Office Nitturu"},"geometry":{"type":"Point","coordinates":[75.78591,14.68362]}},{"type":"Feature","properties":{"state":"Karnataka","district":14,"district_n":"DAVANGERE","pc":13,"pc_name":"Davanagere","ac":104,"ac_name":"Harapanahalli","booth":245,"booth_name":"Govt Higher Primary School School Lakshmipura"},"geometry":{"type":"Point","coordinates":[75.9441452,14.5682144]}},{"type":"Feature","properties":{"state":"Karnataka","district":14,"district_n":"DAVANGERE","pc":13,"pc_name":"Davanagere","ac":104,"ac_name":"Harapanahalli","booth":1,"booth_name":"Govt Higher Primary School School Channahalli"},"geometry":{"type":"Point","coordinates":[75.81766,14.8712969]}},{"type":"Feature","properties":{"state":"Karnataka","district":14,"district_n":"DAVANGERE","pc":13,"pc_name":"Davanagere","ac":104,"ac_name":"Harapanahalli","booth":2,"booth_name":"Govt Lower Primary School School Eshapura"},"geometry":{"type":"Point","coordinates":[75.84403,14.8730907]}},{"type":"Feature","properties":{"state":"Karnataka","district":14,"district_n":"DAVANGERE","pc":13,"pc_name":"Davanagere","ac":104,"ac_name":"Harapanahalli","booth":196,"booth_name":"Govt Lower Primary School School Kanakanabasapura"},"geometry":{"type":"Point","coordinates":[76.0337,14.407]}},{"type":"Feature","properties":{"state":"Karnataka","district":14,"district_n":"DAVANGERE","pc":13,"pc_name":"Davanagere","ac":104,"ac_name":"Harapanahalli","booth":33,"booth_name":"Govt Higher Primary School School Bapujinagara"},"geometry":{"type":"Point","coordinates":[75.9047,14.7964468]}},{"type":"Feature","properties":{"state":"Karnataka","district":14,"district_n":"DAVANGERE","pc":13,"pc_name":"Davanagere","ac":104,"ac_name":"Harapanahalli","booth":36,"booth_name":"Govt Higher Primary School School Eredethinahalli"},"geometry":{"type":"Point","coordinates":[75.96657,14.8289547]}},{"type":"Feature","properties":{"state":"Karnataka","district":14,"district_n":"DAVANGERE","pc":13,"pc_name":"Davanagere","ac":104,"ac_name":"Harapanahalli","booth":39,"booth_name":"Govt Model Higher Primary School School New Building Building Building (north Wing) Bagali"},"geometry":{"type":"Point","coordinates":[75.98038,14.8444824]}},{"type":"Feature","properties":{"state":"Karnataka","district":14,"district_n":"DAVANGERE","pc":13,"pc_name":"Davanagere","ac":104,"ac_name":"Harapanahalli","booth":47,"booth_name":"Govt Higher Primary School Hagarigajapuru"},"geometry":{"type":"Point","coordinates":[76.16712,14.8344669]}},{"type":"Feature","properties":{"state":"Karnataka","district":14,"district_n":"DAVANGERE","pc":13,"pc_name":"Davanagere","ac":104,"ac_name":"Harapanahalli","booth":53,"booth_name":"Govt Model Higher Primary School ( South Wing ) Chigateri"},"geometry":{"type":"Point","coordinates":[76.087265,14.8137064]}},{"type":"Feature","properties":{"state":"Karnataka","district":14,"district_n":"DAVANGERE","pc":13,"pc_name":"Davanagere","ac":104,"ac_name":"Harapanahalli","booth":59,"booth_name":"Govt Lower Primary School School Yallapuru"},"geometry":{"type":"Point","coordinates":[75.95466,14.8019238]}},{"type":"Feature","properties":{"state":"Karnataka","district":14,"district_n":"DAVANGERE","pc":13,"pc_name":"Davanagere","ac":104,"ac_name":"Harapanahalli","booth":19,"booth_name":"Govt Higher Primary School Nandibevuru Thanda"},"geometry":{"type":"Point","coordinates":[76.13183,14.97861]}},{"type":"Feature","properties":{"state":"Karnataka","district":14,"district_n":"DAVANGERE","pc":13,"pc_name":"Davanagere","ac":104,"ac_name":"Harapanahalli","booth":27,"booth_name":"Govt Higher Primary School Togarikatte"},"geometry":{"type":"Point","coordinates":[75.91388,14.8177338]}},{"type":"Feature","properties":{"state":"Karnataka","district":14,"district_n":"DAVANGERE","pc":13,"pc_name":"Davanagere","ac":104,"ac_name":"Harapanahalli","booth":41,"booth_name":"Govt Lower Primary School School Bavihalli"},"geometry":{"type":"Point","coordinates":[76.07564,14.8438959]}},{"type":"Feature","properties":{"state":"Karnataka","district":14,"district_n":"DAVANGERE","pc":13,"pc_name":"Davanagere","ac":104,"ac_name":"Harapanahalli","booth":42,"booth_name":"Govt Higher Primary School School New Building Building (south Wing) Wing) Myduru"},"geometry":{"type":"Point","coordinates":[76.1104,14.8462172]}},{"type":"Feature","properties":{"state":"Karnataka","district":14,"district_n":"DAVANGERE","pc":13,"pc_name":"Davanagere","ac":104,"ac_name":"Harapanahalli","booth":44,"booth_name":"Govt Higher Primary School School New Building Building (north Wing) Myduru"},"geometry":{"type":"Point","coordinates":[76.11173,14.8471594]}},{"type":"Feature","properties":{"state":"Karnataka","district":14,"district_n":"DAVANGERE","pc":13,"pc_name":"Davanagere","ac":104,"ac_name":"Harapanahalli","booth":21,"booth_name":"Govt Higher Primary School School (east Wing) Wing) Nandibevuru"},"geometry":{"type":"Point","coordinates":[76.05208,14.90645]}},{"type":"Feature","properties":{"state":"Karnataka","district":14,"district_n":"DAVANGERE","pc":13,"pc_name":"Davanagere","ac":104,"ac_name":"Harapanahalli","booth":25,"booth_name":"Govt Lower Primary School School Kodihalli"},"geometry":{"type":"Point","coordinates":[75.9977951,14.8592949]}},{"type":"Feature","properties":{"state":"Karnataka","district":14,"district_n":"DAVANGERE","pc":13,"pc_name":"Davanagere","ac":104,"ac_name":"Harapanahalli","booth":62,"booth_name":"Govt Higher Primary School School (right Wing) Wing) Arasanahalu"},"geometry":{"type":"Point","coordinates":[75.82901,14.7495747]}},{"type":"Feature","properties":{"state":"Karnataka","district":14,"district_n":"DAVANGERE","pc":13,"pc_name":"Davanagere","ac":104,"ac_name":"Harapanahalli","booth":64,"booth_name":"Govt Lower Primary School School New Building Building Valathanda"},"geometry":{"type":"Point","coordinates":[75.76063,14.7682266]}},{"type":"Feature","properties":{"state":"Karnataka","district":14,"district_n":"DAVANGERE","pc":13,"pc_name":"Davanagere","ac":104,"ac_name":"Harapanahalli","booth":65,"booth_name":"Govt Higher Primary School School Garbhagudi"},"geometry":{"type":"Point","coordinates":[75.7672,14.7291708]}},{"type":"Feature","properties":{"state":"Karnataka","district":14,"district_n":"DAVANGERE","pc":13,"pc_name":"Davanagere","ac":104,"ac_name":"Harapanahalli","booth":68,"booth_name":"Govt Pre University College ( Left Wing ) Halavagalu"},"geometry":{"type":"Point","coordinates":[75.7816,14.7108755]}},{"type":"Feature","properties":{"state":"Karnataka","district":14,"district_n":"DAVANGERE","pc":13,"pc_name":"Davanagere","ac":104,"ac_name":"Harapanahalli","booth":79,"booth_name":"Grama Panchayathi Office Office Kunchuru"},"geometry":{"type":"Point","coordinates":[75.82152,14.7317991]}},{"type":"Feature","properties":{"state":"Karnataka","district":14,"district_n":"DAVANGERE","pc":13,"pc_name":"Davanagere","ac":104,"ac_name":"Harapanahalli","booth":82,"booth_name":"Govt Lower Primary School School School Aremajjigere"},"geometry":{"type":"Point","coordinates":[75.88067,14.7622738]}},{"type":"Feature","properties":{"state":"Karnataka","district":14,"district_n":"DAVANGERE","pc":13,"pc_name":"Davanagere","ac":104,"ac_name":"Harapanahalli","booth":84,"booth_name":"Govt Higher Primary School School Chikkamajjigere"},"geometry":{"type":"Point","coordinates":[75.89458,14.7571087]}},{"type":"Feature","properties":{"state":"Karnataka","district":14,"district_n":"DAVANGERE","pc":13,"pc_name":"Davanagere","ac":104,"ac_name":"Harapanahalli","booth":87,"booth_name":"Govt Lower Primary School School Ananthanahalli"},"geometry":{"type":"Point","coordinates":[75.94618,14.7742538]}},{"type":"Feature","properties":{"state":"Karnataka","district":14,"district_n":"DAVANGERE","pc":13,"pc_name":"Davanagere","ac":104,"ac_name":"Harapanahalli","booth":88,"booth_name":"Govt Higher Primary School School (north Wing) Wing) Upparageri Harapanahalli"},"geometry":{"type":"Point","coordinates":[75.98114,14.7937078]}},{"type":"Feature","properties":{"state":"Karnataka","district":14,"district_n":"DAVANGERE","pc":13,"pc_name":"Davanagere","ac":104,"ac_name":"Harapanahalli","booth":96,"booth_name":"A D A A Office Office New New Building ( South Wing) Harapanahalli"},"geometry":{"type":"Point","coordinates":[75.99035,14.7925863]}},{"type":"Feature","properties":{"state":"Karnataka","district":14,"district_n":"DAVANGERE","pc":13,"pc_name":"Davanagere","ac":104,"ac_name":"Harapanahalli","booth":104,"booth_name":"Municipal Office Office (main Hall) Harapanahalli"},"geometry":{"type":"Point","coordinates":[75.98599,14.7867985]}},{"type":"Feature","properties":{"state":"Karnataka","district":14,"district_n":"DAVANGERE","pc":13,"pc_name":"Davanagere","ac":104,"ac_name":"Harapanahalli","booth":105,"booth_name":"Govt Model Higher Primary School Main Harapanahalli"},"geometry":{"type":"Point","coordinates":[75.9883652,14.7892113]}},{"type":"Feature","properties":{"state":"Karnataka","district":14,"district_n":"DAVANGERE","pc":13,"pc_name":"Davanagere","ac":104,"ac_name":"Harapanahalli","booth":111,"booth_name":"Govt P U College College (drawing Room ) ) Harapanahalli"},"geometry":{"type":"Point","coordinates":[75.98605,14.7894936]}},{"type":"Feature","properties":{"state":"Karnataka","district":14,"district_n":"DAVANGERE","pc":13,"pc_name":"Davanagere","ac":104,"ac_name":"Harapanahalli","booth":119,"booth_name":"Govt Higher Primary Primary Urdu School School School School R C C Building Building Banageri Banageri Harapanahalli"},"geometry":{"type":"Point","coordinates":[75.9889755,14.7890739]}},{"type":"Feature","properties":{"state":"Karnataka","district":14,"district_n":"DAVANGERE","pc":13,"pc_name":"Davanagere","ac":104,"ac_name":"Harapanahalli","booth":122,"booth_name":"Govt Higher Primary School School (south Wing) Valmiki Valmiki Nagara Nagara Harapanahalli"},"geometry":{"type":"Point","coordinates":[75.993454,14.77938]}},{"type":"Feature","properties":{"state":"Karnataka","district":14,"district_n":"DAVANGERE","pc":13,"pc_name":"Davanagere","ac":104,"ac_name":"Harapanahalli","booth":124,"booth_name":"Govt Higher Primary School School (east (east Wing) Wing) Valmiki Valmiki Nagara Nagara Harapanahalli"},"geometry":{"type":"Point","coordinates":[75.99504,14.7793255]}},{"type":"Feature","properties":{"state":"Karnataka","district":14,"district_n":"DAVANGERE","pc":13,"pc_name":"Davanagere","ac":104,"ac_name":"Harapanahalli","booth":133,"booth_name":"Grama Panchayathi Office Office Mattihalli"},"geometry":{"type":"Point","coordinates":[76.14352,14.7529869]}},{"type":"Feature","properties":{"state":"Karnataka","district":14,"district_n":"DAVANGERE","pc":13,"pc_name":"Davanagere","ac":104,"ac_name":"Harapanahalli","booth":136,"booth_name":"Govt Higher Primary School Niluvale"},"geometry":{"type":"Point","coordinates":[76.1043,14.7874889]}},{"type":"Feature","properties":{"state":"Karnataka","district":14,"district_n":"DAVANGERE","pc":13,"pc_name":"Davanagere","ac":104,"ac_name":"Harapanahalli","booth":139,"booth_name":"Govt Higher Primary School Tippanayakanahalli"},"geometry":{"type":"Point","coordinates":[76.06432,14.753211]}},{"type":"Feature","properties":{"state":"Karnataka","district":14,"district_n":"DAVANGERE","pc":13,"pc_name":"Davanagere","ac":104,"ac_name":"Harapanahalli","booth":150,"booth_name":"Govt Model Higher Primary School ( Right Wing ) Neelagunda"},"geometry":{"type":"Point","coordinates":[75.8982544,14.7350235]}},{"type":"Feature","properties":{"state":"Karnataka","district":14,"district_n":"DAVANGERE","pc":13,"pc_name":"Davanagere","ac":104,"ac_name":"Harapanahalli","booth":211,"booth_name":"Govt Model Higher Primary School School (left Wing) Wing) Duggavathi"},"geometry":{"type":"Point","coordinates":[75.859314,14.6197968]}},{"type":"Feature","properties":{"state":"Karnataka","district":14,"district_n":"DAVANGERE","pc":13,"pc_name":"Davanagere","ac":104,"ac_name":"Harapanahalli","booth":216,"booth_name":"Govt Lower Primary School School Bikkikatti"},"geometry":{"type":"Point","coordinates":[75.92355,14.6444149]}},{"type":"Feature","properties":{"state":"Karnataka","district":14,"district_n":"DAVANGERE","pc":13,"pc_name":"Davanagere","ac":104,"ac_name":"Harapanahalli","booth":219,"booth_name":"Govt Higher Primary School School Bendigeri"},"geometry":{"type":"Point","coordinates":[75.95658,14.6502523]}},{"type":"Feature","properties":{"state":"Karnataka","district":14,"district_n":"DAVANGERE","pc":13,"pc_name":"Davanagere","ac":104,"ac_name":"Harapanahalli","booth":225,"booth_name":"Govt Higher Primary School School Hallikeri"},"geometry":{"type":"Point","coordinates":[75.95169,14.6030989]}},{"type":"Feature","properties":{"state":"Karnataka","district":14,"district_n":"DAVANGERE","pc":13,"pc_name":"Davanagere","ac":104,"ac_name":"Harapanahalli","booth":228,"booth_name":"Govt Lower Primary School School Vaderahalli"},"geometry":{"type":"Point","coordinates":[75.93339,14.6294823]}},{"type":"Feature","properties":{"state":"Karnataka","district":14,"district_n":"DAVANGERE","pc":13,"pc_name":"Davanagere","ac":104,"ac_name":"Harapanahalli","booth":231,"booth_name":"Govt Higher Primary School School (north Wing) Ragimasalawada"},"geometry":{"type":"Point","coordinates":[75.90818,14.60609]}},{"type":"Feature","properties":{"state":"Karnataka","district":14,"district_n":"DAVANGERE","pc":13,"pc_name":"Davanagere","ac":104,"ac_name":"Harapanahalli","booth":234,"booth_name":"Govt Higher Primary School School (right wing) wing) Shingrihalli"},"geometry":{"type":"Point","coordinates":[75.9275,14.5800648]}},{"type":"Feature","properties":{"state":"Karnataka","district":14,"district_n":"DAVANGERE","pc":13,"pc_name":"Davanagere","ac":104,"ac_name":"Harapanahalli","booth":237,"booth_name":"Govt Higher Primary School ( Room No 1) Hiremegalageri"},"geometry":{"type":"Point","coordinates":[75.97696,14.5431376]}},{"type":"Feature","properties":{"state":"Karnataka","district":14,"district_n":"DAVANGERE","pc":13,"pc_name":"Davanagere","ac":104,"ac_name":"Harapanahalli","booth":248,"booth_name":"Govt Higher Primary School ( Left Wing) Wing) Satthuru"},"geometry":{"type":"Point","coordinates":[75.96149,14.5793333]}},{"type":"Feature","properties":{"state":"Karnataka","district":14,"district_n":"DAVANGERE","pc":13,"pc_name":"Davanagere","ac":104,"ac_name":"Harapanahalli","booth":5,"booth_name":"Govt Higher Primary School(south Wing) Harakanahalu"},"geometry":{"type":"Point","coordinates":[75.8193359,14.8549547]}},{"type":"Feature","properties":{"state":"Karnataka","district":14,"district_n":"DAVANGERE","pc":13,"pc_name":"Davanagere","ac":104,"ac_name":"Harapanahalli","booth":212,"booth_name":"Govt Higher Primary School School Ingalagundi"},"geometry":{"type":"Point","coordinates":[75.87975,14.631134]}},{"type":"Feature","properties":{"state":"Karnataka","district":14,"district_n":"DAVANGERE","pc":13,"pc_name":"Davanagere","ac":104,"ac_name":"Harapanahalli","booth":184,"booth_name":"Govt Model Higher Primary School School Hagarishiranahalli"},"geometry":{"type":"Point","coordinates":[76.14935,14.7452526]}},{"type":"Feature","properties":{"state":"Karnataka","district":14,"district_n":"DAVANGERE","pc":13,"pc_name":"Davanagere","ac":104,"ac_name":"Harapanahalli","booth":155,"booth_name":"Govt Higher Primary School (right Wing) Nitturu"},"geometry":{"type":"Point","coordinates":[75.78632,14.6843452]}},{"type":"Feature","properties":{"state":"Karnataka","district":14,"district_n":"DAVANGERE","pc":13,"pc_name":"Davanagere","ac":104,"ac_name":"Harapanahalli","booth":158,"booth_name":"Govt Higher Primary School School Tavaragundi"},"geometry":{"type":"Point","coordinates":[75.74909,14.6998758]}},{"type":"Feature","properties":{"state":"Karnataka","district":14,"district_n":"DAVANGERE","pc":13,"pc_name":"Davanagere","ac":104,"ac_name":"Harapanahalli","booth":181,"booth_name":"Govt Model Higher Primary School School (left (left Wing) Wing) Sasivihalli"},"geometry":{"type":"Point","coordinates":[76.12505,14.7325859]}},{"type":"Feature","properties":{"state":"Karnataka","district":14,"district_n":"DAVANGERE","pc":13,"pc_name":"Davanagere","ac":104,"ac_name":"Harapanahalli","booth":218,"booth_name":"Govt Lower Primary School School Rangapura"},"geometry":{"type":"Point","coordinates":[75.95227,14.6747646]}},{"type":"Feature","properties":{"state":"Karnataka","district":14,"district_n":"DAVANGERE","pc":13,"pc_name":"Davanagere","ac":104,"ac_name":"Harapanahalli","booth":244,"booth_name":"Govt Lower Primary School School Vaddinabasapura"},"geometry":{"type":"Point","coordinates":[75.95471,14.5379114]}},{"type":"Feature","properties":{"state":"Karnataka","district":14,"district_n":"DAVANGERE","pc":13,"pc_name":"Davanagere","ac":104,"ac_name":"Harapanahalli","booth":115,"booth_name":"Govt Girls Girls High School School School New Building Building (north Wing )harapanahalli"},"geometry":{"type":"Point","coordinates":[75.98478,14.784009]}},{"type":"Feature","properties":{"state":"Karnataka","district":14,"district_n":"DAVANGERE","pc":13,"pc_name":"Davanagere","ac":104,"ac_name":"Harapanahalli","booth":4,"booth_name":"Govt Higher Primary School Harakanahalu Dodda Thanda"},"geometry":{"type":"Point","coordinates":[75.82774,14.8483906]}},{"type":"Feature","properties":{"state":"Karnataka","district":14,"district_n":"DAVANGERE","pc":13,"pc_name":"Davanagere","ac":104,"ac_name":"Harapanahalli","booth":5,"booth_name":"Govt Higher Primary School Harakanahalu"},"geometry":{"type":"Point","coordinates":[75.84505,14.8463783]}},{"type":"Feature","properties":{"state":"Karnataka","district":14,"district_n":"DAVANGERE","pc":13,"pc_name":"Davanagere","ac":104,"ac_name":"Harapanahalli","booth":193,"booth_name":"Govt Lower Primary School School Joshilingapura"},"geometry":{"type":"Point","coordinates":[76.07865,14.6647015]}},{"type":"Feature","properties":{"state":"Karnataka","district":14,"district_n":"DAVANGERE","pc":13,"pc_name":"Davanagere","ac":104,"ac_name":"Harapanahalli","booth":222,"booth_name":"Govt Model Higher Primary School School ( East Wing) Kanchikeri"},"geometry":{"type":"Point","coordinates":[75.97859,14.6159506]}},{"type":"Feature","properties":{"state":"Karnataka","district":14,"district_n":"DAVANGERE","pc":13,"pc_name":"Davanagere","ac":104,"ac_name":"Harapanahalli","booth":10,"booth_name":"Govt Lower Primary School School Madlageri Thanda"},"geometry":{"type":"Point","coordinates":[75.91027,14.8670807]}},{"type":"Feature","properties":{"state":"Karnataka","district":14,"district_n":"DAVANGERE","pc":13,"pc_name":"Davanagere","ac":104,"ac_name":"Harapanahalli","booth":13,"booth_name":"Govt Higher Primary School School Kulahalli"},"geometry":{"type":"Point","coordinates":[75.97167,14.8548431]}},{"type":"Feature","properties":{"state":"Karnataka","district":14,"district_n":"DAVANGERE","pc":13,"pc_name":"Davanagere","ac":104,"ac_name":"Harapanahalli","booth":230,"booth_name":"Govt Higher Primary School School (south Wing) Ragimasalawada"},"geometry":{"type":"Point","coordinates":[75.9083,14.60669]}},{"type":"Feature","properties":{"state":"Karnataka","district":14,"district_n":"DAVANGERE","pc":13,"pc_name":"Davanagere","ac":104,"ac_name":"Harapanahalli","booth":233,"booth_name":"Govt Higher Primary School School (left Wing) Shingrihalli"},"geometry":{"type":"Point","coordinates":[75.82747,14.5801334]}},{"type":"Feature","properties":{"state":"Karnataka","district":14,"district_n":"DAVANGERE","pc":13,"pc_name":"Davanagere","ac":104,"ac_name":"Harapanahalli","booth":12,"booth_name":"Govt Lower Primary School School Kanahalli"},"geometry":{"type":"Point","coordinates":[75.95329,14.8912611]}},{"type":"Feature","properties":{"state":"Karnataka","district":14,"district_n":"DAVANGERE","pc":13,"pc_name":"Davanagere","ac":104,"ac_name":"Harapanahalli","booth":162,"booth_name":"Govt Higher Primary School School Kadathi"},"geometry":{"type":"Point","coordinates":[75.80965,14.6608906]}},{"type":"Feature","properties":{"state":"Karnataka","district":14,"district_n":"DAVANGERE","pc":13,"pc_name":"Davanagere","ac":104,"ac_name":"Harapanahalli","booth":165,"booth_name":"Govt Lower Primary School School Kandikeri Kandikeri Thada"},"geometry":{"type":"Point","coordinates":[75.89051,14.6569881]}},{"type":"Feature","properties":{"state":"Karnataka","district":14,"district_n":"DAVANGERE","pc":13,"pc_name":"Davanagere","ac":104,"ac_name":"Harapanahalli","booth":167,"booth_name":"Govt Lower Primary School School G Dadapur"},"geometry":{"type":"Point","coordinates":[75.8908844,14.66553]}},{"type":"Feature","properties":{"state":"Karnataka","district":14,"district_n":"DAVANGERE","pc":13,"pc_name":"Davanagere","ac":104,"ac_name":"Harapanahalli","booth":168,"booth_name":"Govt Higher Primary School School Chirastahalli"},"geometry":{"type":"Point","coordinates":[75.91476,14.6962185]}},{"type":"Feature","properties":{"state":"Karnataka","district":14,"district_n":"DAVANGERE","pc":13,"pc_name":"Davanagere","ac":104,"ac_name":"Harapanahalli","booth":170,"booth_name":"Govt Higher Primary School School (right (right Wing) Wing) Gundagatti"},"geometry":{"type":"Point","coordinates":[75.93975,14.6871452]}},{"type":"Feature","properties":{"state":"Karnataka","district":14,"district_n":"DAVANGERE","pc":13,"pc_name":"Davanagere","ac":104,"ac_name":"Harapanahalli","booth":176,"booth_name":"Govt Higher Primary School School Komaranahalli"},"geometry":{"type":"Point","coordinates":[75.99844,14.7817688]}},{"type":"Feature","properties":{"state":"Karnataka","district":14,"district_n":"DAVANGERE","pc":13,"pc_name":"Davanagere","ac":104,"ac_name":"Harapanahalli","booth":185,"booth_name":"Govt Higher Primary School School Nagarakonda"},"geometry":{"type":"Point","coordinates":[76.17192,14.7219238]}},{"type":"Feature","properties":{"state":"Karnataka","district":14,"district_n":"DAVANGERE","pc":13,"pc_name":"Davanagere","ac":104,"ac_name":"Harapanahalli","booth":191,"booth_name":"Govt Lower Primary School School Kasavanahalli"},"geometry":{"type":"Point","coordinates":[76.14881,14.7453957]}},{"type":"Feature","properties":{"state":"Karnataka","district":14,"district_n":"DAVANGERE","pc":13,"pc_name":"Davanagere","ac":104,"ac_name":"Harapanahalli","booth":98,"booth_name":"Govt Model Higher Primary School School School (room No 2) 2) Megalapete, Harapanahalli"},"geometry":{"type":"Point","coordinates":[75.99148,14.7857084]}},{"type":"Feature","properties":{"state":"Karnataka","district":14,"district_n":"DAVANGERE","pc":13,"pc_name":"Davanagere","ac":104,"ac_name":"Harapanahalli","booth":250,"booth_name":"Govt Higher Primary School School (right Wing) Wing) Satthuru"},"geometry":{"type":"Point","coordinates":[75.96145,14.5793333]}},{"type":"Feature","properties":{"state":"Karnataka","district":14,"district_n":"DAVANGERE","pc":13,"pc_name":"Davanagere","ac":104,"ac_name":"Harapanahalli","booth":238,"booth_name":"Govt Higher Primary School (room No No 2) Hiremegalageri"},"geometry":{"type":"Point","coordinates":[75.97709,14.5428352]}},{"type":"Feature","properties":{"state":"Karnataka","district":14,"district_n":"DAVANGERE","pc":13,"pc_name":"Davanagere","ac":104,"ac_name":"Harapanahalli","booth":240,"booth_name":"Gram Panchayath Office Office Hiremegalageri"},"geometry":{"type":"Point","coordinates":[75.97755,14.5462]}},{"type":"Feature","properties":{"state":"Karnataka","district":14,"district_n":"DAVANGERE","pc":13,"pc_name":"Davanagere","ac":104,"ac_name":"Harapanahalli","booth":89,"booth_name":"Govt Higher Primary School School School New Building Building Upparageri Harapanahalli"},"geometry":{"type":"Point","coordinates":[75.98114,14.7037077]}},{"type":"Feature","properties":{"state":"Karnataka","district":14,"district_n":"DAVANGERE","pc":13,"pc_name":"Davanagere","ac":104,"ac_name":"Harapanahalli","booth":109,"booth_name":"Govt Model Higher Primary School School (room (room No 4 ) Megalapete Harapanahalli"},"geometry":{"type":"Point","coordinates":[75.99173,14.785615]}},{"type":"Feature","properties":{"state":"Karnataka","district":14,"district_n":"DAVANGERE","pc":13,"pc_name":"Davanagere","ac":104,"ac_name":"Harapanahalli","booth":118,"booth_name":"Govt Higher Primary School School Gundinakeri Gundinakeri Gundinakeri Harapanahalli"},"geometry":{"type":"Point","coordinates":[75.98965,14.783083]}},{"type":"Feature","properties":{"state":"Karnataka","district":14,"district_n":"DAVANGERE","pc":13,"pc_name":"Davanagere","ac":104,"ac_name":"Harapanahalli","booth":129,"booth_name":"Govt Lower Primary School School Kadakola"},"geometry":{"type":"Point","coordinates":[76.11811,14.797411]}},{"type":"Feature","properties":{"state":"Karnataka","district":14,"district_n":"DAVANGERE","pc":13,"pc_name":"Davanagere","ac":104,"ac_name":"Harapanahalli","booth":201,"booth_name":"Govt Higher Primary School West Wing Yadihalli"},"geometry":{"type":"Point","coordinates":[75.91397,14.6638336]}},{"type":"Feature","properties":{"state":"Karnataka","district":14,"district_n":"DAVANGERE","pc":13,"pc_name":"Davanagere","ac":104,"ac_name":"Harapanahalli","booth":198,"booth_name":"Govt Lower Primary School Vaderabasapura"},"geometry":{"type":"Point","coordinates":[76.02813,14.4225588]}},{"type":"Feature","properties":{"state":"Karnataka","district":14,"district_n":"DAVANGERE","pc":13,"pc_name":"Davanagere","ac":104,"ac_name":"Harapanahalli","booth":178,"booth_name":"Govt Higher Primary School Room No 2 Hunasihalli"},"geometry":{"type":"Point","coordinates":[76.10396,14.72786]}},{"type":"Feature","properties":{"state":"Karnataka","district":14,"district_n":"DAVANGERE","pc":13,"pc_name":"Davanagere","ac":104,"ac_name":"Harapanahalli","booth":132,"booth_name":"C R C Building Mattihalli"},"geometry":{"type":"Point","coordinates":[76.14371,14.7563133]}},{"type":"Feature","properties":{"state":"Karnataka","district":14,"district_n":"DAVANGERE","pc":13,"pc_name":"Davanagere","ac":104,"ac_name":"Harapanahalli","booth":112,"booth_name":"Govt P U College College R C C New Building Harapanahalli"},"geometry":{"type":"Point","coordinates":[75.98603,14.7894926]}},{"type":"Feature","properties":{"state":"Karnataka","district":14,"district_n":"DAVANGERE","pc":13,"pc_name":"Davanagere","ac":104,"ac_name":"Harapanahalli","booth":61,"booth_name":"Govt Higher Primary School School (left Wing) Wing) Arasanalu"},"geometry":{"type":"Point","coordinates":[75.82917,14.7495918]}},{"type":"Feature","properties":{"state":"Karnataka","district":14,"district_n":"DAVANGERE","pc":13,"pc_name":"Davanagere","ac":104,"ac_name":"Harapanahalli","booth":70,"booth_name":"Govt Pre University College College (right Wing) Wing) Halavaglu"},"geometry":{"type":"Point","coordinates":[75.78153,14.71092]}},{"type":"Feature","properties":{"state":"Karnataka","district":14,"district_n":"DAVANGERE","pc":13,"pc_name":"Davanagere","ac":104,"ac_name":"Harapanahalli","booth":73,"booth_name":"Govt Higher Primary School ( Left Wing ) Halavagalu"},"geometry":{"type":"Point","coordinates":[75.7738342,14.70986]}},{"type":"Feature","properties":{"state":"Karnataka","district":14,"district_n":"DAVANGERE","pc":13,"pc_name":"Davanagere","ac":104,"ac_name":"Harapanahalli","booth":91,"booth_name":"Govt Higher Primary School School (left Wing) Wing) Kurubarageri Harapanahalli"},"geometry":{"type":"Point","coordinates":[75.98447,14.7945175]}},{"type":"Feature","properties":{"state":"Karnataka","district":14,"district_n":"DAVANGERE","pc":13,"pc_name":"Davanagere","ac":104,"ac_name":"Harapanahalli","booth":93,"booth_name":"Taluk Panchayath Office( Right Wing) Wing) Harapanahalli"},"geometry":{"type":"Point","coordinates":[75.99029,14.7929325]}},{"type":"Feature","properties":{"state":"Karnataka","district":14,"district_n":"DAVANGERE","pc":13,"pc_name":"Davanagere","ac":104,"ac_name":"Harapanahalli","booth":99,"booth_name":"A D A A Office Office New Building ( North Wing ) Harapanahalli"},"geometry":{"type":"Point","coordinates":[75.99035,14.7925892]}},{"type":"Feature","properties":{"state":"Karnataka","district":14,"district_n":"DAVANGERE","pc":13,"pc_name":"Davanagere","ac":104,"ac_name":"Harapanahalli","booth":35,"booth_name":"Govt Lower Primary School Madapura"},"geometry":{"type":"Point","coordinates":[75.95023,14.8136711]}},{"type":"Feature","properties":{"state":"Karnataka","district":14,"district_n":"DAVANGERE","pc":13,"pc_name":"Davanagere","ac":104,"ac_name":"Harapanahalli","booth":49,"booth_name":"Govt Higher Primary School School Gowripura"},"geometry":{"type":"Point","coordinates":[76.156044,14.8346291]}},{"type":"Feature","properties":{"state":"Karnataka","district":14,"district_n":"DAVANGERE","pc":13,"pc_name":"Davanagere","ac":104,"ac_name":"Harapanahalli","booth":38,"booth_name":"Govt Model Higher Primary School School School New Building Building (south Wing) Wing) Bagali"},"geometry":{"type":"Point","coordinates":[75.98049,14.8441725]}},{"type":"Feature","properties":{"state":"Karnataka","district":14,"district_n":"DAVANGERE","pc":13,"pc_name":"Davanagere","ac":104,"ac_name":"Harapanahalli","booth":236,"booth_name":"Govt Higher Primary School School Pothalakatti"},"geometry":{"type":"Point","coordinates":[76.00283,14.53777]}},{"type":"Feature","properties":{"state":"Karnataka","district":14,"district_n":"DAVANGERE","pc":13,"pc_name":"Davanagere","ac":104,"ac_name":"Harapanahalli","booth":187,"booth_name":"Govt Higher Primary School, Kunimadihalli"},"geometry":{"type":"Point","coordinates":[76.149826,14.7338181]}},{"type":"Feature","properties":{"state":"Karnataka","district":14,"district_n":"DAVANGERE","pc":13,"pc_name":"Davanagere","ac":104,"ac_name":"Harapanahalli","booth":182,"booth_name":"Govt Higher Primary School, Aladahalli"},"geometry":{"type":"Point","coordinates":[76.12505,14.7325859]}},{"type":"Feature","properties":{"state":"Karnataka","district":14,"district_n":"DAVANGERE","pc":13,"pc_name":"Davanagere","ac":104,"ac_name":"Harapanahalli","booth":174,"booth_name":"Govt Lower Primary School, Kambatrahalli"},"geometry":{"type":"Point","coordinates":[75.95716,14.7006874]}},{"type":"Feature","properties":{"state":"Karnataka","district":14,"district_n":"DAVANGERE","pc":13,"pc_name":"Davanagere","ac":104,"ac_name":"Harapanahalli","booth":151,"booth_name":"Govt Higher Primary School, Shivapura"},"geometry":{"type":"Point","coordinates":[75.8982544,14.7350235]}},{"type":"Feature","properties":{"state":"Karnataka","district":14,"district_n":"DAVANGERE","pc":13,"pc_name":"Davanagere","ac":104,"ac_name":"Harapanahalli","booth":113,"booth_name":"Govt Girls High School, Old Building, Room No 7, Harapanahalli"},"geometry":{"type":"Point","coordinates":[75.98603,14.7894926]}},{"type":"Feature","properties":{"state":"Karnataka","district":14,"district_n":"DAVANGERE","pc":13,"pc_name":"Davanagere","ac":104,"ac_name":"Harapanahalli","booth":56,"booth_name":"Govt Lower Primary School, Myasarahatti Chigateri"},"geometry":{"type":"Point","coordinates":[76.0903244,14.82136]}},{"type":"Feature","properties":{"state":"Karnataka","district":14,"district_n":"DAVANGERE","pc":13,"pc_name":"Davanagere","ac":104,"ac_name":"Harapanahalli","booth":50,"booth_name":"Govt Lower Primary School, Baliganuru"},"geometry":{"type":"Point","coordinates":[76.156044,14.8344679]}},{"type":"Feature","properties":{"state":"Karnataka","district":14,"district_n":"DAVANGERE","pc":13,"pc_name":"Davanagere","ac":104,"ac_name":"Harapanahalli","booth":153,"booth_name":"Govt Lower Primary School, Yarabalu"},"geometry":{"type":"Point","coordinates":[75.8982544,14.7350235]}},{"type":"Feature","properties":{"state":"Karnataka","district":14,"district_n":"DAVANGERE","pc":13,"pc_name":"Davanagere","ac":104,"ac_name":"Harapanahalli","booth":135,"booth_name":"Govt lower Primary School, Loleshwara"},"geometry":{"type":"Point","coordinates":[76.1440659,14.7564268]}},{"type":"Feature","properties":{"state":"Karnataka","district":14,"district_n":"DAVANGERE","pc":13,"pc_name":"Davanagere","ac":104,"ac_name":"Harapanahalli","booth":138,"booth_name":"Govt Lower Primary School School Haleobalapur"},"geometry":{"type":"Point","coordinates":[76.06315,14.7579718]}},{"type":"Feature","properties":{"state":"Karnataka","district":14,"district_n":"DAVANGERE","pc":13,"pc_name":"Davanagere","ac":104,"ac_name":"Harapanahalli","booth":141,"booth_name":"Govt Higher Primary School Devarathimalapura"},"geometry":{"type":"Point","coordinates":[76.018074,14.7782364]}},{"type":"Feature","properties":{"state":"Karnataka","district":14,"district_n":"DAVANGERE","pc":13,"pc_name":"Davanagere","ac":104,"ac_name":"Harapanahalli","booth":18,"booth_name":"Govt Higher Primary School School (left Wing) Kanavihalli"},"geometry":{"type":"Point","coordinates":[76.01614,14.875042]}},{"type":"Feature","properties":{"state":"Karnataka","district":14,"district_n":"DAVANGERE","pc":13,"pc_name":"Davanagere","ac":104,"ac_name":"Harapanahalli","booth":32,"booth_name":"Govt Higher Primary School School (right Wing) Wing) Hulikatte"},"geometry":{"type":"Point","coordinates":[75.88123,14.81385]}},{"type":"Feature","properties":{"state":"Karnataka","district":14,"district_n":"DAVANGERE","pc":13,"pc_name":"Davanagere","ac":104,"ac_name":"Harapanahalli","booth":55,"booth_name":"Naradamuni Naradamuni High High School School (west (west wing) wing) Chigateri"},"geometry":{"type":"Point","coordinates":[76.0903244,14.82136]}},{"type":"Feature","properties":{"state":"Karnataka","district":14,"district_n":"DAVANGERE","pc":13,"pc_name":"Davanagere","ac":104,"ac_name":"Harapanahalli","booth":69,"booth_name":"Grama Panchayathi Office Office Halavagalu"},"geometry":{"type":"Point","coordinates":[75.77389,14.70993]}},{"type":"Feature","properties":{"state":"Karnataka","district":14,"district_n":"DAVANGERE","pc":13,"pc_name":"Davanagere","ac":104,"ac_name":"Harapanahalli","booth":78,"booth_name":"Govt Lower Primary School School Kunchuru Kere Thanda"},"geometry":{"type":"Point","coordinates":[75.84479,14.7213507]}},{"type":"Feature","properties":{"state":"Karnataka","district":14,"district_n":"DAVANGERE","pc":13,"pc_name":"Davanagere","ac":104,"ac_name":"Harapanahalli","booth":161,"booth_name":"Govt Higher Primary School School Nandyala"},"geometry":{"type":"Point","coordinates":[75.8045044,14.6765108]}},{"type":"Feature","properties":{"state":"Karnataka","district":14,"district_n":"DAVANGERE","pc":13,"pc_name":"Davanagere","ac":104,"ac_name":"Harapanahalli","booth":164,"booth_name":"Govt Higher Primary School School Vatlahalli"},"geometry":{"type":"Point","coordinates":[75.82733,14.6527367]}},{"type":"Feature","properties":{"state":"Karnataka","district":14,"district_n":"DAVANGERE","pc":13,"pc_name":"Davanagere","ac":104,"ac_name":"Harapanahalli","booth":52,"booth_name":"Govt Model Higher Primary School School (east Wing) Room No 2 Chigateri"},"geometry":{"type":"Point","coordinates":[76.08782,14.8139229]}},{"type":"Feature","properties":{"state":"Karnataka","district":14,"district_n":"DAVANGERE","pc":13,"pc_name":"Davanagere","ac":104,"ac_name":"Harapanahalli","booth":160,"booth_name":"Govt Higher Primary School School Nitturu Nitturu Basapur"},"geometry":{"type":"Point","coordinates":[75.75885,14.68029]}},{"type":"Feature","properties":{"state":"Karnataka","district":14,"district_n":"DAVANGERE","pc":13,"pc_name":"Davanagere","ac":104,"ac_name":"Harapanahalli","booth":217,"booth_name":"Govt Higher Primary School School Sevanagara"},"geometry":{"type":"Point","coordinates":[75.94704,14.6485853]}},{"type":"Feature","properties":{"state":"Karnataka","district":14,"district_n":"DAVANGERE","pc":13,"pc_name":"Davanagere","ac":104,"ac_name":"Harapanahalli","booth":243,"booth_name":"Govt Lower Primary School School School Vaddinahalli"},"geometry":{"type":"Point","coordinates":[75.86368,14.5243845]}},{"type":"Feature","properties":{"state":"Karnataka","district":14,"district_n":"DAVANGERE","pc":13,"pc_name":"Davanagere","ac":104,"ac_name":"Harapanahalli","booth":246,"booth_name":"Govt Lower Primary School School Jambulinganahalli"},"geometry":{"type":"Point","coordinates":[75.946846,14.5607214]}},{"type":"Feature","properties":{"state":"Karnataka","district":14,"district_n":"DAVANGERE","pc":13,"pc_name":"Davanagere","ac":104,"ac_name":"Harapanahalli","booth":114,"booth_name":"Govt Girls Girls High School School Harapanahalli"},"geometry":{"type":"Point","coordinates":[75.98478,14.7843924]}},{"type":"Feature","properties":{"state":"Karnataka","district":14,"district_n":"DAVANGERE","pc":13,"pc_name":"Davanagere","ac":104,"ac_name":"Harapanahalli","booth":226,"booth_name":"Govt Higher Primary School South Wing Hallikeri"},"geometry":{"type":"Point","coordinates":[75.95161,14.6029921]}},{"type":"Feature","properties":{"state":"Karnataka","district":14,"district_n":"DAVANGERE","pc":13,"pc_name":"Davanagere","ac":104,"ac_name":"Harapanahalli","booth":189,"booth_name":"Govt Higher Primary School Room No 2 Kadabageri"},"geometry":{"type":"Point","coordinates":[76.05262,14.42919]}},{"type":"Feature","properties":{"state":"Karnataka","district":14,"district_n":"DAVANGERE","pc":13,"pc_name":"Davanagere","ac":104,"ac_name":"Harapanahalli","booth":169,"booth_name":"Govt Higher Primary School Room No 2 Chirastahalli"},"geometry":{"type":"Point","coordinates":[75.90398,14.6969738]}},{"type":"Feature","properties":{"state":"Karnataka","district":14,"district_n":"DAVANGERE","pc":13,"pc_name":"Davanagere","ac":104,"ac_name":"Harapanahalli","booth":171,"booth_name":"Govt Higher Primary School ( Left Wing) Gundagatti"},"geometry":{"type":"Point","coordinates":[75.93955,14.6871262]}},{"type":"Feature","properties":{"state":"Karnataka","district":14,"district_n":"DAVANGERE","pc":13,"pc_name":"Davanagere","ac":104,"ac_name":"Harapanahalli","booth":205,"booth_name":"Gram Panchayath Office Teligi"},"geometry":{"type":"Point","coordinates":[75.89048,14.6532764]}},{"type":"Feature","properties":{"state":"Karnataka","district":14,"district_n":"DAVANGERE","pc":13,"pc_name":"Davanagere","ac":104,"ac_name":"Harapanahalli","booth":207,"booth_name":"Govt Model Higher Primary School School Teligi"},"geometry":{"type":"Point","coordinates":[75.8915558,14.6515923]}},{"type":"Feature","properties":{"state":"Karnataka","district":14,"district_n":"DAVANGERE","pc":13,"pc_name":"Davanagere","ac":104,"ac_name":"Harapanahalli","booth":208,"booth_name":"Gram Panchayath Office Office Duggavathi"},"geometry":{"type":"Point","coordinates":[75.85707,14.6177435]}},{"type":"Feature","properties":{"state":"Karnataka","district":14,"district_n":"DAVANGERE","pc":13,"pc_name":"Davanagere","ac":104,"ac_name":"Harapanahalli","booth":204,"booth_name":"Govt Lower Primary School Teligi Thimmalapur"},"geometry":{"type":"Point","coordinates":[75.89663,14.661191]}},{"type":"Feature","properties":{"state":"Karnataka","district":14,"district_n":"DAVANGERE","pc":13,"pc_name":"Davanagere","ac":104,"ac_name":"Harapanahalli","booth":172,"booth_name":"Govt Higher Primary School School Talavagalu"},"geometry":{"type":"Point","coordinates":[75.95716,14.7006874]}},{"type":"Feature","properties":{"state":"Karnataka","district":14,"district_n":"DAVANGERE","pc":13,"pc_name":"Davanagere","ac":104,"ac_name":"Harapanahalli","booth":3,"booth_name":"Govt Lower Primary School Harakanahalu Sanna Thanda"},"geometry":{"type":"Point","coordinates":[75.8193359,14.8549547]}},{"type":"Feature","properties":{"state":"Karnataka","district":14,"district_n":"DAVANGERE","pc":13,"pc_name":"Davanagere","ac":104,"ac_name":"Harapanahalli","booth":175,"booth_name":"Govt Lower Primary School School Dyapanayakanahlli"},"geometry":{"type":"Point","coordinates":[76.13385,14.7992554]}},{"type":"Feature","properties":{"state":"Karnataka","district":14,"district_n":"DAVANGERE","pc":13,"pc_name":"Davanagere","ac":104,"ac_name":"Harapanahalli","booth":26,"booth_name":"Govt Higher Primary School Togarikagovt Higher Primary School School Alamarasikerette"},"geometry":{"type":"Point","coordinates":[75.91827,14.8441525]}},{"type":"Feature","properties":{"state":"Karnataka","district":14,"district_n":"DAVANGERE","pc":13,"pc_name":"Davanagere","ac":104,"ac_name":"Harapanahalli","booth":29,"booth_name":"Govt Higher Primary School School Goverahalli"},"geometry":{"type":"Point","coordinates":[75.9332657,14.8192739]}},{"type":"Feature","properties":{"state":"Karnataka","district":14,"district_n":"DAVANGERE","pc":13,"pc_name":"Davanagere","ac":104,"ac_name":"Harapanahalli","booth":77,"booth_name":"Govt Higher Primary School School (south Wing) Wing) Kunchuru"},"geometry":{"type":"Point","coordinates":[75.8210449,14.7322721]}},{"type":"Feature","properties":{"state":"Karnataka","district":14,"district_n":"DAVANGERE","pc":13,"pc_name":"Davanagere","ac":104,"ac_name":"Harapanahalli","booth":106,"booth_name":"Govt Model Higher Primary School Main New Building Harapanahalli"},"geometry":{"type":"Point","coordinates":[75.98844,14.7893076]}},{"type":"Feature","properties":{"state":"Karnataka","district":14,"district_n":"DAVANGERE","pc":13,"pc_name":"Davanagere","ac":104,"ac_name":"Harapanahalli","booth":120,"booth_name":"Horticulture Horticulture Horticulture Office Office Harapanahalli"},"geometry":{"type":"Point","coordinates":[75.9856,14.7834883]}},{"type":"Feature","properties":{"state":"Karnataka","district":14,"district_n":"DAVANGERE","pc":13,"pc_name":"Davanagere","ac":104,"ac_name":"Harapanahalli","booth":134,"booth_name":"Govt Model Higher Primary School School Mattihalli"},"geometry":{"type":"Point","coordinates":[76.1440659,14.7564268]}},{"type":"Feature","properties":{"state":"Karnataka","district":14,"district_n":"DAVANGERE","pc":13,"pc_name":"Davanagere","ac":104,"ac_name":"Harapanahalli","booth":23,"booth_name":"Govt Higher Primary School School Konganahosuru"},"geometry":{"type":"Point","coordinates":[76.06673,14.9073668]}},{"type":"Feature","properties":{"state":"Karnataka","district":14,"district_n":"DAVANGERE","pc":13,"pc_name":"Davanagere","ac":104,"ac_name":"Harapanahalli","booth":31,"booth_name":"Govt Higher Primary School School (left Wing) Wing) Hulikatte"},"geometry":{"type":"Point","coordinates":[75.88123,14.8137894]}},{"type":"Feature","properties":{"state":"Karnataka","district":14,"district_n":"DAVANGERE","pc":13,"pc_name":"Davanagere","ac":104,"ac_name":"Harapanahalli","booth":163,"booth_name":"Govt Higher Primary School Room No 2 Kadathi"},"geometry":{"type":"Point","coordinates":[75.8097458,14.660841]}},{"type":"Feature","properties":{"state":"Karnataka","district":14,"district_n":"DAVANGERE","pc":13,"pc_name":"Davanagere","ac":104,"ac_name":"Harapanahalli","booth":126,"booth_name":"Govt Higher Primary School Room No 2 Hombalagatti"},"geometry":{"type":"Point","coordinates":[76.03257,14.7891569]}},{"type":"Feature","properties":{"state":"Karnataka","district":14,"district_n":"DAVANGERE","pc":13,"pc_name":"Davanagere","ac":104,"ac_name":"Harapanahalli","booth":117,"booth_name":"Govt High School for Girls North Wing New Building Building Harapanahalli"},"geometry":{"type":"Point","coordinates":[75.9845657,14.78402]}},{"type":"Feature","properties":{"state":"Karnataka","district":14,"district_n":"DAVANGERE","pc":13,"pc_name":"Davanagere","ac":104,"ac_name":"Harapanahalli","booth":74,"booth_name":"Govt Higher Primary School (east Wing ) Room No 2 Halavagalu"},"geometry":{"type":"Point","coordinates":[75.78183,14.7103167]}},{"type":"Feature","properties":{"state":"Karnataka","district":14,"district_n":"DAVANGERE","pc":13,"pc_name":"Davanagere","ac":104,"ac_name":"Harapanahalli","booth":43,"booth_name":"Govt Higher Primary School School New Building Building (north Wing) Room No2 Myduru"},"geometry":{"type":"Point","coordinates":[76.11034,14.8457823]}},{"type":"Feature","properties":{"state":"Karnataka","district":14,"district_n":"DAVANGERE","pc":13,"pc_name":"Davanagere","ac":104,"ac_name":"Harapanahalli","booth":37,"booth_name":"Govt Lower Primary School Chikkahalli"},"geometry":{"type":"Point","coordinates":[75.9639,14.8407307]}},{"type":"Feature","properties":{"state":"Karnataka","district":14,"district_n":"DAVANGERE","pc":13,"pc_name":"Davanagere","ac":104,"ac_name":"Harapanahalli","booth":34,"booth_name":"Govt Higher Primary School Room No 2 Bapujinagara"},"geometry":{"type":"Point","coordinates":[75.90463,14.7964983]}},{"type":"Feature","properties":{"state":"Karnataka","district":14,"district_n":"DAVANGERE","pc":13,"pc_name":"Davanagere","ac":104,"ac_name":"Harapanahalli","booth":14,"booth_name":"Govt Higher Primary School School Room No 2 Kulahalli"},"geometry":{"type":"Point","coordinates":[75.9716644,14.854867]}},{"type":"Feature","properties":{"state":"Karnataka","district":14,"district_n":"DAVANGERE","pc":13,"pc_name":"Davanagere","ac":104,"ac_name":"Harapanahalli","booth":94,"booth_name":"Taluk Panchayath Office Office (account Section) Harapanahalli"},"geometry":{"type":"Point","coordinates":[75.98992,14.793047]}},{"type":"Feature","properties":{"state":"Karnataka","district":14,"district_n":"DAVANGERE","pc":13,"pc_name":"Davanagere","ac":104,"ac_name":"Harapanahalli","booth":183,"booth_name":"Govt Higher Primary School School Neerilladashiranahalli"},"geometry":{"type":"Point","coordinates":[76.1934052,14.7486448]}},{"type":"Feature","properties":{"state":"Karnataka","district":14,"district_n":"DAVANGERE","pc":13,"pc_name":"Davanagere","ac":104,"ac_name":"Harapanahalli","booth":143,"booth_name":"Govt Lower Primary School School Machihalli Machihalli Koracharahatti"},"geometry":{"type":"Point","coordinates":[75.9247055,14.7212048]}},{"type":"Feature","properties":{"state":"Karnataka","district":14,"district_n":"DAVANGERE","pc":13,"pc_name":"Davanagere","ac":104,"ac_name":"Harapanahalli","booth":146,"booth_name":"Govt Higher Primary School School Thaledahalli"},"geometry":{"type":"Point","coordinates":[75.93128,14.7070608]}},{"type":"Feature","properties":{"state":"Karnataka","district":14,"district_n":"DAVANGERE","pc":13,"pc_name":"Davanagere","ac":104,"ac_name":"Harapanahalli","booth":57,"booth_name":"Govt Higher Primary School School Shrungara Thota"},"geometry":{"type":"Point","coordinates":[75.99322,14.8074465]}},{"type":"Feature","properties":{"state":"Karnataka","district":14,"district_n":"DAVANGERE","pc":13,"pc_name":"Davanagere","ac":104,"ac_name":"Harapanahalli","booth":94,"booth_name":"Taluk Panchayath Office Office (left Wing) Harapanahalli"},"geometry":{"type":"Point","coordinates":[75.98992,14.793047]}},{"type":"Feature","properties":{"state":"Karnataka","district":14,"district_n":"DAVANGERE","pc":13,"pc_name":"Davanagere","ac":104,"ac_name":"Harapanahalli","booth":97,"booth_name":"Govt Model Higher Primary School ( Room No1) Megalapete, Harapanahalli"},"geometry":{"type":"Point","coordinates":[75.9965,14.7857285]}},{"type":"Feature","properties":{"state":"Karnataka","district":14,"district_n":"DAVANGERE","pc":13,"pc_name":"Davanagere","ac":104,"ac_name":"Harapanahalli","booth":137,"booth_name":"Govt Higher Primary School School Muttigi"},"geometry":{"type":"Point","coordinates":[76.07345,14.7655478]}},{"type":"Feature","properties":{"state":"Karnataka","district":14,"district_n":"DAVANGERE","pc":13,"pc_name":"Davanagere","ac":104,"ac_name":"Harapanahalli","booth":140,"booth_name":"Govt Lower Primary School School Adavihalli"},"geometry":{"type":"Point","coordinates":[76.018074,14.7782364]}},{"type":"Feature","properties":{"state":"Karnataka","district":14,"district_n":"DAVANGERE","pc":13,"pc_name":"Davanagere","ac":104,"ac_name":"Harapanahalli","booth":149,"booth_name":"Govt Model Higher Primary School School (south Wing) Wing) Neelagunda"},"geometry":{"type":"Point","coordinates":[75.8982544,14.7350082]}},{"type":"Feature","properties":{"state":"Karnataka","district":14,"district_n":"DAVANGERE","pc":13,"pc_name":"Davanagere","ac":104,"ac_name":"Harapanahalli","booth":186,"booth_name":"Govt Higher Primary School School Hagarigudihalli"},"geometry":{"type":"Point","coordinates":[76.149826,14.7338181]}},{"type":"Feature","properties":{"state":"Karnataka","district":14,"district_n":"DAVANGERE","pc":13,"pc_name":"Davanagere","ac":104,"ac_name":"Harapanahalli","booth":40,"booth_name":"Govt Model Higher Primary School School Bagali"},"geometry":{"type":"Point","coordinates":[75.9806,14.8441982]}},{"type":"Feature","properties":{"state":"Karnataka","district":14,"district_n":"DAVANGERE","pc":13,"pc_name":"Davanagere","ac":104,"ac_name":"Harapanahalli","booth":20,"booth_name":"Govt Model Higher Primary School School (south Wing) Wing) Nandibevuru"},"geometry":{"type":"Point","coordinates":[76.0521545,14.9064779]}},{"type":"Feature","properties":{"state":"Karnataka","district":14,"district_n":"DAVANGERE","pc":13,"pc_name":"Davanagere","ac":104,"ac_name":"Harapanahalli","booth":46,"booth_name":"Govt Lower Primary School School Kesarahalli"},"geometry":{"type":"Point","coordinates":[76.1394348,14.8213682]}},{"type":"Feature","properties":{"state":"Karnataka","district":14,"district_n":"DAVANGERE","pc":13,"pc_name":"Davanagere","ac":104,"ac_name":"Harapanahalli","booth":72,"booth_name":"Govt Higher Primary School School (right Wing) Wing) Halavagalu"},"geometry":{"type":"Point","coordinates":[75.77379,14.7098427]}},{"type":"Feature","properties":{"state":"Karnataka","district":14,"district_n":"DAVANGERE","pc":13,"pc_name":"Davanagere","ac":104,"ac_name":"Harapanahalli","booth":81,"booth_name":"Govt Higher Primary School School School (east Wing ) ) K Kallahalli"},"geometry":{"type":"Point","coordinates":[75.86253,14.7638206]}},{"type":"Feature","properties":{"state":"Karnataka","district":14,"district_n":"DAVANGERE","pc":13,"pc_name":"Davanagere","ac":104,"ac_name":"Harapanahalli","booth":75,"booth_name":"Govt Model Higher Primary School School (north Wing) Wing) Kunchuru"},"geometry":{"type":"Point","coordinates":[75.8209839,14.7321672]}},{"type":"Feature","properties":{"state":"Karnataka","district":14,"district_n":"DAVANGERE","pc":13,"pc_name":"Davanagere","ac":104,"ac_name":"Harapanahalli","booth":89,"booth_name":"Govt Higher Primary School School School (south Wing) Wing) Upparageri Harapanahalli"},"geometry":{"type":"Point","coordinates":[75.98098,14.7934713]}},{"type":"Feature","properties":{"state":"Karnataka","district":14,"district_n":"DAVANGERE","pc":13,"pc_name":"Davanagere","ac":104,"ac_name":"Harapanahalli","booth":92,"booth_name":"Govt Higher Primary School School (right Wing) Wing) Kurubageri Harapanahalli"},"geometry":{"type":"Point","coordinates":[75.9845,14.7947474]}},{"type":"Feature","properties":{"state":"Karnataka","district":14,"district_n":"DAVANGERE","pc":13,"pc_name":"Davanagere","ac":104,"ac_name":"Harapanahalli","booth":101,"booth_name":"Govt Model Higher Primary School School Girls (left Wing) Harapanahalli"},"geometry":{"type":"Point","coordinates":[75.9856644,14.7884083]}},{"type":"Feature","properties":{"state":"Karnataka","district":14,"district_n":"DAVANGERE","pc":13,"pc_name":"Davanagere","ac":104,"ac_name":"Harapanahalli","booth":80,"booth_name":"Govt Higher Primary School School Ittigudi"},"geometry":{"type":"Point","coordinates":[75.85215,14.7304544]}},{"type":"Feature","properties":{"state":"Karnataka","district":14,"district_n":"DAVANGERE","pc":13,"pc_name":"Davanagere","ac":104,"ac_name":"Harapanahalli","booth":7,"booth_name":"Govt Lower Primary School Kannayakanahalli"},"geometry":{"type":"Point","coordinates":[75.86688,14.838]}},{"type":"Feature","properties":{"state":"Karnataka","district":14,"district_n":"DAVANGERE","pc":13,"pc_name":"Davanagere","ac":104,"ac_name":"Harapanahalli","booth":8,"booth_name":"Govt Lower Primary School Karekanahalli"},"geometry":{"type":"Point","coordinates":[75.87818,14.85796]}},{"type":"Feature","properties":{"state":"Karnataka","district":14,"district_n":"DAVANGERE","pc":13,"pc_name":"Davanagere","ac":104,"ac_name":"Harapanahalli","booth":16,"booth_name":"Govt Lower Primary School School Bandri Thanda"},"geometry":{"type":"Point","coordinates":[75.9464,14.8642454]}},{"type":"Feature","properties":{"state":"Karnataka","district":14,"district_n":"DAVANGERE","pc":13,"pc_name":"Davanagere","ac":104,"ac_name":"Harapanahalli","booth":9,"booth_name":"Govt Higher Primary School School Madlageri"},"geometry":{"type":"Point","coordinates":[75.91687,14.8738708]}},{"type":"Feature","properties":{"state":"Karnataka","district":14,"district_n":"DAVANGERE","pc":13,"pc_name":"Davanagere","ac":104,"ac_name":"Harapanahalli","booth":17,"booth_name":"Govt Higher Primary School School (right Wing) Kanavihalli"},"geometry":{"type":"Point","coordinates":[76.01612,14.8749437]}},{"type":"Feature","properties":{"state":"Karnataka","district":14,"district_n":"DAVANGERE","pc":13,"pc_name":"Davanagere","ac":104,"ac_name":"Harapanahalli","booth":100,"booth_name":"Govt Model Higher Primary School School Girls (right Wing) Harapanahalli"},"geometry":{"type":"Point","coordinates":[75.9857941,14.7884874]}},{"type":"Feature","properties":{"state":"Karnataka","district":14,"district_n":"DAVANGERE","pc":13,"pc_name":"Davanagere","ac":104,"ac_name":"Harapanahalli","booth":103,"booth_name":"Govt P U College College (main Hall) Harapanahalli"},"geometry":{"type":"Point","coordinates":[75.9862061,14.7886992]}},{"type":"Feature","properties":{"state":"Karnataka","district":14,"district_n":"DAVANGERE","pc":13,"pc_name":"Davanagere","ac":104,"ac_name":"Harapanahalli","booth":51,"booth_name":"Govt Model Higher Primary School School (east Wing) Wing) Chigateri"},"geometry":{"type":"Point","coordinates":[76.08783,14.8139277]}},{"type":"Feature","properties":{"state":"Karnataka","district":14,"district_n":"DAVANGERE","pc":13,"pc_name":"Davanagere","ac":104,"ac_name":"Harapanahalli","booth":54,"booth_name":"Naradamuni Naradamuni High High School School (east Wing ) Chigateri"},"geometry":{"type":"Point","coordinates":[76.0903244,14.8212957]}},{"type":"Feature","properties":{"state":"Karnataka","district":14,"district_n":"DAVANGERE","pc":13,"pc_name":"Davanagere","ac":104,"ac_name":"Harapanahalli","booth":197,"booth_name":"Govt Lower Primary School School Adavimallapura"},"geometry":{"type":"Point","coordinates":[76.01795,14.40725]}},{"type":"Feature","properties":{"state":"Karnataka","district":14,"district_n":"DAVANGERE","pc":13,"pc_name":"Davanagere","ac":104,"ac_name":"Harapanahalli","booth":223,"booth_name":"Govt Lower Primary School, West wing, Kanchikeri"},"geometry":{"type":"Point","coordinates":[75.97859,14.6159506]}},{"type":"Feature","properties":{"state":"Karnataka","district":14,"district_n":"DAVANGERE","pc":13,"pc_name":"Davanagere","ac":104,"ac_name":"Harapanahalli","booth":177,"booth_name":"Govt Higher Primary School,hunasihalli"},"geometry":{"type":"Point","coordinates":[75.99844,14.7817688]}},{"type":"Feature","properties":{"state":"Karnataka","district":14,"district_n":"DAVANGERE","pc":13,"pc_name":"Davanagere","ac":104,"ac_name":"Harapanahalli","booth":166,"booth_name":"Govt Higher Primary School, Alagilawada"},"geometry":{"type":"Point","coordinates":[75.89051,14.6569881]}},{"type":"Feature","properties":{"state":"Karnataka","district":14,"district_n":"DAVANGERE","pc":13,"pc_name":"Davanagere","ac":104,"ac_name":"Harapanahalli","booth":60,"booth_name":"Govt Higher Primary School, Left Wing, Arasanalu"},"geometry":{"type":"Point","coordinates":[75.95466,14.8019238]}},{"type":"Feature","properties":{"state":"Karnataka","district":14,"district_n":"DAVANGERE","pc":13,"pc_name":"Davanagere","ac":104,"ac_name":"Harapanahalli","booth":202,"booth_name":"Govt Higher Primary School School (east (east Wing Govt Composite High School ( North Wing) Teligi) Hikkimgeri"},"geometry":{"type":"Point","coordinates":[75.89045,14.6570177]}},{"type":"Feature","properties":{"state":"Karnataka","district":14,"district_n":"DAVANGERE","pc":13,"pc_name":"Davanagere","ac":104,"ac_name":"Harapanahalli","booth":209,"booth_name":"Govt Model Higher Primary School School (right Wing) Wing) Duggavathi"},"geometry":{"type":"Point","coordinates":[75.860405,14.6193361]}},{"type":"Feature","properties":{"state":"Karnataka","district":14,"district_n":"DAVANGERE","pc":13,"pc_name":"Davanagere","ac":104,"ac_name":"Harapanahalli","booth":203,"booth_name":"Govt Composite High School (south Wing )teligi"},"geometry":{"type":"Point","coordinates":[75.89019,14.6569166]}},{"type":"Feature","properties":{"state":"Karnataka","district":14,"district_n":"DAVANGERE","pc":13,"pc_name":"Davanagere","ac":104,"ac_name":"Harapanahalli","booth":221,"booth_name":"Govt Model Higher Primary School School (north Wing) Wing) Kanchikere"},"geometry":{"type":"Point","coordinates":[75.9785,14.6159954]}},{"type":"Feature","properties":{"state":"Karnataka","district":14,"district_n":"DAVANGERE","pc":13,"pc_name":"Davanagere","ac":104,"ac_name":"Harapanahalli","booth":15,"booth_name":"Govt Higher Primary School School Bandri"},"geometry":{"type":"Point","coordinates":[75.95709,14.8605309]}},{"type":"Feature","properties":{"state":"Karnataka","district":14,"district_n":"DAVANGERE","pc":13,"pc_name":"Davanagere","ac":104,"ac_name":"Harapanahalli","booth":192,"booth_name":"Govt Higher Primary School School (east (east Wing ) Hikkimgeri"},"geometry":{"type":"Point","coordinates":[76.04463,14.6571407]}},{"type":"Feature","properties":{"state":"Karnataka","district":14,"district_n":"DAVANGERE","pc":13,"pc_name":"Davanagere","ac":104,"ac_name":"Harapanahalli","booth":11,"booth_name":"Govt Lower Primary School Vaddinadadapur"},"geometry":{"type":"Point","coordinates":[75.93725,14.8674765]}},{"type":"Feature","properties":{"state":"Karnataka","district":14,"district_n":"DAVANGERE","pc":13,"pc_name":"Davanagere","ac":104,"ac_name":"Harapanahalli","booth":194,"booth_name":"Govt Lower Primary School School Pavanapura"},"geometry":{"type":"Point","coordinates":[76.03519,14.41502]}},{"type":"Feature","properties":{"state":"Karnataka","district":14,"district_n":"DAVANGERE","pc":13,"pc_name":"Davanagere","ac":104,"ac_name":"Harapanahalli","booth":199,"booth_name":"Govt Higher Primary School (room No 1) Nichhavvanahalli"},"geometry":{"type":"Point","coordinates":[76.0614548,14.674551]}},{"type":"Feature","properties":{"state":"Karnataka","district":14,"district_n":"DAVANGERE","pc":13,"pc_name":"Davanagere","ac":104,"ac_name":"Harapanahalli","booth":224,"booth_name":"Govt Lower Primary School School (east Wing) Kanchikeri"},"geometry":{"type":"Point","coordinates":[75.97598,14.612648]}},{"type":"Feature","properties":{"state":"Karnataka","district":14,"district_n":"DAVANGERE","pc":13,"pc_name":"Davanagere","ac":104,"ac_name":"Harapanahalli","booth":215,"booth_name":"Govt Lower Primary School School Shankaranahalli"},"geometry":{"type":"Point","coordinates":[75.8883057,14.599843]}},{"type":"Feature","properties":{"state":"Karnataka","district":14,"district_n":"DAVANGERE","pc":13,"pc_name":"Davanagere","ac":104,"ac_name":"Harapanahalli","booth":227,"booth_name":"Govt Lower Primary School Honnenahalli"},"geometry":{"type":"Point","coordinates":[75.92817,14.6092939]}},{"type":"Feature","properties":{"state":"Karnataka","district":14,"district_n":"DAVANGERE","pc":13,"pc_name":"Davanagere","ac":104,"ac_name":"Harapanahalli","booth":235,"booth_name":"Govt Lower Primary School School Shingrihalli Dodda Thanda"},"geometry":{"type":"Point","coordinates":[75.9336,14.5624027]}},{"type":"Feature","properties":{"state":"Karnataka","district":14,"district_n":"DAVANGERE","pc":13,"pc_name":"Davanagere","ac":104,"ac_name":"Harapanahalli","booth":241,"booth_name":"Govt Higher Primary School School Chikkamegalageri"},"geometry":{"type":"Point","coordinates":[75.99249,14.53163]}},{"type":"Feature","properties":{"state":"Karnataka","district":14,"district_n":"DAVANGERE","pc":13,"pc_name":"Davanagere","ac":104,"ac_name":"Harapanahalli","booth":195,"booth_name":"Govt Lower Primary School Hariyammanahalli"},"geometry":{"type":"Point","coordinates":[76.07827,14.6919613]}},{"type":"Feature","properties":{"state":"Karnataka","district":14,"district_n":"DAVANGERE","pc":13,"pc_name":"Davanagere","ac":104,"ac_name":"Harapanahalli","booth":200,"booth_name":"Govt Higher Primary School School Yadihalli"},"geometry":{"type":"Point","coordinates":[75.91377,14.66387]}},{"type":"Feature","properties":{"state":"Karnataka","district":14,"district_n":"DAVANGERE","pc":13,"pc_name":"Davanagere","ac":104,"ac_name":"Harapanahalli","booth":220,"booth_name":"Govt Higher Primary School School Alaganchikeri"},"geometry":{"type":"Point","coordinates":[75.94014,14.6616726]}},{"type":"Feature","properties":{"state":"Karnataka","district":14,"district_n":"DAVANGERE","pc":13,"pc_name":"Davanagere","ac":104,"ac_name":"Harapanahalli","booth":229,"booth_name":"Govt Lower Primary School School Animegalathanda"},"geometry":{"type":"Point","coordinates":[75.91363,14.6271114]}},{"type":"Feature","properties":{"state":"Karnataka","district":14,"district_n":"DAVANGERE","pc":13,"pc_name":"Davanagere","ac":104,"ac_name":"Harapanahalli","booth":249,"booth_name":"Govt Lower Primary School School Choudapura"},"geometry":{"type":"Point","coordinates":[75.97063,14.5753641]}}]}