{"type":"FeatureCollection","features":[{"type":"Feature","properties":{"state":"Karnataka","district":14,"district_n":"DAVANGERE","pc":13,"pc_name":"Davanagere","ac":105,"ac_name":"Harihar","booth":5,"booth_name":"Govt Lower Primary School Hottigenahalli"},"geometry":{"type":"Point","coordinates":[75.86254,14.6112995]}},{"type":"Feature","properties":{"state":"Karnataka","district":14,"district_n":"DAVANGERE","pc":13,"pc_name":"Davanagere","ac":105,"ac_name":"Harihar","booth":6,"booth_name":"Govt Higher Primary School Pamenahalli"},"geometry":{"type":"Point","coordinates":[75.8162842,14.5936394]}},{"type":"Feature","properties":{"state":"Karnataka","district":14,"district_n":"DAVANGERE","pc":13,"pc_name":"Davanagere","ac":105,"ac_name":"Harihar","booth":8,"booth_name":"Govt Urdu Higher Primary School Karalahalli"},"geometry":{"type":"Point","coordinates":[75.8394,14.58934]}},{"type":"Feature","properties":{"state":"Karnataka","district":14,"district_n":"DAVANGERE","pc":13,"pc_name":"Davanagere","ac":105,"ac_name":"Harihar","booth":9,"booth_name":"Govt Higher Primary School Room No 1 Deeturu"},"geometry":{"type":"Point","coordinates":[75.8238144,14.5769472]}},{"type":"Feature","properties":{"state":"Karnataka","district":14,"district_n":"DAVANGERE","pc":13,"pc_name":"Davanagere","ac":105,"ac_name":"Harihar","booth":14,"booth_name":"Govt Model Higher Primary School Room No 1 Kondajji"},"geometry":{"type":"Point","coordinates":[75.8712845,14.5692768]}},{"type":"Feature","properties":{"state":"Karnataka","district":14,"district_n":"DAVANGERE","pc":13,"pc_name":"Davanagere","ac":105,"ac_name":"Harihar","booth":17,"booth_name":"Govt Higher Primary School Room No 2 Ganganarasi"},"geometry":{"type":"Point","coordinates":[75.84016,14.5569925]}},{"type":"Feature","properties":{"state":"Karnataka","district":14,"district_n":"DAVANGERE","pc":13,"pc_name":"Davanagere","ac":105,"ac_name":"Harihar","booth":20,"booth_name":"Govt High School Room No 1 Gutturu"},"geometry":{"type":"Point","coordinates":[75.8111038,14.5411739]}},{"type":"Feature","properties":{"state":"Karnataka","district":14,"district_n":"DAVANGERE","pc":13,"pc_name":"Davanagere","ac":105,"ac_name":"Harihar","booth":23,"booth_name":"Govt Higher Primary School Room No 1 Harlapura"},"geometry":{"type":"Point","coordinates":[75.81057,14.5350962]}},{"type":"Feature","properties":{"state":"Karnataka","district":14,"district_n":"DAVANGERE","pc":13,"pc_name":"Davanagere","ac":105,"ac_name":"Harihar","booth":28,"booth_name":"Mariya Nivasa Primary School Room No 1 Harihara"},"geometry":{"type":"Point","coordinates":[75.8107758,14.5116091]}},{"type":"Feature","properties":{"state":"Karnataka","district":14,"district_n":"DAVANGERE","pc":13,"pc_name":"Davanagere","ac":105,"ac_name":"Harihar","booth":31,"booth_name":"Govt Higher Primary Urdu Girls School Room No 1 1 Kumbara oni Harahara"},"geometry":{"type":"Point","coordinates":[75.80558,14.5110607]}},{"type":"Feature","properties":{"state":"Karnataka","district":14,"district_n":"DAVANGERE","pc":13,"pc_name":"Davanagere","ac":105,"ac_name":"Harihar","booth":32,"booth_name":"Govt Higher Primary Urdu Urdu Girls School Room No 2 Kumbara Oni Harihara"},"geometry":{"type":"Point","coordinates":[75.80553,14.5110388]}},{"type":"Feature","properties":{"state":"Karnataka","district":14,"district_n":"DAVANGERE","pc":13,"pc_name":"Davanagere","ac":105,"ac_name":"Harihar","booth":43,"booth_name":"Govt Higher Primary Urdu School Gandi Midana East Wing Harihara"},"geometry":{"type":"Point","coordinates":[75.808815,14.5144224]}},{"type":"Feature","properties":{"state":"Karnataka","district":14,"district_n":"DAVANGERE","pc":13,"pc_name":"Davanagere","ac":105,"ac_name":"Harihar","booth":49,"booth_name":"Govt Higher Boys Boys Primary School Gandhi Maidana East Wing Harihara"},"geometry":{"type":"Point","coordinates":[75.80865,14.51437]}},{"type":"Feature","properties":{"state":"Karnataka","district":14,"district_n":"DAVANGERE","pc":13,"pc_name":"Davanagere","ac":105,"ac_name":"Harihar","booth":57,"booth_name":"Taluk Panchayathi Office Harihara"},"geometry":{"type":"Point","coordinates":[75.8081,14.5204468]}},{"type":"Feature","properties":{"state":"Karnataka","district":14,"district_n":"DAVANGERE","pc":13,"pc_name":"Davanagere","ac":105,"ac_name":"Harihar","booth":63,"booth_name":"Govt Higher Primary School Vinobanagara Room No 2 Harihara"},"geometry":{"type":"Point","coordinates":[75.8082047,14.5203848]}},{"type":"Feature","properties":{"state":"Karnataka","district":14,"district_n":"DAVANGERE","pc":13,"pc_name":"Davanagere","ac":105,"ac_name":"Harihar","booth":69,"booth_name":"Mysore Kirloskar High School Room No 4 Harihara"},"geometry":{"type":"Point","coordinates":[75.8077545,14.5163326]}},{"type":"Feature","properties":{"state":"Karnataka","district":14,"district_n":"DAVANGERE","pc":13,"pc_name":"Davanagere","ac":105,"ac_name":"Harihar","booth":71,"booth_name":"Giriyamma R Kanthappa Shetty Women's Women's College Hs Exten Harihara"},"geometry":{"type":"Point","coordinates":[75.80891,14.5090361]}},{"type":"Feature","properties":{"state":"Karnataka","district":14,"district_n":"DAVANGERE","pc":13,"pc_name":"Davanagere","ac":105,"ac_name":"Harihar","booth":72,"booth_name":"Public Lybrary Dr Dr B R Ambedkar Yuvaka Sangha H S Exten Harihara"},"geometry":{"type":"Point","coordinates":[75.8101044,14.5087852]}},{"type":"Feature","properties":{"state":"Karnataka","district":14,"district_n":"DAVANGERE","pc":13,"pc_name":"Davanagere","ac":105,"ac_name":"Harihar","booth":77,"booth_name":"Govt Higher Primary School Highschool Exten New Building Harihara"},"geometry":{"type":"Point","coordinates":[75.80999,14.50927]}},{"type":"Feature","properties":{"state":"Karnataka","district":14,"district_n":"DAVANGERE","pc":13,"pc_name":"Davanagere","ac":105,"ac_name":"Harihar","booth":89,"booth_name":"Mrb High School Room No 2 Sjvp Compound Harihara"},"geometry":{"type":"Point","coordinates":[75.81578,14.5065575]}},{"type":"Feature","properties":{"state":"Karnataka","district":14,"district_n":"DAVANGERE","pc":13,"pc_name":"Davanagere","ac":105,"ac_name":"Harihar","booth":100,"booth_name":"Govt Higher Primary School Room No 1 South Wing Hanagavadi"},"geometry":{"type":"Point","coordinates":[75.78889,14.4788437]}},{"type":"Feature","properties":{"state":"Karnataka","district":14,"district_n":"DAVANGERE","pc":13,"pc_name":"Davanagere","ac":105,"ac_name":"Harihar","booth":103,"booth_name":"Govt Higher Primary School Haraganahalli"},"geometry":{"type":"Point","coordinates":[75.7632141,14.5086222]}},{"type":"Feature","properties":{"state":"Karnataka","district":14,"district_n":"DAVANGERE","pc":13,"pc_name":"Davanagere","ac":105,"ac_name":"Harihar","booth":106,"booth_name":"Govt Higher Primary School Room No 2 Rajanahalli"},"geometry":{"type":"Point","coordinates":[75.7499542,14.5021009]}},{"type":"Feature","properties":{"state":"Karnataka","district":14,"district_n":"DAVANGERE","pc":13,"pc_name":"Davanagere","ac":105,"ac_name":"Harihar","booth":108,"booth_name":"Govt Higher Primary School Bilasanuru"},"geometry":{"type":"Point","coordinates":[75.73497,14.4842167]}},{"type":"Feature","properties":{"state":"Karnataka","district":14,"district_n":"DAVANGERE","pc":13,"pc_name":"Davanagere","ac":105,"ac_name":"Harihar","booth":111,"booth_name":"Govt Higher Primary School Shamshipura"},"geometry":{"type":"Point","coordinates":[75.81238,14.4625463]}},{"type":"Feature","properties":{"state":"Karnataka","district":14,"district_n":"DAVANGERE","pc":13,"pc_name":"Davanagere","ac":105,"ac_name":"Harihar","booth":117,"booth_name":"Grama Panchayathi Office Belludi"},"geometry":{"type":"Point","coordinates":[75.78508,14.4596643]}},{"type":"Feature","properties":{"state":"Karnataka","district":14,"district_n":"DAVANGERE","pc":13,"pc_name":"Davanagere","ac":105,"ac_name":"Harihar","booth":120,"booth_name":"Govt Higher Primary School Hosahalli"},"geometry":{"type":"Point","coordinates":[75.72159,14.4701338]}},{"type":"Feature","properties":{"state":"Karnataka","district":14,"district_n":"DAVANGERE","pc":13,"pc_name":"Davanagere","ac":105,"ac_name":"Harihar","booth":123,"booth_name":"Govt Higher Primary School Huluginahole"},"geometry":{"type":"Point","coordinates":[75.70766,14.4655733]}},{"type":"Feature","properties":{"state":"Karnataka","district":14,"district_n":"DAVANGERE","pc":13,"pc_name":"Davanagere","ac":105,"ac_name":"Harihar","booth":129,"booth_name":"Govt Pu College Room No 1 Banuvalli"},"geometry":{"type":"Point","coordinates":[75.7587051,14.43821]}},{"type":"Feature","properties":{"state":"Karnataka","district":14,"district_n":"DAVANGERE","pc":13,"pc_name":"Davanagere","ac":105,"ac_name":"Harihar","booth":134,"booth_name":"Govt Higher Primary School Byaladahalli"},"geometry":{"type":"Point","coordinates":[75.80981,14.4415407]}},{"type":"Feature","properties":{"state":"Karnataka","district":14,"district_n":"DAVANGERE","pc":13,"pc_name":"Davanagere","ac":105,"ac_name":"Harihar","booth":135,"booth_name":"Govt Higher Primary School Room No 1 New Building Bannikodu"},"geometry":{"type":"Point","coordinates":[75.80988,14.4414473]}},{"type":"Feature","properties":{"state":"Karnataka","district":14,"district_n":"DAVANGERE","pc":13,"pc_name":"Davanagere","ac":105,"ac_name":"Harihar","booth":137,"booth_name":"Govt Higher Primary School Room No 3 New Building Bannikodu"},"geometry":{"type":"Point","coordinates":[75.82072,14.437]}},{"type":"Feature","properties":{"state":"Karnataka","district":14,"district_n":"DAVANGERE","pc":13,"pc_name":"Davanagere","ac":105,"ac_name":"Harihar","booth":138,"booth_name":"Govt Higher Primary School K K Bevinahalli"},"geometry":{"type":"Point","coordinates":[75.822525,14.4332943]}},{"type":"Feature","properties":{"state":"Karnataka","district":14,"district_n":"DAVANGERE","pc":13,"pc_name":"Davanagere","ac":105,"ac_name":"Harihar","booth":143,"booth_name":"Govt Higher Primary School Exten Sirigere"},"geometry":{"type":"Point","coordinates":[75.7037659,14.4464321]}},{"type":"Feature","properties":{"state":"Karnataka","district":14,"district_n":"DAVANGERE","pc":13,"pc_name":"Davanagere","ac":105,"ac_name":"Harihar","booth":149,"booth_name":"Govt Higher Primary School Room No 1 East Wing Ukkadagathri"},"geometry":{"type":"Point","coordinates":[75.64452,14.443141]}},{"type":"Feature","properties":{"state":"Karnataka","district":14,"district_n":"DAVANGERE","pc":13,"pc_name":"Davanagere","ac":105,"ac_name":"Harihar","booth":154,"booth_name":"Govt Higher Primary School North Wing Kadaranaikanahalli"},"geometry":{"type":"Point","coordinates":[75.68758,14.4203281]}},{"type":"Feature","properties":{"state":"Karnataka","district":14,"district_n":"DAVANGERE","pc":13,"pc_name":"Davanagere","ac":105,"ac_name":"Harihar","booth":157,"booth_name":"Govt Higher Primary School North Wing Yalavatti"},"geometry":{"type":"Point","coordinates":[75.72806,14.40517]}},{"type":"Feature","properties":{"state":"Karnataka","district":14,"district_n":"DAVANGERE","pc":13,"pc_name":"Davanagere","ac":105,"ac_name":"Harihar","booth":158,"booth_name":"Govt Higher Primary School South Wing Yalavatti"},"geometry":{"type":"Point","coordinates":[75.72808,14.40527]}},{"type":"Feature","properties":{"state":"Karnataka","district":14,"district_n":"DAVANGERE","pc":13,"pc_name":"Davanagere","ac":105,"ac_name":"Harihar","booth":160,"booth_name":"Govt Higher Primary School East Wing Nandithavare"},"geometry":{"type":"Point","coordinates":[75.7814941,14.4090872]}},{"type":"Feature","properties":{"state":"Karnataka","district":14,"district_n":"DAVANGERE","pc":13,"pc_name":"Davanagere","ac":105,"ac_name":"Harihar","booth":163,"booth_name":"Govt Higher Primary School Kadlegondi"},"geometry":{"type":"Point","coordinates":[75.8221359,14.4100008]}},{"type":"Feature","properties":{"state":"Karnataka","district":14,"district_n":"DAVANGERE","pc":13,"pc_name":"Davanagere","ac":105,"ac_name":"Harihar","booth":166,"booth_name":"Govt Higher Primary School Mitlakatte"},"geometry":{"type":"Point","coordinates":[75.87413,14.423151]}},{"type":"Feature","properties":{"state":"Karnataka","district":14,"district_n":"DAVANGERE","pc":13,"pc_name":"Davanagere","ac":105,"ac_name":"Harihar","booth":169,"booth_name":"Govt Higher Primary School Room No 1 South Wing Kunibelekere"},"geometry":{"type":"Point","coordinates":[75.80843,14.3996544]}},{"type":"Feature","properties":{"state":"Karnataka","district":14,"district_n":"DAVANGERE","pc":13,"pc_name":"Davanagere","ac":105,"ac_name":"Harihar","booth":171,"booth_name":"Govt Higher Primary School Room No 2 North Wing Kunibelekere"},"geometry":{"type":"Point","coordinates":[75.80941,14.3993874]}},{"type":"Feature","properties":{"state":"Karnataka","district":14,"district_n":"DAVANGERE","pc":13,"pc_name":"Davanagere","ac":105,"ac_name":"Harihar","booth":172,"booth_name":"Grama Panchayathi Office Kunibelekere"},"geometry":{"type":"Point","coordinates":[75.8074951,14.3993244]}},{"type":"Feature","properties":{"state":"Karnataka","district":14,"district_n":"DAVANGERE","pc":13,"pc_name":"Davanagere","ac":105,"ac_name":"Harihar","booth":174,"booth_name":"Govt Higher Primary School North Wing Kumbaluru"},"geometry":{"type":"Point","coordinates":[75.7512741,14.3762369]}},{"type":"Feature","properties":{"state":"Karnataka","district":14,"district_n":"DAVANGERE","pc":13,"pc_name":"Davanagere","ac":105,"ac_name":"Harihar","booth":178,"booth_name":"Govt Higher Primary School East Wing Jigali"},"geometry":{"type":"Point","coordinates":[75.73665,14.386837]}},{"type":"Feature","properties":{"state":"Karnataka","district":14,"district_n":"DAVANGERE","pc":13,"pc_name":"Davanagere","ac":105,"ac_name":"Harihar","booth":180,"booth_name":"Grama Panchayathi Office Jigali"},"geometry":{"type":"Point","coordinates":[75.7373,14.3875036]}},{"type":"Feature","properties":{"state":"Karnataka","district":14,"district_n":"DAVANGERE","pc":13,"pc_name":"Davanagere","ac":105,"ac_name":"Harihar","booth":186,"booth_name":"Govt Higher Primary School Room No 3 East Wing Kokkanuru"},"geometry":{"type":"Point","coordinates":[75.68262,14.3876772]}},{"type":"Feature","properties":{"state":"Karnataka","district":14,"district_n":"DAVANGERE","pc":13,"pc_name":"Davanagere","ac":105,"ac_name":"Harihar","booth":189,"booth_name":"Govt Higher Primary School Nandigudi"},"geometry":{"type":"Point","coordinates":[75.6441345,14.4135036]}},{"type":"Feature","properties":{"state":"Karnataka","district":14,"district_n":"DAVANGERE","pc":13,"pc_name":"Davanagere","ac":105,"ac_name":"Harihar","booth":191,"booth_name":"Govt Higher Primary School Room No 2 Hindasaghatta"},"geometry":{"type":"Point","coordinates":[75.667984,14.3863745]}},{"type":"Feature","properties":{"state":"Karnataka","district":14,"district_n":"DAVANGERE","pc":13,"pc_name":"Davanagere","ac":105,"ac_name":"Harihar","booth":192,"booth_name":"Govt Higher Primary School Govinahalu"},"geometry":{"type":"Point","coordinates":[75.63799,14.3906574]}},{"type":"Feature","properties":{"state":"Karnataka","district":14,"district_n":"DAVANGERE","pc":13,"pc_name":"Davanagere","ac":105,"ac_name":"Harihar","booth":194,"booth_name":"Govt Higher Primary School Guddadathumminakatte"},"geometry":{"type":"Point","coordinates":[75.67399,14.3743267]}},{"type":"Feature","properties":{"state":"Karnataka","district":14,"district_n":"DAVANGERE","pc":13,"pc_name":"Davanagere","ac":105,"ac_name":"Harihar","booth":195,"booth_name":"Govt Higher Primary School South Wing G Bevinahalli"},"geometry":{"type":"Point","coordinates":[75.71859,14.37259]}},{"type":"Feature","properties":{"state":"Karnataka","district":14,"district_n":"DAVANGERE","pc":13,"pc_name":"Davanagere","ac":105,"ac_name":"Harihar","booth":197,"booth_name":"Govt Lower Primary School Vaderabasapura"},"geometry":{"type":"Point","coordinates":[75.72967,14.36176]}},{"type":"Feature","properties":{"state":"Karnataka","district":14,"district_n":"DAVANGERE","pc":13,"pc_name":"Davanagere","ac":105,"ac_name":"Harihar","booth":198,"booth_name":"Govt Higher Primary School East Wing Pwd Colony Malebennuru"},"geometry":{"type":"Point","coordinates":[75.73962,14.3495865]}},{"type":"Feature","properties":{"state":"Karnataka","district":14,"district_n":"DAVANGERE","pc":13,"pc_name":"Davanagere","ac":105,"ac_name":"Harihar","booth":200,"booth_name":"Pravasi Mandira Brp Colony Malebennuru"},"geometry":{"type":"Point","coordinates":[75.7427444,14.3525743]}},{"type":"Feature","properties":{"state":"Karnataka","district":14,"district_n":"DAVANGERE","pc":13,"pc_name":"Davanagere","ac":105,"ac_name":"Harihar","booth":201,"booth_name":"Govt Higher Primary School South Wing Pwd Colony Malebennuru"},"geometry":{"type":"Point","coordinates":[75.73896,14.3494339]}},{"type":"Feature","properties":{"state":"Karnataka","district":14,"district_n":"DAVANGERE","pc":13,"pc_name":"Davanagere","ac":105,"ac_name":"Harihar","booth":206,"booth_name":"Govt Higher Primary School Jbms Room No 2 South Wing Malebennuru"},"geometry":{"type":"Point","coordinates":[75.74209,14.3568077]}},{"type":"Feature","properties":{"state":"Karnataka","district":14,"district_n":"DAVANGERE","pc":13,"pc_name":"Davanagere","ac":105,"ac_name":"Harihar","booth":223,"booth_name":"Govt Lower Primary School Guladahalli"},"geometry":{"type":"Point","coordinates":[75.81582,14.3599567]}},{"type":"Feature","properties":{"state":"Karnataka","district":14,"district_n":"DAVANGERE","pc":13,"pc_name":"Davanagere","ac":105,"ac_name":"Harihar","booth":232,"booth_name":"Govt Higher Primary School Komaranahalli"},"geometry":{"type":"Point","coordinates":[75.7372742,14.3402195]}},{"type":"Feature","properties":{"state":"Karnataka","district":14,"district_n":"DAVANGERE","pc":13,"pc_name":"Davanagere","ac":105,"ac_name":"Harihar","booth":220,"booth_name":"Govt Lower Primary School East Wing Nitturu"},"geometry":{"type":"Point","coordinates":[75.77914,14.3702183]}},{"type":"Feature","properties":{"state":"Karnataka","district":14,"district_n":"DAVANGERE","pc":13,"pc_name":"Davanagere","ac":105,"ac_name":"Harihar","booth":177,"booth_name":"Govt Lower Primary School Vinayakanagara ( H )"},"geometry":{"type":"Point","coordinates":[75.7557144,14.3964443]}},{"type":"Feature","properties":{"state":"Karnataka","district":14,"district_n":"DAVANGERE","pc":13,"pc_name":"Davanagere","ac":105,"ac_name":"Harihar","booth":131,"booth_name":"Govt Urdu Higher Primary School Room No 1 Banuvalli"},"geometry":{"type":"Point","coordinates":[75.76281,14.435688]}},{"type":"Feature","properties":{"state":"Karnataka","district":14,"district_n":"DAVANGERE","pc":13,"pc_name":"Davanagere","ac":105,"ac_name":"Harihar","booth":132,"booth_name":"Govt Pu College Room No 2 Banuvalli"},"geometry":{"type":"Point","coordinates":[75.76272,14.4354115]}},{"type":"Feature","properties":{"state":"Karnataka","district":14,"district_n":"DAVANGERE","pc":13,"pc_name":"Davanagere","ac":105,"ac_name":"Harihar","booth":140,"booth_name":"Govt Higher Primary School Yekkegondi"},"geometry":{"type":"Point","coordinates":[75.7791061,14.4278049]}},{"type":"Feature","properties":{"state":"Karnataka","district":14,"district_n":"DAVANGERE","pc":13,"pc_name":"Davanagere","ac":105,"ac_name":"Harihar","booth":146,"booth_name":"Govt higher Primary school North Wing Wing Room No 1 Sirigere"},"geometry":{"type":"Point","coordinates":[75.7037354,14.4465961]}},{"type":"Feature","properties":{"state":"Karnataka","district":14,"district_n":"DAVANGERE","pc":13,"pc_name":"Davanagere","ac":105,"ac_name":"Harihar","booth":151,"booth_name":"Govt Higher Primary School Palya"},"geometry":{"type":"Point","coordinates":[75.6678162,14.43091]}},{"type":"Feature","properties":{"state":"Karnataka","district":14,"district_n":"DAVANGERE","pc":13,"pc_name":"Davanagere","ac":105,"ac_name":"Harihar","booth":152,"booth_name":"Govt Lower Primary School Malalahalli"},"geometry":{"type":"Point","coordinates":[75.6661758,14.4491758]}},{"type":"Feature","properties":{"state":"Karnataka","district":14,"district_n":"DAVANGERE","pc":13,"pc_name":"Davanagere","ac":105,"ac_name":"Harihar","booth":126,"booth_name":"Govt Higher Primary School Room no 2 Kamalapura"},"geometry":{"type":"Point","coordinates":[75.76309,14.4397249]}},{"type":"Feature","properties":{"state":"Karnataka","district":14,"district_n":"DAVANGERE","pc":13,"pc_name":"Davanagere","ac":105,"ac_name":"Harihar","booth":115,"booth_name":"Sri Patel Guru Basappa High School Room No 2 Belludi"},"geometry":{"type":"Point","coordinates":[75.7850342,14.4596806]}},{"type":"Feature","properties":{"state":"Karnataka","district":14,"district_n":"DAVANGERE","pc":13,"pc_name":"Davanagere","ac":105,"ac_name":"Harihar","booth":109,"booth_name":"Govt Higher Primary School Room no 2 Bilasanuru"},"geometry":{"type":"Point","coordinates":[75.77899,14.4747963]}},{"type":"Feature","properties":{"state":"Karnataka","district":14,"district_n":"DAVANGERE","pc":13,"pc_name":"Davanagere","ac":105,"ac_name":"Harihar","booth":97,"booth_name":"Govt Higher Primary School Room No 3 Amaravathi"},"geometry":{"type":"Point","coordinates":[75.8562851,14.5018177]}},{"type":"Feature","properties":{"state":"Karnataka","district":14,"district_n":"DAVANGERE","pc":13,"pc_name":"Davanagere","ac":105,"ac_name":"Harihar","booth":91,"booth_name":"Govt Higher Primary School Room No 2 Neelakanta Nagara Harihara"},"geometry":{"type":"Point","coordinates":[75.81588,14.5065107]}},{"type":"Feature","properties":{"state":"Karnataka","district":14,"district_n":"DAVANGERE","pc":13,"pc_name":"Davanagere","ac":105,"ac_name":"Harihar","booth":55,"booth_name":"Govt Lower Primary School Room no 2 Jai Bheemanagar Harihara"},"geometry":{"type":"Point","coordinates":[75.8080139,14.5189724]}},{"type":"Feature","properties":{"state":"Karnataka","district":14,"district_n":"DAVANGERE","pc":13,"pc_name":"Davanagere","ac":105,"ac_name":"Harihar","booth":54,"booth_name":"Govt Lower Primary School Room no 2 Jai Bheemanagar Harihara"},"geometry":{"type":"Point","coordinates":[75.82241,14.5127678]}},{"type":"Feature","properties":{"state":"Karnataka","district":14,"district_n":"DAVANGERE","pc":13,"pc_name":"Davanagere","ac":105,"ac_name":"Harihar","booth":29,"booth_name":"Mariya Nivasa Primary School Room no 2 Harihara"},"geometry":{"type":"Point","coordinates":[75.81064,14.5115623]}},{"type":"Feature","properties":{"state":"Karnataka","district":14,"district_n":"DAVANGERE","pc":13,"pc_name":"Davanagere","ac":105,"ac_name":"Harihar","booth":26,"booth_name":"Govt Urdu Higher Primary School Room no 2 (gutturu colony) Harlapura"},"geometry":{"type":"Point","coordinates":[75.81285,14.5359221]}},{"type":"Feature","properties":{"state":"Karnataka","district":14,"district_n":"DAVANGERE","pc":13,"pc_name":"Davanagere","ac":105,"ac_name":"Harihar","booth":34,"booth_name":"Govt Lower Primary School Room No 3 3 Talavarakeri Harihara"},"geometry":{"type":"Point","coordinates":[75.8038254,14.5073738]}},{"type":"Feature","properties":{"state":"Karnataka","district":14,"district_n":"DAVANGERE","pc":13,"pc_name":"Davanagere","ac":105,"ac_name":"Harihar","booth":235,"booth_name":"Govt Lower Primary School Dibbadahalli"},"geometry":{"type":"Point","coordinates":[75.74294,14.33654]}},{"type":"Feature","properties":{"state":"Karnataka","district":14,"district_n":"DAVANGERE","pc":13,"pc_name":"Davanagere","ac":105,"ac_name":"Harihar","booth":114,"booth_name":"Govt Higher Primary School Room No 2 2 West Wing Belludi"},"geometry":{"type":"Point","coordinates":[75.784935,14.459733]}},{"type":"Feature","properties":{"state":"Karnataka","district":14,"district_n":"DAVANGERE","pc":13,"pc_name":"Davanagere","ac":105,"ac_name":"Harihar","booth":25,"booth_name":"Govt Urdu Higher Primary School (gutturu Colony) Room No 1 Harlapura"},"geometry":{"type":"Point","coordinates":[75.81284,14.5357065]}},{"type":"Feature","properties":{"state":"Karnataka","district":14,"district_n":"DAVANGERE","pc":13,"pc_name":"Davanagere","ac":105,"ac_name":"Harihar","booth":37,"booth_name":"Govt Higher Primary School Hosapete Beedi Room No 1 Harihara"},"geometry":{"type":"Point","coordinates":[75.80355,14.5135679]}},{"type":"Feature","properties":{"state":"Karnataka","district":14,"district_n":"DAVANGERE","pc":13,"pc_name":"Davanagere","ac":105,"ac_name":"Harihar","booth":52,"booth_name":"City Municiple Office Room No 2 Harihara"},"geometry":{"type":"Point","coordinates":[75.80994,14.5141306]}},{"type":"Feature","properties":{"state":"Karnataka","district":14,"district_n":"DAVANGERE","pc":13,"pc_name":"Davanagere","ac":105,"ac_name":"Harihar","booth":215,"booth_name":"Govt Higher Primary Primary Urdu School Room no 1 Malebennuru"},"geometry":{"type":"Point","coordinates":[75.74037,14.3567638]}},{"type":"Feature","properties":{"state":"Karnataka","district":14,"district_n":"DAVANGERE","pc":13,"pc_name":"Davanagere","ac":105,"ac_name":"Harihar","booth":212,"booth_name":"Govt Lower Primary School Jigali Road Room No 1 Malebennuru"},"geometry":{"type":"Point","coordinates":[75.74114,14.3569336]}},{"type":"Feature","properties":{"state":"Karnataka","district":14,"district_n":"DAVANGERE","pc":13,"pc_name":"Davanagere","ac":105,"ac_name":"Harihar","booth":209,"booth_name":"Govt Junior College Room No 2 Malebennuru"},"geometry":{"type":"Point","coordinates":[75.74042,14.3567677]}},{"type":"Feature","properties":{"state":"Karnataka","district":14,"district_n":"DAVANGERE","pc":13,"pc_name":"Davanagere","ac":105,"ac_name":"Harihar","booth":60,"booth_name":"Mysore Kirloskar High School Room No 1 Harihara"},"geometry":{"type":"Point","coordinates":[75.8079147,14.5198946]}},{"type":"Feature","properties":{"state":"Karnataka","district":14,"district_n":"DAVANGERE","pc":13,"pc_name":"Davanagere","ac":105,"ac_name":"Harihar","booth":221,"booth_name":"Govt Higher Primary School Adapuru"},"geometry":{"type":"Point","coordinates":[75.78527,14.373168]}},{"type":"Feature","properties":{"state":"Karnataka","district":14,"district_n":"DAVANGERE","pc":13,"pc_name":"Davanagere","ac":105,"ac_name":"Harihar","booth":229,"booth_name":"Govt Higher Primary School North Wing Halivana"},"geometry":{"type":"Point","coordinates":[75.76656,14.323451]}},{"type":"Feature","properties":{"state":"Karnataka","district":14,"district_n":"DAVANGERE","pc":13,"pc_name":"Davanagere","ac":105,"ac_name":"Harihar","booth":234,"booth_name":"Govt Higher Primary School Koppa"},"geometry":{"type":"Point","coordinates":[75.74774,14.3095655]}},{"type":"Feature","properties":{"state":"Karnataka","district":14,"district_n":"DAVANGERE","pc":13,"pc_name":"Davanagere","ac":105,"ac_name":"Harihar","booth":11,"booth_name":"Govt Higher Primary School Kenchanahalli"},"geometry":{"type":"Point","coordinates":[75.86372,14.5887737]}},{"type":"Feature","properties":{"state":"Karnataka","district":14,"district_n":"DAVANGERE","pc":13,"pc_name":"Davanagere","ac":105,"ac_name":"Harihar","booth":12,"booth_name":"Govt Lower Primary School Bullapura"},"geometry":{"type":"Point","coordinates":[75.86606,14.5792646]}},{"type":"Feature","properties":{"state":"Karnataka","district":14,"district_n":"DAVANGERE","pc":13,"pc_name":"Davanagere","ac":105,"ac_name":"Harihar","booth":46,"booth_name":"Assistant Executive Engineer Office Jilla Panchayathi Room No 1 Harihara"},"geometry":{"type":"Point","coordinates":[75.80324,14.5189905]}},{"type":"Feature","properties":{"state":"Karnataka","district":14,"district_n":"DAVANGERE","pc":13,"pc_name":"Davanagere","ac":105,"ac_name":"Harihar","booth":48,"booth_name":"Giriyamma R Kanthappa Shetty High School Near Court Harihara"},"geometry":{"type":"Point","coordinates":[75.80773,14.5163279]}},{"type":"Feature","properties":{"state":"Karnataka","district":14,"district_n":"DAVANGERE","pc":13,"pc_name":"Davanagere","ac":105,"ac_name":"Harihar","booth":66,"booth_name":"Taluk Panchayathi President Office Office Taluk Panchayathi Compound Harihara"},"geometry":{"type":"Point","coordinates":[75.8078156,14.5189857]}},{"type":"Feature","properties":{"state":"Karnataka","district":14,"district_n":"DAVANGERE","pc":13,"pc_name":"Davanagere","ac":105,"ac_name":"Harihar","booth":68,"booth_name":"Assistant Director Of Horticulture office Taluk Panchayathi Office Compound Harihara"},"geometry":{"type":"Point","coordinates":[75.8073959,14.5200024]}},{"type":"Feature","properties":{"state":"Karnataka","district":14,"district_n":"DAVANGERE","pc":13,"pc_name":"Davanagere","ac":105,"ac_name":"Harihar","booth":139,"booth_name":"Govt Higher Primary School Salaganahalli"},"geometry":{"type":"Point","coordinates":[75.8044357,14.42615]}},{"type":"Feature","properties":{"state":"Karnataka","district":14,"district_n":"DAVANGERE","pc":13,"pc_name":"Davanagere","ac":105,"ac_name":"Harihar","booth":162,"booth_name":"Govt Lower Primary School Bhaskar Rao Camp ( H )"},"geometry":{"type":"Point","coordinates":[75.7724,14.40033]}},{"type":"Feature","properties":{"state":"Karnataka","district":14,"district_n":"DAVANGERE","pc":13,"pc_name":"Davanagere","ac":105,"ac_name":"Harihar","booth":179,"booth_name":"Govt Higher Primary School South Wing Jigali"},"geometry":{"type":"Point","coordinates":[75.73695,14.3869619]}},{"type":"Feature","properties":{"state":"Karnataka","district":14,"district_n":"DAVANGERE","pc":13,"pc_name":"Davanagere","ac":105,"ac_name":"Harihar","booth":202,"booth_name":"Govt Higher Primary School North Wing Pwd Colony Malebennuru"},"geometry":{"type":"Point","coordinates":[75.7395554,14.34943]}},{"type":"Feature","properties":{"state":"Karnataka","district":14,"district_n":"DAVANGERE","pc":13,"pc_name":"Davanagere","ac":105,"ac_name":"Harihar","booth":205,"booth_name":"Govt Higher Primary School Jbms Room No 3 North Wing Malebennuru"},"geometry":{"type":"Point","coordinates":[75.74175,14.3568239]}},{"type":"Feature","properties":{"state":"Karnataka","district":14,"district_n":"DAVANGERE","pc":13,"pc_name":"Davanagere","ac":105,"ac_name":"Harihar","booth":222,"booth_name":"Govt Higher Primary School Budihalu"},"geometry":{"type":"Point","coordinates":[75.8061,14.37538]}},{"type":"Feature","properties":{"state":"Karnataka","district":14,"district_n":"DAVANGERE","pc":13,"pc_name":"Davanagere","ac":105,"ac_name":"Harihar","booth":228,"booth_name":"Govt Higher Primary School South Wing Halivana"},"geometry":{"type":"Point","coordinates":[75.76666,14.323391]}},{"type":"Feature","properties":{"state":"Karnataka","district":14,"district_n":"DAVANGERE","pc":13,"pc_name":"Davanagere","ac":105,"ac_name":"Harihar","booth":22,"booth_name":"Govt Higher Primary School Room No 3 Gutturu"},"geometry":{"type":"Point","coordinates":[75.81064,14.54136]}},{"type":"Feature","properties":{"state":"Karnataka","district":14,"district_n":"DAVANGERE","pc":13,"pc_name":"Davanagere","ac":105,"ac_name":"Harihar","booth":136,"booth_name":"Govt Higher Primary School Room No 2 New Building Bannikodu"},"geometry":{"type":"Point","coordinates":[75.8106,14.441309]}},{"type":"Feature","properties":{"state":"Karnataka","district":14,"district_n":"DAVANGERE","pc":13,"pc_name":"Davanagere","ac":105,"ac_name":"Harihar","booth":145,"booth_name":"Govt Higher Primary School Holesirigere"},"geometry":{"type":"Point","coordinates":[75.42132,14.26473]}},{"type":"Feature","properties":{"state":"Karnataka","district":14,"district_n":"DAVANGERE","pc":13,"pc_name":"Davanagere","ac":105,"ac_name":"Harihar","booth":122,"booth_name":"Govt Higher Primary School Ingalagundi"},"geometry":{"type":"Point","coordinates":[75.6853943,14.4776716]}},{"type":"Feature","properties":{"state":"Karnataka","district":14,"district_n":"DAVANGERE","pc":13,"pc_name":"Davanagere","ac":105,"ac_name":"Harihar","booth":16,"booth_name":"Govt Higher Primary School Room No 1 Ganganarasi"},"geometry":{"type":"Point","coordinates":[75.84038,14.5568514]}},{"type":"Feature","properties":{"state":"Karnataka","district":14,"district_n":"DAVANGERE","pc":13,"pc_name":"Davanagere","ac":105,"ac_name":"Harihar","booth":208,"booth_name":"Govt Junior College Room No 2 Malebennuru"},"geometry":{"type":"Point","coordinates":[75.74206,14.3572]}},{"type":"Feature","properties":{"state":"Karnataka","district":14,"district_n":"DAVANGERE","pc":13,"pc_name":"Davanagere","ac":105,"ac_name":"Harihar","booth":219,"booth_name":"Govt Higher Primary School West Wing Nitturu"},"geometry":{"type":"Point","coordinates":[75.779,14.3701]}},{"type":"Feature","properties":{"state":"Karnataka","district":14,"district_n":"DAVANGERE","pc":13,"pc_name":"Davanagere","ac":105,"ac_name":"Harihar","booth":225,"booth_name":"Govt Higher Primary School Mallanayakanahalli"},"geometry":{"type":"Point","coordinates":[75.7930145,14.3549595]}},{"type":"Feature","properties":{"state":"Karnataka","district":14,"district_n":"DAVANGERE","pc":13,"pc_name":"Davanagere","ac":105,"ac_name":"Harihar","booth":128,"booth_name":"Govt Higher Primary School Room No 2 Banuvalli"},"geometry":{"type":"Point","coordinates":[75.76314,14.43573]}},{"type":"Feature","properties":{"state":"Karnataka","district":14,"district_n":"DAVANGERE","pc":13,"pc_name":"Davanagere","ac":105,"ac_name":"Harihar","booth":165,"booth_name":"Govt Lower Primary School Sathyanarayana Camp ( H )"},"geometry":{"type":"Point","coordinates":[75.8495255,14.444912]}},{"type":"Feature","properties":{"state":"Karnataka","district":14,"district_n":"DAVANGERE","pc":13,"pc_name":"Davanagere","ac":105,"ac_name":"Harihar","booth":3,"booth_name":"Govt Higher Primary School Room No 2 Sarathi"},"geometry":{"type":"Point","coordinates":[75.81774,14.6017523]}},{"type":"Feature","properties":{"state":"Karnataka","district":14,"district_n":"DAVANGERE","pc":13,"pc_name":"Davanagere","ac":105,"ac_name":"Harihar","booth":118,"booth_name":"Grama Panchayathi Office Belludi"},"geometry":{"type":"Point","coordinates":[75.77397,14.461278]}},{"type":"Feature","properties":{"state":"Karnataka","district":14,"district_n":"DAVANGERE","pc":13,"pc_name":"Davanagere","ac":105,"ac_name":"Harihar","booth":112,"booth_name":"Govt Higher Primary School Room no 2 Shamshipura"},"geometry":{"type":"Point","coordinates":[75.7840652,14.459691]}},{"type":"Feature","properties":{"state":"Karnataka","district":14,"district_n":"DAVANGERE","pc":13,"pc_name":"Davanagere","ac":105,"ac_name":"Harihar","booth":175,"booth_name":"Govt Higher Primary School,kumabaluru"},"geometry":{"type":"Point","coordinates":[75.45044,14.22343]}},{"type":"Feature","properties":{"state":"Karnataka","district":14,"district_n":"DAVANGERE","pc":13,"pc_name":"Davanagere","ac":105,"ac_name":"Harihar","booth":105,"booth_name":"Govt Higher Primary School Rajanahalli"},"geometry":{"type":"Point","coordinates":[75.45472,14.30311]}},{"type":"Feature","properties":{"state":"Karnataka","district":14,"district_n":"DAVANGERE","pc":13,"pc_name":"Davanagere","ac":105,"ac_name":"Harihar","booth":93,"booth_name":"Govt Higher Primary School Neelakantanagar Neelakantanagar Harihara"},"geometry":{"type":"Point","coordinates":[75.48568,14.30234]}},{"type":"Feature","properties":{"state":"Karnataka","district":14,"district_n":"DAVANGERE","pc":13,"pc_name":"Davanagere","ac":105,"ac_name":"Harihar","booth":59,"booth_name":"Mysore Kirloskar High school Harihara"},"geometry":{"type":"Point","coordinates":[75.48295,14.31118]}},{"type":"Feature","properties":{"state":"Karnataka","district":14,"district_n":"DAVANGERE","pc":13,"pc_name":"Davanagere","ac":105,"ac_name":"Harihar","booth":211,"booth_name":"Govt Higher Primary Urdu School Gouse Nagar Nagar Malebennuru"},"geometry":{"type":"Point","coordinates":[75.43548,14.21148]}},{"type":"Feature","properties":{"state":"Karnataka","district":14,"district_n":"DAVANGERE","pc":13,"pc_name":"Davanagere","ac":105,"ac_name":"Harihar","booth":19,"booth_name":"Govt Higher Primary School Room No 2 Gutturu"},"geometry":{"type":"Point","coordinates":[75.81108,14.541358]}},{"type":"Feature","properties":{"state":"Karnataka","district":14,"district_n":"DAVANGERE","pc":13,"pc_name":"Davanagere","ac":105,"ac_name":"Harihar","booth":74,"booth_name":"Govt Urdu Higher Primary School Room No 2 Hs Ext Harihar"},"geometry":{"type":"Point","coordinates":[75.80955,14.5073051]}},{"type":"Feature","properties":{"state":"Karnataka","district":14,"district_n":"DAVANGERE","pc":13,"pc_name":"Davanagere","ac":105,"ac_name":"Harihar","booth":75,"booth_name":"Drm Govt College High School Exten Harihara"},"geometry":{"type":"Point","coordinates":[75.8080444,14.5072861]}},{"type":"Feature","properties":{"state":"Karnataka","district":14,"district_n":"DAVANGERE","pc":13,"pc_name":"Davanagere","ac":105,"ac_name":"Harihar","booth":92,"booth_name":"Govt Higher Primary School Room No 2 Neelakanta Nagara Harihara"},"geometry":{"type":"Point","coordinates":[75.8157349,14.5065136]}},{"type":"Feature","properties":{"state":"Karnataka","district":14,"district_n":"DAVANGERE","pc":13,"pc_name":"Davanagere","ac":105,"ac_name":"Harihar","booth":94,"booth_name":"Govt Higher Primary School Room No 3 Neelakanta Nagara Harihara"},"geometry":{"type":"Point","coordinates":[75.82161,14.5151386]}},{"type":"Feature","properties":{"state":"Karnataka","district":14,"district_n":"DAVANGERE","pc":13,"pc_name":"Davanagere","ac":105,"ac_name":"Harihar","booth":95,"booth_name":"Govt Higher Primary School Room No 1 Amaravathi"},"geometry":{"type":"Point","coordinates":[75.8209,14.5153179]}},{"type":"Feature","properties":{"state":"Karnataka","district":14,"district_n":"DAVANGERE","pc":13,"pc_name":"Davanagere","ac":105,"ac_name":"Harihar","booth":218,"booth_name":"Govt Higher Primary Urdu School Room no 2 Malebennuru"},"geometry":{"type":"Point","coordinates":[75.74209,14.3578281]}},{"type":"Feature","properties":{"state":"Karnataka","district":14,"district_n":"DAVANGERE","pc":13,"pc_name":"Davanagere","ac":105,"ac_name":"Harihar","booth":183,"booth_name":"Govt Higher Primary School , , Hallihalu"},"geometry":{"type":"Point","coordinates":[75.40582,14.23148]}},{"type":"Feature","properties":{"state":"Karnataka","district":14,"district_n":"DAVANGERE","pc":13,"pc_name":"Davanagere","ac":105,"ac_name":"Harihar","booth":155,"booth_name":"Govt Higher Primary School Kadaranayakanahalli"},"geometry":{"type":"Point","coordinates":[75.41157,14.25126]}},{"type":"Feature","properties":{"state":"Karnataka","district":14,"district_n":"DAVANGERE","pc":13,"pc_name":"Davanagere","ac":105,"ac_name":"Harihar","booth":73,"booth_name":"Govt Urdu Higher Primary School Room No 1 Hs Exten Harihara"},"geometry":{"type":"Point","coordinates":[75.81001,14.5087585]}},{"type":"Feature","properties":{"state":"Karnataka","district":14,"district_n":"DAVANGERE","pc":13,"pc_name":"Davanagere","ac":105,"ac_name":"Harihar","booth":86,"booth_name":"S J V P College Room No 1 Harihara"},"geometry":{"type":"Point","coordinates":[75.81155,14.5112228]}},{"type":"Feature","properties":{"state":"Karnataka","district":14,"district_n":"DAVANGERE","pc":13,"pc_name":"Davanagere","ac":105,"ac_name":"Harihar","booth":88,"booth_name":"Mrb High School Room No 1 Sjvp Compound Harihara"},"geometry":{"type":"Point","coordinates":[75.81218,14.5111485]}},{"type":"Feature","properties":{"state":"Karnataka","district":14,"district_n":"DAVANGERE","pc":13,"pc_name":"Davanagere","ac":105,"ac_name":"Harihar","booth":87,"booth_name":"Sjvp College Room No 2 Harihara"},"geometry":{"type":"Point","coordinates":[75.8122,14.51127]}},{"type":"Feature","properties":{"state":"Karnataka","district":14,"district_n":"DAVANGERE","pc":13,"pc_name":"Davanagere","ac":105,"ac_name":"Harihar","booth":168,"booth_name":"Govt Higher Primary School West Wing Devarabelekere"},"geometry":{"type":"Point","coordinates":[75.8345,14.3978243]}},{"type":"Feature","properties":{"state":"Karnataka","district":14,"district_n":"DAVANGERE","pc":13,"pc_name":"Davanagere","ac":105,"ac_name":"Harihar","booth":176,"booth_name":"Govt Higher Primary School South Wing Kumbaluru"},"geometry":{"type":"Point","coordinates":[75.75131,14.3763447]}},{"type":"Feature","properties":{"state":"Karnataka","district":14,"district_n":"DAVANGERE","pc":13,"pc_name":"Davanagere","ac":105,"ac_name":"Harihar","booth":182,"booth_name":"Govt Higher Primary School Room No 1 West Wing Kokkanuru"},"geometry":{"type":"Point","coordinates":[75.68233,14.38772]}},{"type":"Feature","properties":{"state":"Karnataka","district":14,"district_n":"DAVANGERE","pc":13,"pc_name":"Davanagere","ac":105,"ac_name":"Harihar","booth":185,"booth_name":"Govt Higher Primary School Room No 2 East Wing Kokkanuru"},"geometry":{"type":"Point","coordinates":[75.68248,14.387742]}},{"type":"Feature","properties":{"state":"Karnataka","district":14,"district_n":"DAVANGERE","pc":13,"pc_name":"Davanagere","ac":105,"ac_name":"Harihar","booth":2,"booth_name":"Govt Higher Primary School Sarathi Room No 1"},"geometry":{"type":"Point","coordinates":[75.81774,14.6019392]}},{"type":"Feature","properties":{"state":"Karnataka","district":14,"district_n":"DAVANGERE","pc":13,"pc_name":"Davanagere","ac":105,"ac_name":"Harihar","booth":13,"booth_name":"Grama Panchayathi Office Kondajji"},"geometry":{"type":"Point","coordinates":[75.87113,14.5692787]}},{"type":"Feature","properties":{"state":"Karnataka","district":14,"district_n":"DAVANGERE","pc":13,"pc_name":"Davanagere","ac":105,"ac_name":"Harihar","booth":30,"booth_name":"Govt Higher Parimary Girls Urdu School Room No 1 Nalamohalla Nalamohalla Harihara"},"geometry":{"type":"Point","coordinates":[75.804924,14.5110044]}},{"type":"Feature","properties":{"state":"Karnataka","district":14,"district_n":"DAVANGERE","pc":13,"pc_name":"Davanagere","ac":105,"ac_name":"Harihar","booth":33,"booth_name":"Govt Higher Primary Primary Girls Urdu School Room No 2 Nalamohalla Harihara"},"geometry":{"type":"Point","coordinates":[75.80475,14.51012]}},{"type":"Feature","properties":{"state":"Karnataka","district":14,"district_n":"DAVANGERE","pc":13,"pc_name":"Davanagere","ac":105,"ac_name":"Harihar","booth":39,"booth_name":"Govt Higher Primary School Hosapete Beedi Room No 2 Harihara"},"geometry":{"type":"Point","coordinates":[75.8035,14.51363]}},{"type":"Feature","properties":{"state":"Karnataka","district":14,"district_n":"DAVANGERE","pc":13,"pc_name":"Davanagere","ac":105,"ac_name":"Harihar","booth":42,"booth_name":"Govt Higher Primary School Hosapete Beedi Room No 1 Harihara"},"geometry":{"type":"Point","coordinates":[75.8036652,14.5134621]}},{"type":"Feature","properties":{"state":"Karnataka","district":14,"district_n":"DAVANGERE","pc":13,"pc_name":"Davanagere","ac":105,"ac_name":"Harihar","booth":45,"booth_name":"Assistant Executive Engineer Office Pwd Harihara"},"geometry":{"type":"Point","coordinates":[75.8027649,14.5185318]}},{"type":"Feature","properties":{"state":"Karnataka","district":14,"district_n":"DAVANGERE","pc":13,"pc_name":"Davanagere","ac":105,"ac_name":"Harihar","booth":188,"booth_name":"Govt Higher Primary School Room No 2 Vasana"},"geometry":{"type":"Point","coordinates":[75.6537552,14.4176426]}},{"type":"Feature","properties":{"state":"Karnataka","district":14,"district_n":"DAVANGERE","pc":13,"pc_name":"Davanagere","ac":105,"ac_name":"Harihar","booth":53,"booth_name":"Govt Higher Primary School Jai Bheemanagar Harihara"},"geometry":{"type":"Point","coordinates":[75.8225555,14.512826]}},{"type":"Feature","properties":{"state":"Karnataka","district":14,"district_n":"DAVANGERE","pc":13,"pc_name":"Davanagere","ac":105,"ac_name":"Harihar","booth":85,"booth_name":"Karnataka State High Way Development Sub Division Office Irigation Colony Harihara"},"geometry":{"type":"Point","coordinates":[75.81133,14.5108156]}},{"type":"Feature","properties":{"state":"Karnataka","district":14,"district_n":"DAVANGERE","pc":13,"pc_name":"Davanagere","ac":105,"ac_name":"Harihar","booth":62,"booth_name":"Mysore Kirloskar High School Room No 3 Right Wing Harihara"},"geometry":{"type":"Point","coordinates":[75.80812,14.5204849]}},{"type":"Feature","properties":{"state":"Karnataka","district":14,"district_n":"DAVANGERE","pc":13,"pc_name":"Davanagere","ac":105,"ac_name":"Harihar","booth":96,"booth_name":"Govt Higher Primary School Room No 2 Amaravathi"},"geometry":{"type":"Point","coordinates":[75.820816,14.5151224]}},{"type":"Feature","properties":{"state":"Karnataka","district":14,"district_n":"DAVANGERE","pc":13,"pc_name":"Davanagere","ac":105,"ac_name":"Harihar","booth":99,"booth_name":"Govt Higher Primary School Halasabalu"},"geometry":{"type":"Point","coordinates":[75.78885,14.479125]}},{"type":"Feature","properties":{"state":"Karnataka","district":14,"district_n":"DAVANGERE","pc":13,"pc_name":"Davanagere","ac":105,"ac_name":"Harihar","booth":80,"booth_name":"Drm Junior College Room No 3 Harihara"},"geometry":{"type":"Point","coordinates":[75.80963,14.5068493]}},{"type":"Feature","properties":{"state":"Karnataka","district":14,"district_n":"DAVANGERE","pc":13,"pc_name":"Davanagere","ac":105,"ac_name":"Harihar","booth":83,"booth_name":"Govt Higher Primary School New Building Room No 3 3 High School Exten Harihara"},"geometry":{"type":"Point","coordinates":[75.80695,14.5044613]}},{"type":"Feature","properties":{"state":"Karnataka","district":14,"district_n":"DAVANGERE","pc":13,"pc_name":"Davanagere","ac":105,"ac_name":"Harihar","booth":79,"booth_name":"Dr Dr B R Ambedkar Higher Primary School New Building Room No 2 Harihara"},"geometry":{"type":"Point","coordinates":[75.80962,14.5072775]}},{"type":"Feature","properties":{"state":"Karnataka","district":14,"district_n":"DAVANGERE","pc":13,"pc_name":"Davanagere","ac":105,"ac_name":"Harihar","booth":81,"booth_name":"Drm Junior College Room No 4 Harihara"},"geometry":{"type":"Point","coordinates":[75.80797,14.5072775]}},{"type":"Feature","properties":{"state":"Karnataka","district":14,"district_n":"DAVANGERE","pc":13,"pc_name":"Davanagere","ac":105,"ac_name":"Harihar","booth":156,"booth_name":"Govt Higher Primary School Room no 3 3 Kadaranaikanahalli"},"geometry":{"type":"Point","coordinates":[75.68768,14.4202042]}},{"type":"Feature","properties":{"state":"Karnataka","district":14,"district_n":"DAVANGERE","pc":13,"pc_name":"Davanagere","ac":105,"ac_name":"Harihar","booth":65,"booth_name":"Govt Lower Primary School Vinobanagara Room No 4 Harihara"},"geometry":{"type":"Point","coordinates":[75.80797,14.51921]}},{"type":"Feature","properties":{"state":"Karnataka","district":14,"district_n":"DAVANGERE","pc":13,"pc_name":"Davanagere","ac":105,"ac_name":"Harihar","booth":10,"booth_name":"Govt Higher Primary School Room No 2deeturu"},"geometry":{"type":"Point","coordinates":[75.82412,14.5773468]}},{"type":"Feature","properties":{"state":"Karnataka","district":14,"district_n":"DAVANGERE","pc":13,"pc_name":"Davanagere","ac":105,"ac_name":"Harihar","booth":82,"booth_name":"Govt Higher Primary School New building Halladakeri H S Ext Hari"},"geometry":{"type":"Point","coordinates":[75.48292,14.30262]}},{"type":"Feature","properties":{"state":"Karnataka","district":14,"district_n":"DAVANGERE","pc":13,"pc_name":"Davanagere","ac":105,"ac_name":"Harihar","booth":56,"booth_name":"Taluk Panchayth Panchayth office Harihara"},"geometry":{"type":"Point","coordinates":[75.48286,14.31089]}},{"type":"Feature","properties":{"state":"Karnataka","district":14,"district_n":"DAVANGERE","pc":13,"pc_name":"Davanagere","ac":105,"ac_name":"Harihar","booth":101,"booth_name":"Govt Higher Primary School Hanagawadi"},"geometry":{"type":"Point","coordinates":[75.47173,14.28435]}},{"type":"Feature","properties":{"state":"Karnataka","district":14,"district_n":"DAVANGERE","pc":13,"pc_name":"Davanagere","ac":105,"ac_name":"Harihar","booth":21,"booth_name":"Govt High School Room No 2 Gutturu"},"geometry":{"type":"Point","coordinates":[75.8110657,14.5412855]}},{"type":"Feature","properties":{"state":"Karnataka","district":14,"district_n":"DAVANGERE","pc":13,"pc_name":"Davanagere","ac":105,"ac_name":"Harihar","booth":141,"booth_name":"Govt Higher Primary School Lakkashettihalli"},"geometry":{"type":"Point","coordinates":[75.7324448,14.4205656]}},{"type":"Feature","properties":{"state":"Karnataka","district":14,"district_n":"DAVANGERE","pc":13,"pc_name":"Davanagere","ac":105,"ac_name":"Harihar","booth":150,"booth_name":"Govt Higher Primary School Room No 2 West Wing Ukkadagathri"},"geometry":{"type":"Point","coordinates":[75.6444,14.4431772]}},{"type":"Feature","properties":{"state":"Karnataka","district":14,"district_n":"DAVANGERE","pc":13,"pc_name":"Davanagere","ac":105,"ac_name":"Harihar","booth":102,"booth_name":"Govt Higher Primary School Room No North Wing Hanagavadi"},"geometry":{"type":"Point","coordinates":[75.7811356,14.4949331]}},{"type":"Feature","properties":{"state":"Karnataka","district":14,"district_n":"DAVANGERE","pc":13,"pc_name":"Davanagere","ac":105,"ac_name":"Harihar","booth":119,"booth_name":"Govt Higher Primary School Ramathirtha"},"geometry":{"type":"Point","coordinates":[75.74239,14.4676886]}},{"type":"Feature","properties":{"state":"Karnataka","district":14,"district_n":"DAVANGERE","pc":13,"pc_name":"Davanagere","ac":105,"ac_name":"Harihar","booth":125,"booth_name":"Govt Higher Primary School Kamalapura"},"geometry":{"type":"Point","coordinates":[75.73335,14.4452353]}},{"type":"Feature","properties":{"state":"Karnataka","district":14,"district_n":"DAVANGERE","pc":13,"pc_name":"Davanagere","ac":105,"ac_name":"Harihar","booth":78,"booth_name":"Dr Dr B R Ambedkar Higher Primary School New Building Room No 1 Harihara"},"geometry":{"type":"Point","coordinates":[75.8099442,14.5088825]}},{"type":"Feature","properties":{"state":"Karnataka","district":14,"district_n":"DAVANGERE","pc":13,"pc_name":"Davanagere","ac":105,"ac_name":"Harihar","booth":144,"booth_name":"Govt Higher Primary School South Wing Sirigere"},"geometry":{"type":"Point","coordinates":[75.70828,14.4401731]}},{"type":"Feature","properties":{"state":"Karnataka","district":14,"district_n":"DAVANGERE","pc":13,"pc_name":"Davanagere","ac":105,"ac_name":"Harihar","booth":15,"booth_name":"Govt Model Higher Primary School Room No 2 Kondajji"},"geometry":{"type":"Point","coordinates":[75.87255,14.5694094]}},{"type":"Feature","properties":{"state":"Karnataka","district":14,"district_n":"DAVANGERE","pc":13,"pc_name":"Davanagere","ac":105,"ac_name":"Harihar","booth":41,"booth_name":"Bara Imam Ashur Khan Sunni Anasi High School Harihara"},"geometry":{"type":"Point","coordinates":[75.8034744,14.5134373]}},{"type":"Feature","properties":{"state":"Karnataka","district":14,"district_n":"DAVANGERE","pc":13,"pc_name":"Davanagere","ac":105,"ac_name":"Harihar","booth":207,"booth_name":"Govt Junior College Room No 1 Malebennuru"},"geometry":{"type":"Point","coordinates":[75.74196,14.35717]}},{"type":"Feature","properties":{"state":"Karnataka","district":14,"district_n":"DAVANGERE","pc":13,"pc_name":"Davanagere","ac":105,"ac_name":"Harihar","booth":224,"booth_name":"Govt Higher Primary School Sanklipura"},"geometry":{"type":"Point","coordinates":[75.82545,14.3540106]}},{"type":"Feature","properties":{"state":"Karnataka","district":14,"district_n":"DAVANGERE","pc":13,"pc_name":"Davanagere","ac":105,"ac_name":"Harihar","booth":161,"booth_name":"Govt Higher Primary School South Wing Nandithavare"},"geometry":{"type":"Point","coordinates":[75.78106,14.4089632]}},{"type":"Feature","properties":{"state":"Karnataka","district":14,"district_n":"DAVANGERE","pc":13,"pc_name":"Davanagere","ac":105,"ac_name":"Harihar","booth":164,"booth_name":"Govt Higher Primary School Salakatte"},"geometry":{"type":"Point","coordinates":[75.84919,14.4178772]}},{"type":"Feature","properties":{"state":"Karnataka","district":14,"district_n":"DAVANGERE","pc":13,"pc_name":"Davanagere","ac":105,"ac_name":"Harihar","booth":47,"booth_name":"Assistant Executive Engineer Office Jilla Panchayathi Room No 2 Harihara"},"geometry":{"type":"Point","coordinates":[75.80322,14.5182076]}},{"type":"Feature","properties":{"state":"Karnataka","district":14,"district_n":"DAVANGERE","pc":13,"pc_name":"Davanagere","ac":105,"ac_name":"Harihar","booth":50,"booth_name":"Govt Higher Boys Primary School West Wing Harihara"},"geometry":{"type":"Point","coordinates":[75.80863,14.5140486]}},{"type":"Feature","properties":{"state":"Karnataka","district":14,"district_n":"DAVANGERE","pc":13,"pc_name":"Davanagere","ac":105,"ac_name":"Harihar","booth":4,"booth_name":"Govt Higher Primary School Sarathi Room No 3"},"geometry":{"type":"Point","coordinates":[75.81799,14.6018467]}},{"type":"Feature","properties":{"state":"Karnataka","district":14,"district_n":"DAVANGERE","pc":13,"pc_name":"Davanagere","ac":105,"ac_name":"Harihar","booth":18,"booth_name":"Govt Higher Primary School Room No 1 Gutturu"},"geometry":{"type":"Point","coordinates":[75.8109741,14.5413]}},{"type":"Feature","properties":{"state":"Karnataka","district":14,"district_n":"DAVANGERE","pc":13,"pc_name":"Davanagere","ac":105,"ac_name":"Harihar","booth":24,"booth_name":"Govt Higher Primary School Room No 2 Harlapura"},"geometry":{"type":"Point","coordinates":[75.81064,14.5351086]}},{"type":"Feature","properties":{"state":"Karnataka","district":14,"district_n":"DAVANGERE","pc":13,"pc_name":"Davanagere","ac":105,"ac_name":"Harihar","booth":35,"booth_name":"Govt Higher Primary School Talavarakeri Room No 1 Harihara"},"geometry":{"type":"Point","coordinates":[75.8038254,14.5073118]}},{"type":"Feature","properties":{"state":"Karnataka","district":14,"district_n":"DAVANGERE","pc":13,"pc_name":"Davanagere","ac":105,"ac_name":"Harihar","booth":170,"booth_name":"Govt Higher Primary School Room No 2 South Wing Kunibelekere"},"geometry":{"type":"Point","coordinates":[75.80839,14.3996239]}},{"type":"Feature","properties":{"state":"Karnataka","district":14,"district_n":"DAVANGERE","pc":13,"pc_name":"Davanagere","ac":105,"ac_name":"Harihar","booth":133,"booth_name":"Govt Pu College Room No 3 Banuvalli"},"geometry":{"type":"Point","coordinates":[75.7802048,14.4377031]}},{"type":"Feature","properties":{"state":"Karnataka","district":14,"district_n":"DAVANGERE","pc":13,"pc_name":"Davanagere","ac":105,"ac_name":"Harihar","booth":213,"booth_name":"Govt Higher Primary Urdu School Gouse Nagar Malebennuru"},"geometry":{"type":"Point","coordinates":[75.44279,14.21244]}},{"type":"Feature","properties":{"state":"Karnataka","district":14,"district_n":"DAVANGERE","pc":13,"pc_name":"Davanagere","ac":105,"ac_name":"Harihar","booth":184,"booth_name":"Govt Lower Primary School Matti Camp, Camp, Hallihalu"},"geometry":{"type":"Point","coordinates":[75.40564,14.23159]}},{"type":"Feature","properties":{"state":"Karnataka","district":14,"district_n":"DAVANGERE","pc":13,"pc_name":"Davanagere","ac":105,"ac_name":"Harihar","booth":64,"booth_name":"Govt Higher Primary School Vinobanagara Room No 3 Harihara"},"geometry":{"type":"Point","coordinates":[75.80837,14.5203857]}},{"type":"Feature","properties":{"state":"Karnataka","district":14,"district_n":"DAVANGERE","pc":13,"pc_name":"Davanagere","ac":105,"ac_name":"Harihar","booth":70,"booth_name":"Giriyamma R Kanthappa Shetty High School Near Court Room No 2 Harihara"},"geometry":{"type":"Point","coordinates":[75.80772,14.5082207]}},{"type":"Feature","properties":{"state":"Karnataka","district":14,"district_n":"DAVANGERE","pc":13,"pc_name":"Davanagere","ac":105,"ac_name":"Harihar","booth":90,"booth_name":"Govt Higher Primary School Room No 1 Neelakanta Nagara Harihara"},"geometry":{"type":"Point","coordinates":[75.81581,14.5065]}},{"type":"Feature","properties":{"state":"Karnataka","district":14,"district_n":"DAVANGERE","pc":13,"pc_name":"Davanagere","ac":105,"ac_name":"Harihar","booth":98,"booth_name":"Govt Higher Primary School Doggalli"},"geometry":{"type":"Point","coordinates":[75.7798,14.5122309]}},{"type":"Feature","properties":{"state":"Karnataka","district":14,"district_n":"DAVANGERE","pc":13,"pc_name":"Davanagere","ac":105,"ac_name":"Harihar","booth":104,"booth_name":"Govt Higher Primary School Room No 1 North Wing Rajanahalli"},"geometry":{"type":"Point","coordinates":[75.76269,14.5085268]}},{"type":"Feature","properties":{"state":"Karnataka","district":14,"district_n":"DAVANGERE","pc":13,"pc_name":"Davanagere","ac":105,"ac_name":"Harihar","booth":107,"booth_name":"Govt Higher Primary School Thimalapura"},"geometry":{"type":"Point","coordinates":[75.73483,14.4841213]}},{"type":"Feature","properties":{"state":"Karnataka","district":14,"district_n":"DAVANGERE","pc":13,"pc_name":"Davanagere","ac":105,"ac_name":"Harihar","booth":127,"booth_name":"Govt Higher Primary School Room No 1 Banuvalli"},"geometry":{"type":"Point","coordinates":[75.76306,14.4395542]}},{"type":"Feature","properties":{"state":"Karnataka","district":14,"district_n":"DAVANGERE","pc":13,"pc_name":"Davanagere","ac":105,"ac_name":"Harihar","booth":130,"booth_name":"Beereshvara Higher Primary School Room No 1 Banuvalli"},"geometry":{"type":"Point","coordinates":[75.76054,14.4374752]}},{"type":"Feature","properties":{"state":"Karnataka","district":14,"district_n":"DAVANGERE","pc":13,"pc_name":"Davanagere","ac":105,"ac_name":"Harihar","booth":167,"booth_name":"Govt Higher Primary School East Wing Devarabelekare"},"geometry":{"type":"Point","coordinates":[75.83452,14.3978243]}},{"type":"Feature","properties":{"state":"Karnataka","district":14,"district_n":"DAVANGERE","pc":13,"pc_name":"Davanagere","ac":105,"ac_name":"Harihar","booth":173,"booth_name":"Govt Higher Primary School Room No 1 Kumbaluru"},"geometry":{"type":"Point","coordinates":[75.7512,14.3763466]}},{"type":"Feature","properties":{"state":"Karnataka","district":14,"district_n":"DAVANGERE","pc":13,"pc_name":"Davanagere","ac":105,"ac_name":"Harihar","booth":181,"booth_name":"Grama Panchayathi Office Kokkanuru"},"geometry":{"type":"Point","coordinates":[75.68294,14.3874512]}},{"type":"Feature","properties":{"state":"Karnataka","district":14,"district_n":"DAVANGERE","pc":13,"pc_name":"Davanagere","ac":105,"ac_name":"Harihar","booth":187,"booth_name":"Govt Higher Primary School Room No 1 Vasana"},"geometry":{"type":"Point","coordinates":[75.6537,14.4178343]}},{"type":"Feature","properties":{"state":"Karnataka","district":14,"district_n":"DAVANGERE","pc":13,"pc_name":"Davanagere","ac":105,"ac_name":"Harihar","booth":190,"booth_name":"Govt Higher Primary School Room No 1 Hindasaghatta"},"geometry":{"type":"Point","coordinates":[75.66789,14.3864231]}},{"type":"Feature","properties":{"state":"Karnataka","district":14,"district_n":"DAVANGERE","pc":13,"pc_name":"Davanagere","ac":105,"ac_name":"Harihar","booth":193,"booth_name":"Govt Higher Primary School Muginagondi"},"geometry":{"type":"Point","coordinates":[75.64577,14.3650312]}},{"type":"Feature","properties":{"state":"Karnataka","district":14,"district_n":"DAVANGERE","pc":13,"pc_name":"Davanagere","ac":105,"ac_name":"Harihar","booth":196,"booth_name":"Govt Higher Primary School North Wing G Bevinahalli"},"geometry":{"type":"Point","coordinates":[75.71868,14.3724127]}},{"type":"Feature","properties":{"state":"Karnataka","district":14,"district_n":"DAVANGERE","pc":13,"pc_name":"Davanagere","ac":105,"ac_name":"Harihar","booth":204,"booth_name":"Govt Higher Primary School Jbms Room No 1 South Wing Malebennuru"},"geometry":{"type":"Point","coordinates":[75.7395554,14.3497992]}},{"type":"Feature","properties":{"state":"Karnataka","district":14,"district_n":"DAVANGERE","pc":13,"pc_name":"Davanagere","ac":105,"ac_name":"Harihar","booth":210,"booth_name":"Govt Junior College Room No 3 Malebennuru"},"geometry":{"type":"Point","coordinates":[75.74105,14.3567591]}},{"type":"Feature","properties":{"state":"Karnataka","district":14,"district_n":"DAVANGERE","pc":13,"pc_name":"Davanagere","ac":105,"ac_name":"Harihar","booth":216,"booth_name":"Govt Urdu Urdu Primary School East Wing Wing Malebennuru"},"geometry":{"type":"Point","coordinates":[75.736145,14.3590117]}},{"type":"Feature","properties":{"state":"Karnataka","district":14,"district_n":"DAVANGERE","pc":13,"pc_name":"Davanagere","ac":105,"ac_name":"Harihar","booth":230,"booth_name":"Govt Higher Primary School Old Building Halivana"},"geometry":{"type":"Point","coordinates":[75.76664,14.32376]}},{"type":"Feature","properties":{"state":"Karnataka","district":14,"district_n":"DAVANGERE","pc":13,"pc_name":"Davanagere","ac":105,"ac_name":"Harihar","booth":124,"booth_name":"Govt Higher Primary School Dulehole"},"geometry":{"type":"Point","coordinates":[75.7333755,14.445365]}},{"type":"Feature","properties":{"state":"Karnataka","district":14,"district_n":"DAVANGERE","pc":13,"pc_name":"Davanagere","ac":105,"ac_name":"Harihar","booth":147,"booth_name":"Govt Higher Primary School Room No 2 Yalehole"},"geometry":{"type":"Point","coordinates":[75.67629,14.4608212]}},{"type":"Feature","properties":{"state":"Karnataka","district":14,"district_n":"DAVANGERE","pc":13,"pc_name":"Davanagere","ac":105,"ac_name":"Harihar","booth":153,"booth_name":"Govt Higher Primary School East Wing Kadaranaikanahalli"},"geometry":{"type":"Point","coordinates":[75.6875153,14.42029]}},{"type":"Feature","properties":{"state":"Karnataka","district":14,"district_n":"DAVANGERE","pc":13,"pc_name":"Davanagere","ac":105,"ac_name":"Harihar","booth":84,"booth_name":"Old Inspection Bungle, Irigation Colony, Harihara"},"geometry":{"type":"Point","coordinates":[75.8069458,14.50416]}},{"type":"Feature","properties":{"state":"Karnataka","district":14,"district_n":"DAVANGERE","pc":13,"pc_name":"Davanagere","ac":105,"ac_name":"Harihar","booth":110,"booth_name":"Govt Higher Primary School Nagenahalli"},"geometry":{"type":"Point","coordinates":[75.81215,14.462348]}},{"type":"Feature","properties":{"state":"Karnataka","district":14,"district_n":"DAVANGERE","pc":13,"pc_name":"Davanagere","ac":105,"ac_name":"Harihar","booth":7,"booth_name":"Govt Lower Primary School Kurubarahalli"},"geometry":{"type":"Point","coordinates":[75.84558,14.5968609]}},{"type":"Feature","properties":{"state":"Karnataka","district":14,"district_n":"DAVANGERE","pc":13,"pc_name":"Davanagere","ac":105,"ac_name":"Harihar","booth":121,"booth_name":"Govt Higher Primary School Nandigavi"},"geometry":{"type":"Point","coordinates":[75.69559,14.48982]}},{"type":"Feature","properties":{"state":"Karnataka","district":14,"district_n":"DAVANGERE","pc":13,"pc_name":"Davanagere","ac":105,"ac_name":"Harihar","booth":44,"booth_name":"Govt Higher Primary Urdu School Gandhi Maidana West Wing Harihara"},"geometry":{"type":"Point","coordinates":[75.80857,14.5147648]}},{"type":"Feature","properties":{"state":"Karnataka","district":14,"district_n":"DAVANGERE","pc":13,"pc_name":"Davanagere","ac":105,"ac_name":"Harihar","booth":148,"booth_name":"Govt Higher Primary School Room No 2 Yelehole"},"geometry":{"type":"Point","coordinates":[75.40343,14.2739]}},{"type":"Feature","properties":{"state":"Karnataka","district":14,"district_n":"DAVANGERE","pc":13,"pc_name":"Davanagere","ac":105,"ac_name":"Harihar","booth":142,"booth_name":"Govt Higher Primary School Holesirigere"},"geometry":{"type":"Point","coordinates":[75.42306,14.26253]}},{"type":"Feature","properties":{"state":"Karnataka","district":14,"district_n":"DAVANGERE","pc":13,"pc_name":"Davanagere","ac":105,"ac_name":"Harihar","booth":159,"booth_name":"Govt Higher Primary School Janatha Colony Colony Yalavatti"},"geometry":{"type":"Point","coordinates":[75.43025,14.2437]}},{"type":"Feature","properties":{"state":"Karnataka","district":14,"district_n":"DAVANGERE","pc":13,"pc_name":"Davanagere","ac":105,"ac_name":"Harihar","booth":76,"booth_name":"Govt Higher Primary School School High School School Ext New building Harihara"},"geometry":{"type":"Point","coordinates":[75.48287,14.30263]}},{"type":"Feature","properties":{"state":"Karnataka","district":14,"district_n":"DAVANGERE","pc":13,"pc_name":"Davanagere","ac":105,"ac_name":"Harihar","booth":38,"booth_name":"Govt Higher Primary School Hospete Beedi Harihara"},"geometry":{"type":"Point","coordinates":[75.48121,14.30487]}},{"type":"Feature","properties":{"state":"Karnataka","district":14,"district_n":"DAVANGERE","pc":13,"pc_name":"Davanagere","ac":105,"ac_name":"Harihar","booth":67,"booth_name":"Office Of Of The Range Forest Officer, Harihara"},"geometry":{"type":"Point","coordinates":[75.48305,14.31067]}},{"type":"Feature","properties":{"state":"Karnataka","district":14,"district_n":"DAVANGERE","pc":13,"pc_name":"Davanagere","ac":105,"ac_name":"Harihar","booth":40,"booth_name":"Shishuvihara Mahila Samaja,kote,harihara"},"geometry":{"type":"Point","coordinates":[75.481,14.30453]}},{"type":"Feature","properties":{"state":"Karnataka","district":14,"district_n":"DAVANGERE","pc":13,"pc_name":"Davanagere","ac":105,"ac_name":"Harihar","booth":51,"booth_name":"City Munciple Office, Room No 1, Harihar"},"geometry":{"type":"Point","coordinates":[75.80994,14.5141306]}},{"type":"Feature","properties":{"state":"Karnataka","district":14,"district_n":"DAVANGERE","pc":13,"pc_name":"Davanagere","ac":105,"ac_name":"Harihar","booth":217,"booth_name":"Govt Higher Primary Primary Urdu School Room no 1 Malebennuru"},"geometry":{"type":"Point","coordinates":[75.74197,14.3573389]}},{"type":"Feature","properties":{"state":"Karnataka","district":14,"district_n":"DAVANGERE","pc":13,"pc_name":"Davanagere","ac":105,"ac_name":"Harihar","booth":214,"booth_name":"Govt Lower Primary School Jigali Road Room No 1 Malebennuru"},"geometry":{"type":"Point","coordinates":[75.74035,14.35697]}},{"type":"Feature","properties":{"state":"Karnataka","district":14,"district_n":"DAVANGERE","pc":13,"pc_name":"Davanagere","ac":105,"ac_name":"Harihar","booth":203,"booth_name":"Govt Higher Primary School South Wing Pwd Colony Malebennuru"},"geometry":{"type":"Point","coordinates":[75.7394943,14.3497038]}},{"type":"Feature","properties":{"state":"Karnataka","district":14,"district_n":"DAVANGERE","pc":13,"pc_name":"Davanagere","ac":105,"ac_name":"Harihar","booth":231,"booth_name":"Govt Higher Primary School Old Building Room no 2 Halivana"},"geometry":{"type":"Point","coordinates":[75.76645,14.323741]}},{"type":"Feature","properties":{"state":"Karnataka","district":14,"district_n":"DAVANGERE","pc":13,"pc_name":"Davanagere","ac":105,"ac_name":"Harihar","booth":36,"booth_name":"Govt Higher Primary School Room No 2 2 Talavarakeri Harihara"},"geometry":{"type":"Point","coordinates":[75.8038559,14.5073948]}},{"type":"Feature","properties":{"state":"Karnataka","district":14,"district_n":"DAVANGERE","pc":13,"pc_name":"Davanagere","ac":105,"ac_name":"Harihar","booth":113,"booth_name":"Govt Higher Primary School Room No 1 East Wing Belludi"},"geometry":{"type":"Point","coordinates":[75.78438,14.4596891]}},{"type":"Feature","properties":{"state":"Karnataka","district":14,"district_n":"DAVANGERE","pc":13,"pc_name":"Davanagere","ac":105,"ac_name":"Harihar","booth":116,"booth_name":"Sri Patel Guru Basappa High School Room No 1 Belludi"},"geometry":{"type":"Point","coordinates":[75.7821045,14.4586191]}},{"type":"Feature","properties":{"state":"Karnataka","district":14,"district_n":"DAVANGERE","pc":13,"pc_name":"Davanagere","ac":105,"ac_name":"Harihar","booth":199,"booth_name":"Govt Higher Primary School, Kalleshwara Extn,room No 1 Malebennuru"},"geometry":{"type":"Point","coordinates":[75.74278,14.3525581]}},{"type":"Feature","properties":{"state":"Karnataka","district":14,"district_n":"DAVANGERE","pc":13,"pc_name":"Davanagere","ac":105,"ac_name":"Harihar","booth":61,"booth_name":"Mysore Kirloskar High School Room No 2 Right Wing Harihara"},"geometry":{"type":"Point","coordinates":[75.8081741,14.5200033]}},{"type":"Feature","properties":{"state":"Karnataka","district":14,"district_n":"DAVANGERE","pc":13,"pc_name":"Davanagere","ac":105,"ac_name":"Harihar","booth":58,"booth_name":"Govt Lower Lower Primary School Vinobanagara Vinobanagara Room No 1 Harihara"},"geometry":{"type":"Point","coordinates":[75.80827,14.5203171]}},{"type":"Feature","properties":{"state":"Karnataka","district":14,"district_n":"DAVANGERE","pc":13,"pc_name":"Davanagere","ac":105,"ac_name":"Harihar","booth":27,"booth_name":"Grama Panchayathi Office New Building Harlapura"},"geometry":{"type":"Point","coordinates":[75.81274,14.53418]}},{"type":"Feature","properties":{"state":"Karnataka","district":14,"district_n":"DAVANGERE","pc":13,"pc_name":"Davanagere","ac":105,"ac_name":"Harihar","booth":233,"booth_name":"Govt Higher Primary School Room no 2 Komaranahalli"},"geometry":{"type":"Point","coordinates":[75.7372,14.3403454]}},{"type":"Feature","properties":{"state":"Karnataka","district":14,"district_n":"DAVANGERE","pc":13,"pc_name":"Davanagere","ac":105,"ac_name":"Harihar","booth":1,"booth_name":"Govt Higher Primary School Chaikkabidare"},"geometry":{"type":"Point","coordinates":[75.8156357,14.6270256]}},{"type":"Feature","properties":{"state":"Karnataka","district":14,"district_n":"DAVANGERE","pc":13,"pc_name":"Davanagere","ac":105,"ac_name":"Harihar","booth":226,"booth_name":"Govt Higher Primary School East Wing Haralahalli"},"geometry":{"type":"Point","coordinates":[75.78224,14.331974]}},{"type":"Feature","properties":{"state":"Karnataka","district":14,"district_n":"DAVANGERE","pc":13,"pc_name":"Davanagere","ac":105,"ac_name":"Harihar","booth":227,"booth_name":"Govt Higher Primary School West Wing Haralahalli"},"geometry":{"type":"Point","coordinates":[75.78218,14.3315372]}}]}