{"type":"FeatureCollection","features":[{"type":"Feature","properties":{"state":"Karnataka","district":14,"district_n":"DAVANGERE","pc":13,"pc_name":"Davanagere","ac":107,"ac_name":"Davanagere South","booth":2,"booth_name":"Govt Lower Lower Primary School Yaragunte"},"geometry":{"type":"Point","coordinates":[75.8966,14.485034]}},{"type":"Feature","properties":{"state":"Karnataka","district":14,"district_n":"DAVANGERE","pc":13,"pc_name":"Davanagere","ac":107,"ac_name":"Davanagere South","booth":20,"booth_name":"Govt Higher Primary School S P S Nagara 2nd Stage West Wing Room No 2 Davangere"},"geometry":{"type":"Point","coordinates":[75.9118652,14.4842472]}},{"type":"Feature","properties":{"state":"Karnataka","district":14,"district_n":"DAVANGERE","pc":13,"pc_name":"Davanagere","ac":107,"ac_name":"Davanagere South","booth":28,"booth_name":"Anjaneya High School Vijaynagar Extn Kondajji Road East Wing Davangere"},"geometry":{"type":"Point","coordinates":[75.90807,14.4791422]}},{"type":"Feature","properties":{"state":"Karnataka","district":14,"district_n":"DAVANGERE","pc":13,"pc_name":"Davanagere","ac":107,"ac_name":"Davanagere South","booth":31,"booth_name":"Haralayya Education Trust Trust Sri S M Krishna Mahavidyalaya, Kailasa Road Choudeshwari Nagara, Davangere"},"geometry":{"type":"Point","coordinates":[75.9183044,14.4785337]}},{"type":"Feature","properties":{"state":"Karnataka","district":14,"district_n":"DAVANGERE","pc":13,"pc_name":"Davanagere","ac":107,"ac_name":"Davanagere South","booth":45,"booth_name":"Govt Kannada Urdu Primary School Near Water Tank Besides Millath School Bashanagar Roomno1davanagere"},"geometry":{"type":"Point","coordinates":[75.92177,14.4820623]}},{"type":"Feature","properties":{"state":"Karnataka","district":14,"district_n":"DAVANGERE","pc":13,"pc_name":"Davanagere","ac":107,"ac_name":"Davanagere South","booth":48,"booth_name":"Govt Higher Kannada Primary School S S Mallikarjun Nagar 3rd Stage Room No1 Davangere"},"geometry":{"type":"Point","coordinates":[75.92206,14.4913549]}},{"type":"Feature","properties":{"state":"Karnataka","district":14,"district_n":"DAVANGERE","pc":13,"pc_name":"Davanagere","ac":107,"ac_name":"Davanagere South","booth":51,"booth_name":"Govt Higher Urdu Primary School S S Mallikarjun Nagar 2nd Stage Room No1 Davangere"},"geometry":{"type":"Point","coordinates":[75.9220047,14.4913683]}},{"type":"Feature","properties":{"state":"Karnataka","district":14,"district_n":"DAVANGERE","pc":13,"pc_name":"Davanagere","ac":107,"ac_name":"Davanagere South","booth":65,"booth_name":"Millath Junior College South Wing Room No 5 Davangere"},"geometry":{"type":"Point","coordinates":[75.92243,14.4810629]}},{"type":"Feature","properties":{"state":"Karnataka","district":14,"district_n":"DAVANGERE","pc":13,"pc_name":"Davanagere","ac":107,"ac_name":"Davanagere South","booth":140,"booth_name":"Basaveshwaraviidyasamste Smt Parvathammahallurnarayanappahps R N1 Northwing Basavarajpet Davanagere"},"geometry":{"type":"Point","coordinates":[75.92215,14.4752951]}},{"type":"Feature","properties":{"state":"Karnataka","district":14,"district_n":"DAVANGERE","pc":13,"pc_name":"Davanagere","ac":107,"ac_name":"Davanagere South","booth":8,"booth_name":"Durgadevi Primary School Bharatamba Education Trust Room No 1 Kondajji Road Davangere"},"geometry":{"type":"Point","coordinates":[75.90454,14.4825907]}},{"type":"Feature","properties":{"state":"Karnataka","district":14,"district_n":"DAVANGERE","pc":13,"pc_name":"Davanagere","ac":107,"ac_name":"Davanagere South","booth":11,"booth_name":"Durgadevi Primary School Bharatamba Education Trust Room No 3 Kondajji Road Davangere"},"geometry":{"type":"Point","coordinates":[75.90454,14.4825907]}},{"type":"Feature","properties":{"state":"Karnataka","district":14,"district_n":"DAVANGERE","pc":13,"pc_name":"Davanagere","ac":107,"ac_name":"Davanagere South","booth":14,"booth_name":"Sri Murugharajendra Higher Primary School Shibara Road Room No 1 Davangere"},"geometry":{"type":"Point","coordinates":[75.9122543,14.4777126]}},{"type":"Feature","properties":{"state":"Karnataka","district":14,"district_n":"DAVANGERE","pc":13,"pc_name":"Davanagere","ac":107,"ac_name":"Davanagere South","booth":16,"booth_name":"Govt Higher Primary Boys School Room No 1 Duggammana Gudi Circle Davangere"},"geometry":{"type":"Point","coordinates":[75.9172058,14.4746532]}},{"type":"Feature","properties":{"state":"Karnataka","district":14,"district_n":"DAVANGERE","pc":13,"pc_name":"Davanagere","ac":107,"ac_name":"Davanagere South","booth":17,"booth_name":"Govt Higher Primary Boys School Room No 2 Duggammanagudi Circle West Wing Room No 2 Davangere"},"geometry":{"type":"Point","coordinates":[75.9118652,14.4842472]}},{"type":"Feature","properties":{"state":"Karnataka","district":14,"district_n":"DAVANGERE","pc":13,"pc_name":"Davanagere","ac":107,"ac_name":"Davanagere South","booth":22,"booth_name":"Govt Higher Primary Boys School Sps Nagara 2nd Stage West Wing Room No 3 Davangere"},"geometry":{"type":"Point","coordinates":[75.9118652,14.4842472]}},{"type":"Feature","properties":{"state":"Karnataka","district":14,"district_n":"DAVANGERE","pc":13,"pc_name":"Davanagere","ac":107,"ac_name":"Davanagere South","booth":37,"booth_name":"Sri Hirematha Mahalingappa Swamiji Ghps Halepete Beerappanakana Kurubarakeri Room No 1 Davangere"},"geometry":{"type":"Point","coordinates":[75.9173,14.4761133]}},{"type":"Feature","properties":{"state":"Karnataka","district":14,"district_n":"DAVANGERE","pc":13,"pc_name":"Davanagere","ac":107,"ac_name":"Davanagere South","booth":39,"booth_name":"Durgambika Nursery School Choukimane, Besides Duggamma Temple Davangere"},"geometry":{"type":"Point","coordinates":[75.91701,14.4750233]}},{"type":"Feature","properties":{"state":"Karnataka","district":14,"district_n":"DAVANGERE","pc":13,"pc_name":"Davanagere","ac":107,"ac_name":"Davanagere South","booth":40,"booth_name":"Social Welfare Development Centre Children & Women Development Department Gandhinagara Davangere"},"geometry":{"type":"Point","coordinates":[75.91971,14.4782391]}},{"type":"Feature","properties":{"state":"Karnataka","district":14,"district_n":"DAVANGERE","pc":13,"pc_name":"Davanagere","ac":107,"ac_name":"Davanagere South","booth":42,"booth_name":"Govt Higher Primary Boys School Room No 1 North Wing Gandhinagara Davangere"},"geometry":{"type":"Point","coordinates":[75.9208,14.4787626]}},{"type":"Feature","properties":{"state":"Karnataka","district":14,"district_n":"DAVANGERE","pc":13,"pc_name":"Davanagere","ac":107,"ac_name":"Davanagere South","booth":43,"booth_name":"Govt Higher Primary Boys School Room No 2 North Wing Gandhinagara Davangere"},"geometry":{"type":"Point","coordinates":[75.92058,14.4772654]}},{"type":"Feature","properties":{"state":"Karnataka","district":14,"district_n":"DAVANGERE","pc":13,"pc_name":"Davanagere","ac":107,"ac_name":"Davanagere South","booth":57,"booth_name":"Govt Higher Urdu Primary School Opp Opp E S I Hospital Sir Mirza Ismail Nagar Room No1 Davangere"},"geometry":{"type":"Point","coordinates":[75.92448,14.4807272]}},{"type":"Feature","properties":{"state":"Karnataka","district":14,"district_n":"DAVANGERE","pc":13,"pc_name":"Davanagere","ac":107,"ac_name":"Davanagere South","booth":59,"booth_name":"Govt Lower Primary School K K Colony Jagalur Road Davangere"},"geometry":{"type":"Point","coordinates":[75.92962,14.4792929]}},{"type":"Feature","properties":{"state":"Karnataka","district":14,"district_n":"DAVANGERE","pc":13,"pc_name":"Davanagere","ac":107,"ac_name":"Davanagere South","booth":60,"booth_name":"Siddarameshwara Higher Primary School South Wing Room No 1 Davangere"},"geometry":{"type":"Point","coordinates":[75.92947,14.4826508]}},{"type":"Feature","properties":{"state":"Karnataka","district":14,"district_n":"DAVANGERE","pc":13,"pc_name":"Davanagere","ac":107,"ac_name":"Davanagere South","booth":62,"booth_name":"Millath Junior College North Wing Room No1 Davangere"},"geometry":{"type":"Point","coordinates":[75.92243,14.4810629]}},{"type":"Feature","properties":{"state":"Karnataka","district":14,"district_n":"DAVANGERE","pc":13,"pc_name":"Davanagere","ac":107,"ac_name":"Davanagere South","booth":63,"booth_name":"Millath Junior College South Wing Room No 2 Davangere"},"geometry":{"type":"Point","coordinates":[75.92243,14.4810629]}},{"type":"Feature","properties":{"state":"Karnataka","district":14,"district_n":"DAVANGERE","pc":13,"pc_name":"Davanagere","ac":107,"ac_name":"Davanagere South","booth":68,"booth_name":"Millath Junior College Millath Vidya Samsthe Room No 1 Davangere"},"geometry":{"type":"Point","coordinates":[75.92243,14.4810629]}},{"type":"Feature","properties":{"state":"Karnataka","district":14,"district_n":"DAVANGERE","pc":13,"pc_name":"Davanagere","ac":107,"ac_name":"Davanagere South","booth":71,"booth_name":"Shri Anjaneya Vidya Samsthe High School Mehboob Nagar Room No 2 Davangere"},"geometry":{"type":"Point","coordinates":[75.92334,14.4834852]}},{"type":"Feature","properties":{"state":"Karnataka","district":14,"district_n":"DAVANGERE","pc":13,"pc_name":"Davanagere","ac":107,"ac_name":"Davanagere South","booth":74,"booth_name":"G K Urdu Higher Primary School School Bashanagar Room No 3 Bhashanagara 4th Cross Davangere"},"geometry":{"type":"Point","coordinates":[75.92219,14.4805021]}},{"type":"Feature","properties":{"state":"Karnataka","district":14,"district_n":"DAVANGERE","pc":13,"pc_name":"Davanagere","ac":107,"ac_name":"Davanagere South","booth":77,"booth_name":"Gulistha A Musthaf Primary School North Wing Ajad Nagar Davangere"},"geometry":{"type":"Point","coordinates":[75.92177,14.478653]}},{"type":"Feature","properties":{"state":"Karnataka","district":14,"district_n":"DAVANGERE","pc":13,"pc_name":"Davanagere","ac":107,"ac_name":"Davanagere South","booth":79,"booth_name":"Govt Urdu Boys School West Wing Room No 2 2 Maganahalli Road Davangere"},"geometry":{"type":"Point","coordinates":[75.92532,14.478014]}},{"type":"Feature","properties":{"state":"Karnataka","district":14,"district_n":"DAVANGERE","pc":13,"pc_name":"Davanagere","ac":107,"ac_name":"Davanagere South","booth":80,"booth_name":"Govt Urdu Higher Primary Boys School 7th Cross Ajad Nagar South Wing Davangere"},"geometry":{"type":"Point","coordinates":[75.92227,14.4784832]}},{"type":"Feature","properties":{"state":"Karnataka","district":14,"district_n":"DAVANGERE","pc":13,"pc_name":"Davanagere","ac":107,"ac_name":"Davanagere South","booth":82,"booth_name":"Govt Urdu Higher Primary Boys School Maganalli Road Room No 1 Davangere"},"geometry":{"type":"Point","coordinates":[75.92537,14.4779873]}},{"type":"Feature","properties":{"state":"Karnataka","district":14,"district_n":"DAVANGERE","pc":13,"pc_name":"Davanagere","ac":107,"ac_name":"Davanagere South","booth":83,"booth_name":"Govt Urdu Higher Primary Boys School Maganalli Road Room No 2 Davangere"},"geometry":{"type":"Point","coordinates":[75.92537,14.4779873]}},{"type":"Feature","properties":{"state":"Karnataka","district":14,"district_n":"DAVANGERE","pc":13,"pc_name":"Davanagere","ac":107,"ac_name":"Davanagere South","booth":85,"booth_name":"Govt Higher Urdu Primary Boys School Room No 2 East Wing Ahmadnagar Azadnagar 4th Cross Davangere"},"geometry":{"type":"Point","coordinates":[75.92255,14.4767513]}},{"type":"Feature","properties":{"state":"Karnataka","district":14,"district_n":"DAVANGERE","pc":13,"pc_name":"Davanagere","ac":107,"ac_name":"Davanagere South","booth":86,"booth_name":"Sri Sri C Abdul Rahim High School Middle Wing Wing Bethur Road Davangere"},"geometry":{"type":"Point","coordinates":[75.92124,14.4759378]}},{"type":"Feature","properties":{"state":"Karnataka","district":14,"district_n":"DAVANGERE","pc":13,"pc_name":"Davanagere","ac":107,"ac_name":"Davanagere South","booth":88,"booth_name":"Municipal Higher Primary Boys School New Building Gandhinagar East Wing Davangere"},"geometry":{"type":"Point","coordinates":[75.92057,14.4772711]}},{"type":"Feature","properties":{"state":"Karnataka","district":14,"district_n":"DAVANGERE","pc":13,"pc_name":"Davanagere","ac":107,"ac_name":"Davanagere South","booth":91,"booth_name":"Govt Higher Primary Boys School West Wing Vaddara Keri Davangere"},"geometry":{"type":"Point","coordinates":[75.92533,14.475955]}},{"type":"Feature","properties":{"state":"Karnataka","district":14,"district_n":"DAVANGERE","pc":13,"pc_name":"Davanagere","ac":107,"ac_name":"Davanagere South","booth":94,"booth_name":"Kogundi Bakkaiah Higher Primary School Jagalur Road Road Behind Giri Talkies Room No 1 Davangere"},"geometry":{"type":"Point","coordinates":[75.92933,14.478344]}},{"type":"Feature","properties":{"state":"Karnataka","district":14,"district_n":"DAVANGERE","pc":13,"pc_name":"Davanagere","ac":107,"ac_name":"Davanagere South","booth":97,"booth_name":"Bankapurada Nanjundappa Sridevaraja Educationsociety Higher Primary School Middlewing Jagalur Rd Davangere"},"geometry":{"type":"Point","coordinates":[75.92909,14.4814224]}},{"type":"Feature","properties":{"state":"Karnataka","district":14,"district_n":"DAVANGERE","pc":13,"pc_name":"Davanagere","ac":107,"ac_name":"Davanagere South","booth":185,"booth_name":"Govt Govt Higher Primary School Turchagatta"},"geometry":{"type":"Point","coordinates":[75.92475,14.3765116]}},{"type":"Feature","properties":{"state":"Karnataka","district":14,"district_n":"DAVANGERE","pc":13,"pc_name":"Davanagere","ac":107,"ac_name":"Davanagere South","booth":99,"booth_name":"Govt Higher Primary School Room No 1 Anekonda Davangere"},"geometry":{"type":"Point","coordinates":[75.9301147,14.4760933]}},{"type":"Feature","properties":{"state":"Karnataka","district":14,"district_n":"DAVANGERE","pc":13,"pc_name":"Davanagere","ac":107,"ac_name":"Davanagere South","booth":102,"booth_name":"Govt Higher Primary School Room No 1 Basapura"},"geometry":{"type":"Point","coordinates":[75.94176,14.4702578]}},{"type":"Feature","properties":{"state":"Karnataka","district":14,"district_n":"DAVANGERE","pc":13,"pc_name":"Davanagere","ac":107,"ac_name":"Davanagere South","booth":103,"booth_name":"Govt Higher Primary School Room No 2 Basapura"},"geometry":{"type":"Point","coordinates":[75.94176,14.4702578]}},{"type":"Feature","properties":{"state":"Karnataka","district":14,"district_n":"DAVANGERE","pc":13,"pc_name":"Davanagere","ac":107,"ac_name":"Davanagere South","booth":105,"booth_name":"Govt Higher Primary School(south Wing) Bharath Colony Davangere"},"geometry":{"type":"Point","coordinates":[75.9342957,14.4657841]}},{"type":"Feature","properties":{"state":"Karnataka","district":14,"district_n":"DAVANGERE","pc":13,"pc_name":"Davanagere","ac":107,"ac_name":"Davanagere South","booth":106,"booth_name":"Govt Higher Primary Boys School Bharath Colony West Wing Davangere"},"geometry":{"type":"Point","coordinates":[75.9342957,14.4657841]}},{"type":"Feature","properties":{"state":"Karnataka","district":14,"district_n":"DAVANGERE","pc":13,"pc_name":"Davanagere","ac":107,"ac_name":"Davanagere South","booth":108,"booth_name":"Govt Higher Primary Boys School (west Wing) Bharath Colony Room No 2 Davangere"},"geometry":{"type":"Point","coordinates":[75.9342957,14.4657841]}},{"type":"Feature","properties":{"state":"Karnataka","district":14,"district_n":"DAVANGERE","pc":13,"pc_name":"Davanagere","ac":107,"ac_name":"Davanagere South","booth":111,"booth_name":"Karibasaveshwara Karibasaveshwara Higher Primary School Kabbur Basappanagar Davangere"},"geometry":{"type":"Point","coordinates":[75.9344,14.4678059]}},{"type":"Feature","properties":{"state":"Karnataka","district":14,"district_n":"DAVANGERE","pc":13,"pc_name":"Davanagere","ac":107,"ac_name":"Davanagere South","booth":117,"booth_name":"Girls High School Mahila Sevasamaja Complex Near Javadeva circle Davangere"},"geometry":{"type":"Point","coordinates":[75.921814,14.465044]}},{"type":"Feature","properties":{"state":"Karnataka","district":14,"district_n":"DAVANGERE","pc":13,"pc_name":"Davanagere","ac":107,"ac_name":"Davanagere South","booth":119,"booth_name":"Smt Gowramma Dm Hangodimath Hps College Road West Wing Behind Rangamantapa Lalbahuddurshastri Rm Dvg"},"geometry":{"type":"Point","coordinates":[75.92068,14.4626627]}},{"type":"Feature","properties":{"state":"Karnataka","district":14,"district_n":"DAVANGERE","pc":13,"pc_name":"Davanagere","ac":107,"ac_name":"Davanagere South","booth":120,"booth_name":"Govt Lower Primary School Municipal Building Rambapuri Jagadguru Road,shekharappanagara Behindes Water Tank Davangere"},"geometry":{"type":"Point","coordinates":[75.9311,14.46554]}},{"type":"Feature","properties":{"state":"Karnataka","district":14,"district_n":"DAVANGERE","pc":13,"pc_name":"Davanagere","ac":107,"ac_name":"Davanagere South","booth":122,"booth_name":"Mudegowdra Mallamma Murigeppa Girls High School Room No 1 Jagalur Road Davangere"},"geometry":{"type":"Point","coordinates":[75.92531,14.4735184]}},{"type":"Feature","properties":{"state":"Karnataka","district":14,"district_n":"DAVANGERE","pc":13,"pc_name":"Davanagere","ac":107,"ac_name":"Davanagere South","booth":123,"booth_name":"Ex Municipal High School K R Road Davangere"},"geometry":{"type":"Point","coordinates":[75.92506,14.4713469]}},{"type":"Feature","properties":{"state":"Karnataka","district":14,"district_n":"DAVANGERE","pc":13,"pc_name":"Davanagere","ac":107,"ac_name":"Davanagere South","booth":125,"booth_name":"Govt Urdu Boys School B E O Office Compound B T Galli Near Maruthi Coffee Works Davangere"},"geometry":{"type":"Point","coordinates":[75.921524,14.4712276]}},{"type":"Feature","properties":{"state":"Karnataka","district":14,"district_n":"DAVANGERE","pc":13,"pc_name":"Davanagere","ac":107,"ac_name":"Davanagere South","booth":126,"booth_name":"Sri Sangameshwara Primary School Westwing Sri Kalikadevi Road Besides Clothshop of Bs Channabasappa"},"geometry":{"type":"Point","coordinates":[75.91918,14.47289]}},{"type":"Feature","properties":{"state":"Karnataka","district":14,"district_n":"DAVANGERE","pc":13,"pc_name":"Davanagere","ac":107,"ac_name":"Davanagere South","booth":128,"booth_name":"Anganavadi Centre Besides Garadimane Jublibavi Road Davangere"},"geometry":{"type":"Point","coordinates":[75.921936,14.47344]}},{"type":"Feature","properties":{"state":"Karnataka","district":14,"district_n":"DAVANGERE","pc":13,"pc_name":"Davanagere","ac":107,"ac_name":"Davanagere South","booth":129,"booth_name":"Govt Higher Primary Boys School Fodder Market Chamarajapete Davangere"},"geometry":{"type":"Point","coordinates":[75.9247055,14.4732227]}},{"type":"Feature","properties":{"state":"Karnataka","district":14,"district_n":"DAVANGERE","pc":13,"pc_name":"Davanagere","ac":107,"ac_name":"Davanagere South","booth":131,"booth_name":"Municipal Education Fund Asociation Nursery School 3rd R C C Tank Premises Narasarajapet Davangere"},"geometry":{"type":"Point","coordinates":[75.92472,14.4744854]}},{"type":"Feature","properties":{"state":"Karnataka","district":14,"district_n":"DAVANGERE","pc":13,"pc_name":"Davanagere","ac":107,"ac_name":"Davanagere South","booth":134,"booth_name":"Smt Devamma A R Basavarajappa High School Amarappanathota R M C Road West Wing Room No 2 Davanagere"},"geometry":{"type":"Point","coordinates":[75.92872,14.47555]}},{"type":"Feature","properties":{"state":"Karnataka","district":14,"district_n":"DAVANGERE","pc":13,"pc_name":"Davanagere","ac":107,"ac_name":"Davanagere South","booth":137,"booth_name":"Ox ford Higher Primary School Rmc Road Anekonda Near Bdo Quarters Davangere"},"geometry":{"type":"Point","coordinates":[75.92898,14.4760809]}},{"type":"Feature","properties":{"state":"Karnataka","district":14,"district_n":"DAVANGERE","pc":13,"pc_name":"Davanagere","ac":107,"ac_name":"Davanagere South","booth":142,"booth_name":"Hazij Abdul Ajeez P U College Old Bethur Road Davangere"},"geometry":{"type":"Point","coordinates":[75.9213638,14.4770317]}},{"type":"Feature","properties":{"state":"Karnataka","district":14,"district_n":"DAVANGERE","pc":13,"pc_name":"Davanagere","ac":107,"ac_name":"Davanagere South","booth":143,"booth_name":"Sri Basaveshwara Vidyasamste Smt Parvathammahalluru Narayanappa H P School Room No2 Middlewing Basavarajpete Davangere"},"geometry":{"type":"Point","coordinates":[75.92215,14.4752951]}},{"type":"Feature","properties":{"state":"Karnataka","district":14,"district_n":"DAVANGERE","pc":13,"pc_name":"Davanagere","ac":107,"ac_name":"Davanagere South","booth":145,"booth_name":"Govt Higher Primary School Halepet Room No2 Besides Veerabhadreshwara Temple Davangere"},"geometry":{"type":"Point","coordinates":[75.91761,14.4748955]}},{"type":"Feature","properties":{"state":"Karnataka","district":14,"district_n":"DAVANGERE","pc":13,"pc_name":"Davanagere","ac":107,"ac_name":"Davanagere South","booth":146,"booth_name":"Govt Higher Primary School Boosapete Shivaji Circle Davanagere"},"geometry":{"type":"Point","coordinates":[75.91725,14.47454]}},{"type":"Feature","properties":{"state":"Karnataka","district":14,"district_n":"DAVANGERE","pc":13,"pc_name":"Davanagere","ac":107,"ac_name":"Davanagere South","booth":148,"booth_name":"Channagiri Virupakshappa Vanajakshamma Higher Primary School South Room No 2 Wing Skp Road Davangere"},"geometry":{"type":"Point","coordinates":[75.91752,14.4729567]}},{"type":"Feature","properties":{"state":"Karnataka","district":14,"district_n":"DAVANGERE","pc":13,"pc_name":"Davanagere","ac":107,"ac_name":"Davanagere South","booth":149,"booth_name":"Jeejamatha Primary School (east Wing) Beside Pathala Lingeshwara Temple Temple Davangere"},"geometry":{"type":"Point","coordinates":[75.91645,14.4717808]}},{"type":"Feature","properties":{"state":"Karnataka","district":14,"district_n":"DAVANGERE","pc":13,"pc_name":"Davanagere","ac":107,"ac_name":"Davanagere South","booth":154,"booth_name":"Janathavidyalaya Smt Kotramma Sharanarthi Shivalingappa H P School Hondada Road Jalinagara Davangere"},"geometry":{"type":"Point","coordinates":[75.9149551,14.4712687]}},{"type":"Feature","properties":{"state":"Karnataka","district":14,"district_n":"DAVANGERE","pc":13,"pc_name":"Davanagere","ac":107,"ac_name":"Davanagere South","booth":157,"booth_name":"Sub Registrar Office, Taluk Office Premises Davangere"},"geometry":{"type":"Point","coordinates":[75.9193344,14.4688473]}},{"type":"Feature","properties":{"state":"Karnataka","district":14,"district_n":"DAVANGERE","pc":13,"pc_name":"Davanagere","ac":107,"ac_name":"Davanagere South","booth":160,"booth_name":"Durgambika Trust Committee School(east Wing) Room No 3 Jalinagar Davangere"},"geometry":{"type":"Point","coordinates":[75.91448,14.4716711]}},{"type":"Feature","properties":{"state":"Karnataka","district":14,"district_n":"DAVANGERE","pc":13,"pc_name":"Davanagere","ac":107,"ac_name":"Davanagere South","booth":163,"booth_name":"Durgambika Trust Committee School(south Wing) Jalinagar Davangere"},"geometry":{"type":"Point","coordinates":[75.91448,14.4716711]}},{"type":"Feature","properties":{"state":"Karnataka","district":14,"district_n":"DAVANGERE","pc":13,"pc_name":"Davanagere","ac":107,"ac_name":"Davanagere South","booth":165,"booth_name":"Gnanadeepa Convent Devaraj Urs Exten B Block Davangere"},"geometry":{"type":"Point","coordinates":[75.91014,14.473402]}},{"type":"Feature","properties":{"state":"Karnataka","district":14,"district_n":"DAVANGERE","pc":13,"pc_name":"Davanagere","ac":107,"ac_name":"Davanagere South","booth":166,"booth_name":"Gnanabharathi Vidyasamste Gnanabharathi Convent 2nd Main2nd Cross Suresh( Jali) Nagara R N1 Davangere"},"geometry":{"type":"Point","coordinates":[75.91282,14.4723577]}},{"type":"Feature","properties":{"state":"Karnataka","district":14,"district_n":"DAVANGERE","pc":13,"pc_name":"Davanagere","ac":107,"ac_name":"Davanagere South","booth":168,"booth_name":"Govt Higher Urdu Primary School Behind Masjid Masjid Suresh Nagar 2nd Main Road Davangere"},"geometry":{"type":"Point","coordinates":[75.9135742,14.4724426]}},{"type":"Feature","properties":{"state":"Karnataka","district":14,"district_n":"DAVANGERE","pc":13,"pc_name":"Davanagere","ac":107,"ac_name":"Davanagere South","booth":169,"booth_name":"Smt Chiradoni Kamalamma Vythimmashetti Govt H P School Devaraj Urs Exten Westwing R No1 Davanagere"},"geometry":{"type":"Point","coordinates":[75.90963,14.4749794]}},{"type":"Feature","properties":{"state":"Karnataka","district":14,"district_n":"DAVANGERE","pc":13,"pc_name":"Davanagere","ac":107,"ac_name":"Davanagere South","booth":171,"booth_name":"Govt Higher Primary School Room No 1 Jareekatte"},"geometry":{"type":"Point","coordinates":[75.8632,14.40948]}},{"type":"Feature","properties":{"state":"Karnataka","district":14,"district_n":"DAVANGERE","pc":13,"pc_name":"Davanagere","ac":107,"ac_name":"Davanagere South","booth":174,"booth_name":"Govt Composite High School Naganuru"},"geometry":{"type":"Point","coordinates":[75.8984146,14.419755]}},{"type":"Feature","properties":{"state":"Karnataka","district":14,"district_n":"DAVANGERE","pc":13,"pc_name":"Davanagere","ac":107,"ac_name":"Davanagere South","booth":177,"booth_name":"Govt Higher Primary School (old Building) Belavanur"},"geometry":{"type":"Point","coordinates":[75.92231,14.3893728]}},{"type":"Feature","properties":{"state":"Karnataka","district":14,"district_n":"DAVANGERE","pc":13,"pc_name":"Davanagere","ac":107,"ac_name":"Davanagere South","booth":180,"booth_name":"Govt Higher Primary School Belavanur Taralubalunagara"},"geometry":{"type":"Point","coordinates":[75.9051,14.3887873]}},{"type":"Feature","properties":{"state":"Karnataka","district":14,"district_n":"DAVANGERE","pc":13,"pc_name":"Davanagere","ac":107,"ac_name":"Davanagere South","booth":182,"booth_name":"Govt Lower Primary School Bullapura"},"geometry":{"type":"Point","coordinates":[75.95056,14.3650084]}},{"type":"Feature","properties":{"state":"Karnataka","district":14,"district_n":"DAVANGERE","pc":13,"pc_name":"Davanagere","ac":107,"ac_name":"Davanagere South","booth":183,"booth_name":"Govt Higher Primary School Room No 1 Turchagatta"},"geometry":{"type":"Point","coordinates":[75.92475,14.3765116]}},{"type":"Feature","properties":{"state":"Karnataka","district":14,"district_n":"DAVANGERE","pc":13,"pc_name":"Davanagere","ac":107,"ac_name":"Davanagere South","booth":186,"booth_name":"Govt Higher Primary School Hosa Nayakanahalli"},"geometry":{"type":"Point","coordinates":[75.91524,14.3637838]}},{"type":"Feature","properties":{"state":"Karnataka","district":14,"district_n":"DAVANGERE","pc":13,"pc_name":"Davanagere","ac":107,"ac_name":"Davanagere South","booth":188,"booth_name":"Govt Higher Primary School Room No 1 Halebisleri"},"geometry":{"type":"Point","coordinates":[75.88114,14.3971491]}},{"type":"Feature","properties":{"state":"Karnataka","district":14,"district_n":"DAVANGERE","pc":13,"pc_name":"Davanagere","ac":107,"ac_name":"Davanagere South","booth":191,"booth_name":"Govt Higher Primary School Mudahadadi"},"geometry":{"type":"Point","coordinates":[75.78671,14.3159819]}},{"type":"Feature","properties":{"state":"Karnataka","district":14,"district_n":"DAVANGERE","pc":13,"pc_name":"Davanagere","ac":107,"ac_name":"Davanagere South","booth":194,"booth_name":"Govt Higher Primary School Kanagondanahalli"},"geometry":{"type":"Point","coordinates":[75.906395,14.39245]}},{"type":"Feature","properties":{"state":"Karnataka","district":14,"district_n":"DAVANGERE","pc":13,"pc_name":"Davanagere","ac":107,"ac_name":"Davanagere South","booth":197,"booth_name":"Govt Higher Primary School Room no 1 Hadadi"},"geometry":{"type":"Point","coordinates":[75.89252,14.3661633]}},{"type":"Feature","properties":{"state":"Karnataka","district":14,"district_n":"DAVANGERE","pc":13,"pc_name":"Davanagere","ac":107,"ac_name":"Davanagere South","booth":200,"booth_name":"Govt Higher Primary School Room No 1 Kaidale"},"geometry":{"type":"Point","coordinates":[75.9058762,14.3401127]}},{"type":"Feature","properties":{"state":"Karnataka","district":14,"district_n":"DAVANGERE","pc":13,"pc_name":"Davanagere","ac":107,"ac_name":"Davanagere South","booth":202,"booth_name":"Govt Higher Primary School Room No 2 Kaidale"},"geometry":{"type":"Point","coordinates":[75.9059753,14.34018]}},{"type":"Feature","properties":{"state":"Karnataka","district":14,"district_n":"DAVANGERE","pc":13,"pc_name":"Davanagere","ac":107,"ac_name":"Davanagere South","booth":3,"booth_name":"Govt Govt Lower Primary School, Yargunte"},"geometry":{"type":"Point","coordinates":[75.8966,14.485034]}},{"type":"Feature","properties":{"state":"Karnataka","district":14,"district_n":"DAVANGERE","pc":13,"pc_name":"Davanagere","ac":107,"ac_name":"Davanagere South","booth":66,"booth_name":"Millath Education Education Association Association Higher School, Basha Nagara"},"geometry":{"type":"Point","coordinates":[75.92243,14.4810629]}},{"type":"Feature","properties":{"state":"Karnataka","district":14,"district_n":"DAVANGERE","pc":13,"pc_name":"Davanagere","ac":107,"ac_name":"Davanagere South","booth":34,"booth_name":"Govt Govt Higher Primary School, Sps Nagara, Nagara, 1st Stage, Budihal Budihal Budihal Road"},"geometry":{"type":"Point","coordinates":[75.9158859,14.4811506]}},{"type":"Feature","properties":{"state":"Karnataka","district":14,"district_n":"DAVANGERE","pc":13,"pc_name":"Davanagere","ac":107,"ac_name":"Davanagere South","booth":23,"booth_name":"Govt Govt Higher Primary Boys School, Sps Nagar, Iind Stage, West Wing"},"geometry":{"type":"Point","coordinates":[75.9118652,14.4842472]}},{"type":"Feature","properties":{"state":"Karnataka","district":14,"district_n":"DAVANGERE","pc":13,"pc_name":"Davanagere","ac":107,"ac_name":"Davanagere South","booth":1,"booth_name":"Govt Lower Lower Primary School Karuru"},"geometry":{"type":"Point","coordinates":[75.89223,14.4831009]}},{"type":"Feature","properties":{"state":"Karnataka","district":14,"district_n":"DAVANGERE","pc":13,"pc_name":"Davanagere","ac":107,"ac_name":"Davanagere South","booth":4,"booth_name":"Govt Urdu Higher Primary School (room No1) No1) S J M Nagara Holehonnuru Thota Davangere"},"geometry":{"type":"Point","coordinates":[75.906105,14.4836693]}},{"type":"Feature","properties":{"state":"Karnataka","district":14,"district_n":"DAVANGERE","pc":13,"pc_name":"Davanagere","ac":107,"ac_name":"Davanagere South","booth":7,"booth_name":"Govt Higher Higher Primary School Sjm Nagara Hole Honnuru Thota Davangere"},"geometry":{"type":"Point","coordinates":[75.90646,14.4835377]}},{"type":"Feature","properties":{"state":"Karnataka","district":14,"district_n":"DAVANGERE","pc":13,"pc_name":"Davanagere","ac":107,"ac_name":"Davanagere South","booth":24,"booth_name":"Dan Basco Child Labour School Vijayanagara Extn East Wing Kondajji Road Davangere"},"geometry":{"type":"Point","coordinates":[75.90843,14.4806051]}},{"type":"Feature","properties":{"state":"Karnataka","district":14,"district_n":"DAVANGERE","pc":13,"pc_name":"Davanagere","ac":107,"ac_name":"Davanagere South","booth":30,"booth_name":"Govt Lower Primary School Dodda Budihalu Davangere"},"geometry":{"type":"Point","coordinates":[75.91276,14.4964561]}},{"type":"Feature","properties":{"state":"Karnataka","district":14,"district_n":"DAVANGERE","pc":13,"pc_name":"Davanagere","ac":107,"ac_name":"Davanagere South","booth":33,"booth_name":"Govt Higher Primary School S P S Nagara 1st stage Room No 1 Budihal Road Davangere"},"geometry":{"type":"Point","coordinates":[75.9158859,14.4811506]}},{"type":"Feature","properties":{"state":"Karnataka","district":14,"district_n":"DAVANGERE","pc":13,"pc_name":"Davanagere","ac":107,"ac_name":"Davanagere South","booth":41,"booth_name":"City Corporation Youths Youths Gym School Gandinagar New Building Davangere"},"geometry":{"type":"Point","coordinates":[75.92036,14.4780779]}},{"type":"Feature","properties":{"state":"Karnataka","district":14,"district_n":"DAVANGERE","pc":13,"pc_name":"Davanagere","ac":107,"ac_name":"Davanagere South","booth":44,"booth_name":"Gnana Jyothi Convent School Kalika Devi Road Ajjamopura Shetru Compound Davangere"},"geometry":{"type":"Point","coordinates":[75.9197159,14.4737749]}},{"type":"Feature","properties":{"state":"Karnataka","district":14,"district_n":"DAVANGERE","pc":13,"pc_name":"Davanagere","ac":107,"ac_name":"Davanagere South","booth":47,"booth_name":"Govt Kannada Urdu Primary School Water Tank Besides Millath School Near Bashanagar Room No2 Davangere"},"geometry":{"type":"Point","coordinates":[75.92177,14.4820623]}},{"type":"Feature","properties":{"state":"Karnataka","district":14,"district_n":"DAVANGERE","pc":13,"pc_name":"Davanagere","ac":107,"ac_name":"Davanagere South","booth":50,"booth_name":"Govt Higher Kannada Primary School S S Mallikarjun Nagar 3rd Stage Room No2 Davangere"},"geometry":{"type":"Point","coordinates":[75.92206,14.4913549]}},{"type":"Feature","properties":{"state":"Karnataka","district":14,"district_n":"DAVANGERE","pc":13,"pc_name":"Davanagere","ac":107,"ac_name":"Davanagere South","booth":53,"booth_name":"Govt Higher Urdu Primary School S S Mallikarjun Nagar 2nd Stage Room No3 Davangere"},"geometry":{"type":"Point","coordinates":[75.9220047,14.4913683]}},{"type":"Feature","properties":{"state":"Karnataka","district":14,"district_n":"DAVANGERE","pc":13,"pc_name":"Davanagere","ac":107,"ac_name":"Davanagere South","booth":56,"booth_name":"Govt Higher Urdu Primary School Room No 2 Mandakki Batti Layout Maganahalli Road Davangere"},"geometry":{"type":"Point","coordinates":[75.9259338,14.4822416]}},{"type":"Feature","properties":{"state":"Karnataka","district":14,"district_n":"DAVANGERE","pc":13,"pc_name":"Davanagere","ac":107,"ac_name":"Davanagere South","booth":64,"booth_name":"Millath Junior College South Wing Room No 3 Davangere"},"geometry":{"type":"Point","coordinates":[75.92243,14.4810629]}},{"type":"Feature","properties":{"state":"Karnataka","district":14,"district_n":"DAVANGERE","pc":13,"pc_name":"Davanagere","ac":107,"ac_name":"Davanagere South","booth":67,"booth_name":"Millath Higher Primary School Bashanagar Room No 1 Davangere"},"geometry":{"type":"Point","coordinates":[75.92243,14.4810629]}},{"type":"Feature","properties":{"state":"Karnataka","district":14,"district_n":"DAVANGERE","pc":13,"pc_name":"Davanagere","ac":107,"ac_name":"Davanagere South","booth":70,"booth_name":"Shri Anjaneya Vidya Samsthe High School Mehboob Nagar Room No 1 Davangere"},"geometry":{"type":"Point","coordinates":[75.92334,14.4834852]}},{"type":"Feature","properties":{"state":"Karnataka","district":14,"district_n":"DAVANGERE","pc":13,"pc_name":"Davanagere","ac":107,"ac_name":"Davanagere South","booth":73,"booth_name":"G K Urdu Higher Primary School Room No 2 Bhashanagara 4th Cross Davangere"},"geometry":{"type":"Point","coordinates":[75.92219,14.4805021]}},{"type":"Feature","properties":{"state":"Karnataka","district":14,"district_n":"DAVANGERE","pc":13,"pc_name":"Davanagere","ac":107,"ac_name":"Davanagere South","booth":76,"booth_name":"Govt Urdu Higher Primary School Ajad Nagar 7th Cross North Wing Davangere"},"geometry":{"type":"Point","coordinates":[75.92227,14.4784832]}},{"type":"Feature","properties":{"state":"Karnataka","district":14,"district_n":"DAVANGERE","pc":13,"pc_name":"Davanagere","ac":107,"ac_name":"Davanagere South","booth":90,"booth_name":"Govt Higher Primary Boys School South Wing Vaddara Keri Davangere"},"geometry":{"type":"Point","coordinates":[75.92533,14.475955]}},{"type":"Feature","properties":{"state":"Karnataka","district":14,"district_n":"DAVANGERE","pc":13,"pc_name":"Davanagere","ac":107,"ac_name":"Davanagere South","booth":93,"booth_name":"S S Parvathamma Govt Urdu High School Maganahalli Road Room No 5 Davangere"},"geometry":{"type":"Point","coordinates":[75.92532,14.478014]}},{"type":"Feature","properties":{"state":"Karnataka","district":14,"district_n":"DAVANGERE","pc":13,"pc_name":"Davanagere","ac":107,"ac_name":"Davanagere South","booth":96,"booth_name":"Bankapura Nanjundappa Sri Devraja Education Society Higher Primary School Jagalur Road Westwing Davangere"},"geometry":{"type":"Point","coordinates":[75.92909,14.4814224]}},{"type":"Feature","properties":{"state":"Karnataka","district":14,"district_n":"DAVANGERE","pc":13,"pc_name":"Davanagere","ac":107,"ac_name":"Davanagere South","booth":104,"booth_name":"Srikayakayogisharana Hanumanthappa N Ksherasagara Hps Lal Bahaddurshatrinagara Basapura Rd Davangere"},"geometry":{"type":"Point","coordinates":[75.9309158,14.4727964]}},{"type":"Feature","properties":{"state":"Karnataka","district":14,"district_n":"DAVANGERE","pc":13,"pc_name":"Davanagere","ac":107,"ac_name":"Davanagere South","booth":107,"booth_name":"Govt Higher Primary Boys School Room No 1 Bharath Colony Bharath Colony(west wing) Davangere"},"geometry":{"type":"Point","coordinates":[75.9342957,14.4657841]}},{"type":"Feature","properties":{"state":"Karnataka","district":14,"district_n":"DAVANGERE","pc":13,"pc_name":"Davanagere","ac":107,"ac_name":"Davanagere South","booth":110,"booth_name":"Sri Maramma Maramma Higher Primary School Shekharappanagara A Block Davangere"},"geometry":{"type":"Point","coordinates":[75.93074,14.4653158]}},{"type":"Feature","properties":{"state":"Karnataka","district":14,"district_n":"DAVANGERE","pc":13,"pc_name":"Davanagere","ac":107,"ac_name":"Davanagere South","booth":113,"booth_name":"D R R(d C M)school P B Road Room No No 1 Davangere"},"geometry":{"type":"Point","coordinates":[75.9337,14.457552]}},{"type":"Feature","properties":{"state":"Karnataka","district":14,"district_n":"DAVANGERE","pc":13,"pc_name":"Davanagere","ac":107,"ac_name":"Davanagere South","booth":116,"booth_name":"Employees' Insurance Insurance Corporation Nittuvalli Main Road Shivanandaswamy Compound Davangere"},"geometry":{"type":"Point","coordinates":[75.9225845,14.4623346]}},{"type":"Feature","properties":{"state":"Karnataka","district":14,"district_n":"DAVANGERE","pc":13,"pc_name":"Davanagere","ac":107,"ac_name":"Davanagere South","booth":124,"booth_name":"Govt Old Middle School B E O Office Compound K R Market Chamarajapete Davangere"},"geometry":{"type":"Point","coordinates":[75.92299,14.4714975]}},{"type":"Feature","properties":{"state":"Karnataka","district":14,"district_n":"DAVANGERE","pc":13,"pc_name":"Davanagere","ac":107,"ac_name":"Davanagere South","booth":127,"booth_name":"Govt Higher Primary Girls School Opp Opp Opp Clock Tover Davangere"},"geometry":{"type":"Point","coordinates":[75.92009,14.4696207]}},{"type":"Feature","properties":{"state":"Karnataka","district":14,"district_n":"DAVANGERE","pc":13,"pc_name":"Davanagere","ac":107,"ac_name":"Davanagere South","booth":133,"booth_name":"Smt Devamma A R Basavarajappa High School Amarappanathota R M C Road West Wing Room No 1 Davangere"},"geometry":{"type":"Point","coordinates":[75.92872,14.47555]}},{"type":"Feature","properties":{"state":"Karnataka","district":14,"district_n":"DAVANGERE","pc":13,"pc_name":"Davanagere","ac":107,"ac_name":"Davanagere South","booth":136,"booth_name":"Taluk Panchayath Office Adminstration Room, R M C Road Davangere"},"geometry":{"type":"Point","coordinates":[75.92826,14.4776964]}},{"type":"Feature","properties":{"state":"Karnataka","district":14,"district_n":"DAVANGERE","pc":13,"pc_name":"Davanagere","ac":107,"ac_name":"Davanagere South","booth":139,"booth_name":"Urdu Lower Primary Boys School South Wing Narasaraj Road Davangere"},"geometry":{"type":"Point","coordinates":[75.924675,14.4745932]}},{"type":"Feature","properties":{"state":"Karnataka","district":14,"district_n":"DAVANGERE","pc":13,"pc_name":"Davanagere","ac":107,"ac_name":"Davanagere South","booth":147,"booth_name":"Channagiri Virupakshappa Vanajakshamma Higher Primary School North Wing Skp Road Davangere"},"geometry":{"type":"Point","coordinates":[75.91752,14.4729567]}},{"type":"Feature","properties":{"state":"Karnataka","district":14,"district_n":"DAVANGERE","pc":13,"pc_name":"Davanagere","ac":107,"ac_name":"Davanagere South","booth":150,"booth_name":"Govt Higher Primary Boys School Room No 1kaipete Davangere"},"geometry":{"type":"Point","coordinates":[75.91645,14.4717779]}},{"type":"Feature","properties":{"state":"Karnataka","district":14,"district_n":"DAVANGERE","pc":13,"pc_name":"Davanagere","ac":107,"ac_name":"Davanagere South","booth":153,"booth_name":"Siddarth Nersary School Gokul Youth Association Building Cheluvadikeri Davangere"},"geometry":{"type":"Point","coordinates":[75.91403,14.4703789]}},{"type":"Feature","properties":{"state":"Karnataka","district":14,"district_n":"DAVANGERE","pc":13,"pc_name":"Davanagere","ac":107,"ac_name":"Davanagere South","booth":156,"booth_name":"Municipal Library Besides 4th R C C Water Tank Tank Taluk Office Premises Premises Davangere"},"geometry":{"type":"Point","coordinates":[75.91964,14.4689007]}},{"type":"Feature","properties":{"state":"Karnataka","district":14,"district_n":"DAVANGERE","pc":13,"pc_name":"Davanagere","ac":107,"ac_name":"Davanagere South","booth":159,"booth_name":"Durgambika Trust Committee School(middle Wing) Room No 2 Jalinagara Davangere"},"geometry":{"type":"Point","coordinates":[75.91448,14.4716711]}},{"type":"Feature","properties":{"state":"Karnataka","district":14,"district_n":"DAVANGERE","pc":13,"pc_name":"Davanagere","ac":107,"ac_name":"Davanagere South","booth":167,"booth_name":"Gnanabharathi Vidyasamste Gnanabharathi Convent 2nd Main 2nd Cross Suresh(jali)nagara R N2 Davangere"},"geometry":{"type":"Point","coordinates":[75.91282,14.4723577]}},{"type":"Feature","properties":{"state":"Karnataka","district":14,"district_n":"DAVANGERE","pc":13,"pc_name":"Davanagere","ac":107,"ac_name":"Davanagere South","booth":203,"booth_name":"Govt Lower Primary School Giriyapura"},"geometry":{"type":"Point","coordinates":[75.9049759,14.3231316]}},{"type":"Feature","properties":{"state":"Karnataka","district":14,"district_n":"DAVANGERE","pc":13,"pc_name":"Davanagere","ac":107,"ac_name":"Davanagere South","booth":205,"booth_name":"Govt Higher Primary School Room No 2 Kukkawada"},"geometry":{"type":"Point","coordinates":[75.89534,14.3413754]}},{"type":"Feature","properties":{"state":"Karnataka","district":14,"district_n":"DAVANGERE","pc":13,"pc_name":"Davanagere","ac":107,"ac_name":"Davanagere South","booth":206,"booth_name":"Govt Higher Primary School Room No 3 Kukkawada"},"geometry":{"type":"Point","coordinates":[75.89534,14.3413754]}},{"type":"Feature","properties":{"state":"Karnataka","district":14,"district_n":"DAVANGERE","pc":13,"pc_name":"Davanagere","ac":107,"ac_name":"Davanagere South","booth":208,"booth_name":"Govt Higher Primary School Nagarasanahalli"},"geometry":{"type":"Point","coordinates":[75.83439,14.311203]}},{"type":"Feature","properties":{"state":"Karnataka","district":14,"district_n":"DAVANGERE","pc":13,"pc_name":"Davanagere","ac":107,"ac_name":"Davanagere South","booth":27,"booth_name":"S M S Convent School, Rajiv Ghandi Extension, Davanagere"},"geometry":{"type":"Point","coordinates":[75.90807,14.4791422]}},{"type":"Feature","properties":{"state":"Karnataka","district":14,"district_n":"DAVANGERE","pc":13,"pc_name":"Davanagere","ac":107,"ac_name":"Davanagere South","booth":21,"booth_name":"Govt Govt Higher Primary Boys School, Sps Nagar, Iind Stage,"},"geometry":{"type":"Point","coordinates":[75.9118652,14.4842472]}},{"type":"Feature","properties":{"state":"Karnataka","district":14,"district_n":"DAVANGERE","pc":13,"pc_name":"Davanagere","ac":107,"ac_name":"Davanagere South","booth":32,"booth_name":"Haralaiah Education Education Association Association Association S M Krishna Maha Vidhyalaya, Kailas Road, Choudeswari Nagara"},"geometry":{"type":"Point","coordinates":[75.9183044,14.4785337]}},{"type":"Feature","properties":{"state":"Karnataka","district":14,"district_n":"DAVANGERE","pc":13,"pc_name":"Davanagere","ac":107,"ac_name":"Davanagere South","booth":9,"booth_name":"Durgadevi Primary School Bharatamba Education Trust Room No 2 Kondajji Road Davangere"},"geometry":{"type":"Point","coordinates":[75.90454,14.4825907]}},{"type":"Feature","properties":{"state":"Karnataka","district":14,"district_n":"DAVANGERE","pc":13,"pc_name":"Davanagere","ac":107,"ac_name":"Davanagere South","booth":12,"booth_name":"Shrimati Chiradoni Kamalmma Y Thimmappashetty Higherprimary School Devaraj Urs Ext Eastwing Davangere"},"geometry":{"type":"Point","coordinates":[75.90963,14.4749794]}},{"type":"Feature","properties":{"state":"Karnataka","district":14,"district_n":"DAVANGERE","pc":13,"pc_name":"Davanagere","ac":107,"ac_name":"Davanagere South","booth":18,"booth_name":"Govt Higher Primary School S P S Nagara 2nd Stage West Wing Room No 1 Davangere"},"geometry":{"type":"Point","coordinates":[75.9118652,14.4842472]}},{"type":"Feature","properties":{"state":"Karnataka","district":14,"district_n":"DAVANGERE","pc":13,"pc_name":"Davanagere","ac":107,"ac_name":"Davanagere South","booth":26,"booth_name":"Dan Basco Child Labour School Vijayanagara Extn East Wing Kondajji Road Davangere"},"geometry":{"type":"Point","coordinates":[75.90843,14.4806051]}},{"type":"Feature","properties":{"state":"Karnataka","district":14,"district_n":"DAVANGERE","pc":13,"pc_name":"Davanagere","ac":107,"ac_name":"Davanagere South","booth":35,"booth_name":"Govt Higher Primary School S P S Nagara 1st stage Room No 3 Budihal Road Davangere"},"geometry":{"type":"Point","coordinates":[75.9158859,14.4811506]}},{"type":"Feature","properties":{"state":"Karnataka","district":14,"district_n":"DAVANGERE","pc":13,"pc_name":"Davanagere","ac":107,"ac_name":"Davanagere South","booth":178,"booth_name":"Kuvempu Centenary Model Govt Higher Primary School Belabanur New New Exten Room No1"},"geometry":{"type":"Point","coordinates":[75.92246,14.4013214]}},{"type":"Feature","properties":{"state":"Karnataka","district":14,"district_n":"DAVANGERE","pc":13,"pc_name":"Davanagere","ac":107,"ac_name":"Davanagere South","booth":173,"booth_name":"Govt Higher Primary School Room No 1 Naganuru"},"geometry":{"type":"Point","coordinates":[75.89941,14.419878]}},{"type":"Feature","properties":{"state":"Karnataka","district":14,"district_n":"DAVANGERE","pc":13,"pc_name":"Davanagere","ac":107,"ac_name":"Davanagere South","booth":176,"booth_name":"Govt Higher Primary School Room No 2 Shiramagondaanahalli"},"geometry":{"type":"Point","coordinates":[75.91429,14.8581152]}},{"type":"Feature","properties":{"state":"Karnataka","district":14,"district_n":"DAVANGERE","pc":13,"pc_name":"Davanagere","ac":107,"ac_name":"Davanagere South","booth":187,"booth_name":"Govt Higher Primary School Javalagatta"},"geometry":{"type":"Point","coordinates":[75.9015,14.3784227]}},{"type":"Feature","properties":{"state":"Karnataka","district":14,"district_n":"DAVANGERE","pc":13,"pc_name":"Davanagere","ac":107,"ac_name":"Davanagere South","booth":190,"booth_name":"Govt Higher Primary School Room No 2 Hosabisaleri"},"geometry":{"type":"Point","coordinates":[75.89294,14.3889856]}},{"type":"Feature","properties":{"state":"Karnataka","district":14,"district_n":"DAVANGERE","pc":13,"pc_name":"Davanagere","ac":107,"ac_name":"Davanagere South","booth":193,"booth_name":"Govt Higher Primary School New Building Balluru"},"geometry":{"type":"Point","coordinates":[75.89548,14.3830118]}},{"type":"Feature","properties":{"state":"Karnataka","district":14,"district_n":"DAVANGERE","pc":13,"pc_name":"Davanagere","ac":107,"ac_name":"Davanagere South","booth":196,"booth_name":"Grama Panchayath Office Hadadi"},"geometry":{"type":"Point","coordinates":[75.8921356,14.3626766]}},{"type":"Feature","properties":{"state":"Karnataka","district":14,"district_n":"DAVANGERE","pc":13,"pc_name":"Davanagere","ac":107,"ac_name":"Davanagere South","booth":199,"booth_name":"Govt Higher Primary School Room No 3 Hadadi"},"geometry":{"type":"Point","coordinates":[75.89263,14.3664751]}},{"type":"Feature","properties":{"state":"Karnataka","district":14,"district_n":"DAVANGERE","pc":13,"pc_name":"Davanagere","ac":107,"ac_name":"Davanagere South","booth":84,"booth_name":"Govt Higher Primary School Room No 1 West Wing Ahmad Nagar Ajad Nagar Nagar 4th Cross Davangere"},"geometry":{"type":"Point","coordinates":[75.92255,14.4767513]}},{"type":"Feature","properties":{"state":"Karnataka","district":14,"district_n":"DAVANGERE","pc":13,"pc_name":"Davanagere","ac":107,"ac_name":"Davanagere South","booth":87,"booth_name":"Sri Haji Abdul Azij Higher Primary School hale Bethur Road Davangere"},"geometry":{"type":"Point","coordinates":[75.9213638,14.4770317]}},{"type":"Feature","properties":{"state":"Karnataka","district":14,"district_n":"DAVANGERE","pc":13,"pc_name":"Davanagere","ac":107,"ac_name":"Davanagere South","booth":10,"booth_name":"Anjeneya High School, S J M Nagara Beside Durgadevi School , Hole Honnur Tota"},"geometry":{"type":"Point","coordinates":[75.90454,14.4825907]}},{"type":"Feature","properties":{"state":"Karnataka","district":14,"district_n":"DAVANGERE","pc":13,"pc_name":"Davanagere","ac":107,"ac_name":"Davanagere South","booth":46,"booth_name":"Govt Govt Urdu Primary School, Near Water Tank, Near Near to Millath School, School, Basha Nagar"},"geometry":{"type":"Point","coordinates":[75.92177,14.4820623]}},{"type":"Feature","properties":{"state":"Karnataka","district":14,"district_n":"DAVANGERE","pc":13,"pc_name":"Davanagere","ac":107,"ac_name":"Davanagere South","booth":52,"booth_name":"Govt Higher Primary Urdu School,s S M M Nagar South wing"},"geometry":{"type":"Point","coordinates":[75.9220047,14.4913673]}},{"type":"Feature","properties":{"state":"Karnataka","district":14,"district_n":"DAVANGERE","pc":13,"pc_name":"Davanagere","ac":107,"ac_name":"Davanagere South","booth":29,"booth_name":"Anjeneya High School, Vijayanagara Extension, Kondajji Road"},"geometry":{"type":"Point","coordinates":[75.90807,14.4791422]}},{"type":"Feature","properties":{"state":"Karnataka","district":14,"district_n":"DAVANGERE","pc":13,"pc_name":"Davanagere","ac":107,"ac_name":"Davanagere South","booth":6,"booth_name":"Govt Urdu Higher Primary School (room No 2) Sjm Nagar Nagar Davangere"},"geometry":{"type":"Point","coordinates":[75.906105,14.4836693]}},{"type":"Feature","properties":{"state":"Karnataka","district":14,"district_n":"DAVANGERE","pc":13,"pc_name":"Davanagere","ac":107,"ac_name":"Davanagere South","booth":15,"booth_name":"Sri Murugharajendra Higher Primary School Shibara Road Room No 2 Davangere"},"geometry":{"type":"Point","coordinates":[75.9122543,14.4777126]}},{"type":"Feature","properties":{"state":"Karnataka","district":14,"district_n":"DAVANGERE","pc":13,"pc_name":"Davanagere","ac":107,"ac_name":"Davanagere South","booth":38,"booth_name":"Sri Hirematha Mahalingappa Swami Ghps Halepete Beerappanakana Kurubarakeri Room No 2 Davangere"},"geometry":{"type":"Point","coordinates":[75.9173,14.4761133]}},{"type":"Feature","properties":{"state":"Karnataka","district":14,"district_n":"DAVANGERE","pc":13,"pc_name":"Davanagere","ac":107,"ac_name":"Davanagere South","booth":55,"booth_name":"Govt Higher Urdu Primary School Room No 1 Mandakki Batti Layout Maganahalli Road Davangere"},"geometry":{"type":"Point","coordinates":[75.9259338,14.4822416]}},{"type":"Feature","properties":{"state":"Karnataka","district":14,"district_n":"DAVANGERE","pc":13,"pc_name":"Davanagere","ac":107,"ac_name":"Davanagere South","booth":58,"booth_name":"Govt Higher Urdu Primary School Opp Opp E S I Hospital Sir Mirza Ismail Nagar Room No2 Davangere"},"geometry":{"type":"Point","coordinates":[75.92448,14.4807272]}},{"type":"Feature","properties":{"state":"Karnataka","district":14,"district_n":"DAVANGERE","pc":13,"pc_name":"Davanagere","ac":107,"ac_name":"Davanagere South","booth":61,"booth_name":"Siddarameshwara Higher Primary School South Wing Room No 2 Davangere"},"geometry":{"type":"Point","coordinates":[75.92847,14.4826508]}},{"type":"Feature","properties":{"state":"Karnataka","district":14,"district_n":"DAVANGERE","pc":13,"pc_name":"Davanagere","ac":107,"ac_name":"Davanagere South","booth":69,"booth_name":"Millath Higher Primary School Bashanagar Room No 2 Davangere"},"geometry":{"type":"Point","coordinates":[75.92243,14.4810629]}},{"type":"Feature","properties":{"state":"Karnataka","district":14,"district_n":"DAVANGERE","pc":13,"pc_name":"Davanagere","ac":107,"ac_name":"Davanagere South","booth":72,"booth_name":"S M Kannada Urdu Higher Primary School Tippu Nagar 3rd Cross Davangere"},"geometry":{"type":"Point","coordinates":[75.9246445,14.4802237]}},{"type":"Feature","properties":{"state":"Karnataka","district":14,"district_n":"DAVANGERE","pc":13,"pc_name":"Davanagere","ac":107,"ac_name":"Davanagere South","booth":75,"booth_name":"G K Urdu Higher Primary School Room No 4 Bhashanagara 4th Cross Davangere"},"geometry":{"type":"Point","coordinates":[75.92219,14.4805021]}},{"type":"Feature","properties":{"state":"Karnataka","district":14,"district_n":"DAVANGERE","pc":13,"pc_name":"Davanagere","ac":107,"ac_name":"Davanagere South","booth":78,"booth_name":"Govt Urdu Boys School Maganahalli Road Road West Wing Room No1 Davangere"},"geometry":{"type":"Point","coordinates":[75.92532,14.478014]}},{"type":"Feature","properties":{"state":"Karnataka","district":14,"district_n":"DAVANGERE","pc":13,"pc_name":"Davanagere","ac":107,"ac_name":"Davanagere South","booth":89,"booth_name":"Sri Basaveshwara Vidyasamsthe Smtparavathammahallaru Narayanappa Higher Primary School (south Wing)"},"geometry":{"type":"Point","coordinates":[75.92215,14.4752951]}},{"type":"Feature","properties":{"state":"Karnataka","district":14,"district_n":"DAVANGERE","pc":13,"pc_name":"Davanagere","ac":107,"ac_name":"Davanagere South","booth":92,"booth_name":"Kogundi Bakkaiah Higher Primary Primary School North Wing Behind Giri Tolkies Jagalur Road Room No2 Davangere"},"geometry":{"type":"Point","coordinates":[75.92933,14.478344]}},{"type":"Feature","properties":{"state":"Karnataka","district":14,"district_n":"DAVANGERE","pc":13,"pc_name":"Davanagere","ac":107,"ac_name":"Davanagere South","booth":95,"booth_name":"Municipal Gym School Inside Mutthu Mariyamma Temple Compound Compound Jagalur Road Davangere"},"geometry":{"type":"Point","coordinates":[75.92848,14.4781952]}},{"type":"Feature","properties":{"state":"Karnataka","district":14,"district_n":"DAVANGERE","pc":13,"pc_name":"Davanagere","ac":107,"ac_name":"Davanagere South","booth":98,"booth_name":"Bankapurada Nanjundappa Sri Devaraj Education Society Higher Primary School Eastwing Jagalur Rd Davangere"},"geometry":{"type":"Point","coordinates":[75.92909,14.4814224]}},{"type":"Feature","properties":{"state":"Karnataka","district":14,"district_n":"DAVANGERE","pc":13,"pc_name":"Davanagere","ac":107,"ac_name":"Davanagere South","booth":101,"booth_name":"Govt Higher Primary School Room No 2 Anekonda Davangere"},"geometry":{"type":"Point","coordinates":[75.9301147,14.4760933]}},{"type":"Feature","properties":{"state":"Karnataka","district":14,"district_n":"DAVANGERE","pc":13,"pc_name":"Davanagere","ac":107,"ac_name":"Davanagere South","booth":109,"booth_name":"Govt Higher Primary Boys School Bharath Colony Middle Wing Davangere"},"geometry":{"type":"Point","coordinates":[75.9342957,14.4657841]}},{"type":"Feature","properties":{"state":"Karnataka","district":14,"district_n":"DAVANGERE","pc":13,"pc_name":"Davanagere","ac":107,"ac_name":"Davanagere South","booth":112,"booth_name":"D R R(d C M)school P B Road Room No 2 Davangere"},"geometry":{"type":"Point","coordinates":[75.93369,14.4576435]}},{"type":"Feature","properties":{"state":"Karnataka","district":14,"district_n":"DAVANGERE","pc":13,"pc_name":"Davanagere","ac":107,"ac_name":"Davanagere South","booth":115,"booth_name":"Purna Pragna Vidya Samste Montessori Convent School Kiruvadi Layout K B Exten Davangere"},"geometry":{"type":"Point","coordinates":[75.92628,14.4626875]}},{"type":"Feature","properties":{"state":"Karnataka","district":14,"district_n":"DAVANGERE","pc":13,"pc_name":"Davanagere","ac":107,"ac_name":"Davanagere South","booth":118,"booth_name":"Office of the Executive Engineer Z P E Division P B Road Davangere"},"geometry":{"type":"Point","coordinates":[75.92037,14.4672623]}},{"type":"Feature","properties":{"state":"Karnataka","district":14,"district_n":"DAVANGERE","pc":13,"pc_name":"Davanagere","ac":107,"ac_name":"Davanagere South","booth":121,"booth_name":"Municipal School Building East Wing Rampuri Jagadguru Road Shekharappa Besides Water Tank Davangere"},"geometry":{"type":"Point","coordinates":[75.9311,14.46554]}},{"type":"Feature","properties":{"state":"Karnataka","district":14,"district_n":"DAVANGERE","pc":13,"pc_name":"Davanagere","ac":107,"ac_name":"Davanagere South","booth":132,"booth_name":"Mudegowdra Mallamma Murigeppa Girls High School Room No2 Jagalur Road Davangere"},"geometry":{"type":"Point","coordinates":[75.92531,14.4735184]}},{"type":"Feature","properties":{"state":"Karnataka","district":14,"district_n":"DAVANGERE","pc":13,"pc_name":"Davanagere","ac":107,"ac_name":"Davanagere South","booth":135,"booth_name":"Trainig Room Taluk Panchayath Office R M C Road Davangere"},"geometry":{"type":"Point","coordinates":[75.92826,14.4776964]}},{"type":"Feature","properties":{"state":"Karnataka","district":14,"district_n":"DAVANGERE","pc":13,"pc_name":"Davanagere","ac":107,"ac_name":"Davanagere South","booth":138,"booth_name":"Udru Lower Primary Boys School North Wing Narasaraj Road Davangere"},"geometry":{"type":"Point","coordinates":[75.924675,14.4745932]}},{"type":"Feature","properties":{"state":"Karnataka","district":14,"district_n":"DAVANGERE","pc":13,"pc_name":"Davanagere","ac":107,"ac_name":"Davanagere South","booth":144,"booth_name":"Govt Higher Primary Girls School Halepete Room No1 Besides Veerabhadreshwara Temple Davangere"},"geometry":{"type":"Point","coordinates":[75.91761,14.4748955]}},{"type":"Feature","properties":{"state":"Karnataka","district":14,"district_n":"DAVANGERE","pc":13,"pc_name":"Davanagere","ac":107,"ac_name":"Davanagere South","booth":152,"booth_name":"Govt Urdu Higher Primary School School (north Wing)myasabedarakeri Davangere"},"geometry":{"type":"Point","coordinates":[75.91632,14.4702015]}},{"type":"Feature","properties":{"state":"Karnataka","district":14,"district_n":"DAVANGERE","pc":13,"pc_name":"Davanagere","ac":107,"ac_name":"Davanagere South","booth":155,"booth_name":"Govt Boys Higher Primary School Kaipete South Wing Room No 2 Davangere"},"geometry":{"type":"Point","coordinates":[75.91632,14.4702015]}},{"type":"Feature","properties":{"state":"Karnataka","district":14,"district_n":"DAVANGERE","pc":13,"pc_name":"Davanagere","ac":107,"ac_name":"Davanagere South","booth":158,"booth_name":"Durgambika Trust Committee School(middle Wing) Room No 1 Jalinagara Davangere"},"geometry":{"type":"Point","coordinates":[75.91448,14.4716711]}},{"type":"Feature","properties":{"state":"Karnataka","district":14,"district_n":"DAVANGERE","pc":13,"pc_name":"Davanagere","ac":107,"ac_name":"Davanagere South","booth":161,"booth_name":"Durgambika Trust Committee School(middle Wing) Jalinagara Davangere"},"geometry":{"type":"Point","coordinates":[75.91448,14.4716711]}},{"type":"Feature","properties":{"state":"Karnataka","district":14,"district_n":"DAVANGERE","pc":13,"pc_name":"Davanagere","ac":107,"ac_name":"Davanagere South","booth":164,"booth_name":"Social Forest Office Ground Floor Devaraj Urs Exten B Block Davangere"},"geometry":{"type":"Point","coordinates":[75.91032,14.4720678]}},{"type":"Feature","properties":{"state":"Karnataka","district":14,"district_n":"DAVANGERE","pc":13,"pc_name":"Davanagere","ac":107,"ac_name":"Davanagere South","booth":172,"booth_name":"Govt Higher Primary School Room No 2 Jareekatte"},"geometry":{"type":"Point","coordinates":[75.8631,14.4095211]}},{"type":"Feature","properties":{"state":"Karnataka","district":14,"district_n":"DAVANGERE","pc":13,"pc_name":"Davanagere","ac":107,"ac_name":"Davanagere South","booth":175,"booth_name":"Govt Higher Primary School Room No 1 Shiramagondanahalli"},"geometry":{"type":"Point","coordinates":[75.9142456,14.418561]}},{"type":"Feature","properties":{"state":"Karnataka","district":14,"district_n":"DAVANGERE","pc":13,"pc_name":"Davanagere","ac":107,"ac_name":"Davanagere South","booth":181,"booth_name":"Govt Lower Primary School Chandrenahalli"},"geometry":{"type":"Point","coordinates":[75.94846,14.38766]}},{"type":"Feature","properties":{"state":"Karnataka","district":14,"district_n":"DAVANGERE","pc":13,"pc_name":"Davanagere","ac":107,"ac_name":"Davanagere South","booth":195,"booth_name":"Govt Higher Primary School Battlakatte"},"geometry":{"type":"Point","coordinates":[75.87586,14.3750744]}},{"type":"Feature","properties":{"state":"Karnataka","district":14,"district_n":"DAVANGERE","pc":13,"pc_name":"Davanagere","ac":107,"ac_name":"Davanagere South","booth":198,"booth_name":"Govt Higher Primary School Room No 2 Hadadi"},"geometry":{"type":"Point","coordinates":[75.8926,14.3663034]}},{"type":"Feature","properties":{"state":"Karnataka","district":14,"district_n":"DAVANGERE","pc":13,"pc_name":"Davanagere","ac":107,"ac_name":"Davanagere South","booth":204,"booth_name":"Govt Higher Primary School Room No 1 Kukkawada"},"geometry":{"type":"Point","coordinates":[75.90577,14.3459721]}},{"type":"Feature","properties":{"state":"Karnataka","district":14,"district_n":"DAVANGERE","pc":13,"pc_name":"Davanagere","ac":107,"ac_name":"Davanagere South","booth":207,"booth_name":"Govt Higher Primary School Kolenahalli"},"geometry":{"type":"Point","coordinates":[75.8890457,14.3576565]}},{"type":"Feature","properties":{"state":"Karnataka","district":14,"district_n":"DAVANGERE","pc":13,"pc_name":"Davanagere","ac":107,"ac_name":"Davanagere South","booth":36,"booth_name":"Harapanahalli Muppanna Siddamma Higher School, Bhudal Road"},"geometry":{"type":"Point","coordinates":[75.91725,14.4761143]}},{"type":"Feature","properties":{"state":"Karnataka","district":14,"district_n":"DAVANGERE","pc":13,"pc_name":"Davanagere","ac":107,"ac_name":"Davanagere South","booth":54,"booth_name":"Govt Higher Primary Urdu School,s S M M Nagar,2 Stage"},"geometry":{"type":"Point","coordinates":[75.9220047,14.4913683]}},{"type":"Feature","properties":{"state":"Karnataka","district":14,"district_n":"DAVANGERE","pc":13,"pc_name":"Davanagere","ac":107,"ac_name":"Davanagere South","booth":19,"booth_name":"Govt Govt Higher Primary Boys School, Sps Nagar, Iind Stage,"},"geometry":{"type":"Point","coordinates":[75.9118652,14.4842472]}},{"type":"Feature","properties":{"state":"Karnataka","district":14,"district_n":"DAVANGERE","pc":13,"pc_name":"Davanagere","ac":107,"ac_name":"Davanagere South","booth":81,"booth_name":"Govt Govt Higher Urdu Boys School, Azad Nagar, 7th Cross"},"geometry":{"type":"Point","coordinates":[75.92227,14.4784832]}},{"type":"Feature","properties":{"state":"Karnataka","district":14,"district_n":"DAVANGERE","pc":13,"pc_name":"Davanagere","ac":107,"ac_name":"Davanagere South","booth":25,"booth_name":"Don Bosco Child labour School Vijayanagara Extn , Kondajji Road,"},"geometry":{"type":"Point","coordinates":[75.90843,14.4806051]}},{"type":"Feature","properties":{"state":"Karnataka","district":14,"district_n":"DAVANGERE","pc":13,"pc_name":"Davanagere","ac":107,"ac_name":"Davanagere South","booth":5,"booth_name":"Govt Govt Urdhu Higher Primary School, Sjm Nagar, Hole Honnur Thota"},"geometry":{"type":"Point","coordinates":[75.906105,14.4836693]}},{"type":"Feature","properties":{"state":"Karnataka","district":14,"district_n":"DAVANGERE","pc":13,"pc_name":"Davanagere","ac":107,"ac_name":"Davanagere South","booth":13,"booth_name":"Smt Chiradoni Kamalamma Y Thimmappa Shetty Govt Govt Higher Primary School, Devaraj Urs Extn"},"geometry":{"type":"Point","coordinates":[75.90963,14.4749794]}},{"type":"Feature","properties":{"state":"Karnataka","district":14,"district_n":"DAVANGERE","pc":13,"pc_name":"Davanagere","ac":107,"ac_name":"Davanagere South","booth":49,"booth_name":"Govt Govt Higher Kannada Primary School, Ssm Nagara"},"geometry":{"type":"Point","coordinates":[75.92206,14.4913549]}}]}