{"type":"FeatureCollection","features":[{"type":"Feature","properties":{"state":"Karnataka","district":14,"district_n":"DAVANGERE","pc":13,"pc_name":"Davanagere","ac":108,"ac_name":"Mayakonda","booth":180,"booth_name":"Govt Higher Primary school new building miyapura"},"geometry":{"type":"Point","coordinates":[75.88399,14.247447]}},{"type":"Feature","properties":{"state":"Karnataka","district":14,"district_n":"DAVANGERE","pc":13,"pc_name":"Davanagere","ac":108,"ac_name":"Mayakonda","booth":45,"booth_name":"Govt Lower Primary school Jammapura"},"geometry":{"type":"Point","coordinates":[76.07067,14.4289541]}},{"type":"Feature","properties":{"state":"Karnataka","district":14,"district_n":"DAVANGERE","pc":13,"pc_name":"Davanagere","ac":108,"ac_name":"Mayakonda","booth":110,"booth_name":"Govt Lower primary school Yallamma Nagara"},"geometry":{"type":"Point","coordinates":[75.92658,14.3044863]}},{"type":"Feature","properties":{"state":"Karnataka","district":14,"district_n":"DAVANGERE","pc":13,"pc_name":"Davanagere","ac":108,"ac_name":"Mayakonda","booth":139,"booth_name":"Govt Higher primay school belalagere"},"geometry":{"type":"Point","coordinates":[75.84046,14.2504663]}},{"type":"Feature","properties":{"state":"Karnataka","district":14,"district_n":"DAVANGERE","pc":13,"pc_name":"Davanagere","ac":108,"ac_name":"Mayakonda","booth":227,"booth_name":"Govt Lower Primary School Kengapura"},"geometry":{"type":"Point","coordinates":[75.85841,14.3157368]}},{"type":"Feature","properties":{"state":"Karnataka","district":14,"district_n":"DAVANGERE","pc":13,"pc_name":"Davanagere","ac":108,"ac_name":"Mayakonda","booth":178,"booth_name":"Govt Higher primary girls school thyavanige"},"geometry":{"type":"Point","coordinates":[75.88347,14.2488623]}},{"type":"Feature","properties":{"state":"Karnataka","district":14,"district_n":"DAVANGERE","pc":13,"pc_name":"Davanagere","ac":108,"ac_name":"Mayakonda","booth":168,"booth_name":"Govt Higher Primary School New Building Room No 1 Kandagalu"},"geometry":{"type":"Point","coordinates":[75.96793,14.2646275]}},{"type":"Feature","properties":{"state":"Karnataka","district":14,"district_n":"DAVANGERE","pc":13,"pc_name":"Davanagere","ac":108,"ac_name":"Mayakonda","booth":184,"booth_name":"Govt Kannada Higher Primary School Haralipura"},"geometry":{"type":"Point","coordinates":[75.80186,14.2429609]}},{"type":"Feature","properties":{"state":"Karnataka","district":14,"district_n":"DAVANGERE","pc":13,"pc_name":"Davanagere","ac":108,"ac_name":"Mayakonda","booth":226,"booth_name":"Govt Higher Primary School West Wing Kabbala"},"geometry":{"type":"Point","coordinates":[75.8832855,14.1969976]}},{"type":"Feature","properties":{"state":"Karnataka","district":14,"district_n":"DAVANGERE","pc":13,"pc_name":"Davanagere","ac":108,"ac_name":"Mayakonda","booth":234,"booth_name":"Govt Higher Primary School East Wing Room No 1 Rudrapura"},"geometry":{"type":"Point","coordinates":[75.87362,14.1363754]}},{"type":"Feature","properties":{"state":"Karnataka","district":14,"district_n":"DAVANGERE","pc":13,"pc_name":"Davanagere","ac":108,"ac_name":"Mayakonda","booth":145,"booth_name":"Govt Higher Primary School Room No 3 Shyagale"},"geometry":{"type":"Point","coordinates":[75.94286,14.2803049]}},{"type":"Feature","properties":{"state":"Karnataka","district":14,"district_n":"DAVANGERE","pc":13,"pc_name":"Davanagere","ac":108,"ac_name":"Mayakonda","booth":159,"booth_name":"Govt Higher Primary School Upparahatti Room No 2 Mayakonda"},"geometry":{"type":"Point","coordinates":[76.0848,14.2886267]}},{"type":"Feature","properties":{"state":"Karnataka","district":14,"district_n":"DAVANGERE","pc":13,"pc_name":"Davanagere","ac":108,"ac_name":"Mayakonda","booth":191,"booth_name":"Govt Higher Primary School South Wing Chiradoni"},"geometry":{"type":"Point","coordinates":[75.8425,14.2138433]}},{"type":"Feature","properties":{"state":"Karnataka","district":14,"district_n":"DAVANGERE","pc":13,"pc_name":"Davanagere","ac":108,"ac_name":"Mayakonda","booth":42,"booth_name":"Govt Higher Primary School Room No 2 Honnuru"},"geometry":{"type":"Point","coordinates":[75.99609,14.4191351]}},{"type":"Feature","properties":{"state":"Karnataka","district":14,"district_n":"DAVANGERE","pc":13,"pc_name":"Davanagere","ac":108,"ac_name":"Mayakonda","booth":76,"booth_name":"Govt Higher Primary School Room No 1 Kolkunte"},"geometry":{"type":"Point","coordinates":[75.96304,14.3285112]}},{"type":"Feature","properties":{"state":"Karnataka","district":14,"district_n":"DAVANGERE","pc":13,"pc_name":"Davanagere","ac":108,"ac_name":"Mayakonda","booth":102,"booth_name":"Govt Lower Primary School Kattalagere Kowlihattitanda"},"geometry":{"type":"Point","coordinates":[75.81825,14.2661333]}},{"type":"Feature","properties":{"state":"Karnataka","district":14,"district_n":"DAVANGERE","pc":13,"pc_name":"Davanagere","ac":108,"ac_name":"Mayakonda","booth":105,"booth_name":"Maruthi Govt Junior College New Building Room No 1 Lokikere"},"geometry":{"type":"Point","coordinates":[75.90534,14.3441067]}},{"type":"Feature","properties":{"state":"Karnataka","district":14,"district_n":"DAVANGERE","pc":13,"pc_name":"Davanagere","ac":108,"ac_name":"Mayakonda","booth":116,"booth_name":"Govt Higher Primary School Room No 2 Kabburu"},"geometry":{"type":"Point","coordinates":[76.02549,14.3104124]}},{"type":"Feature","properties":{"state":"Karnataka","district":14,"district_n":"DAVANGERE","pc":13,"pc_name":"Davanagere","ac":108,"ac_name":"Mayakonda","booth":122,"booth_name":"Govt Higher Primary School Neerthadi"},"geometry":{"type":"Point","coordinates":[76.151886,14.3525591]}},{"type":"Feature","properties":{"state":"Karnataka","district":14,"district_n":"DAVANGERE","pc":13,"pc_name":"Davanagere","ac":108,"ac_name":"Mayakonda","booth":225,"booth_name":"Govt Higher Primary School East Wing Kabbala"},"geometry":{"type":"Point","coordinates":[75.8835144,14.1968708]}},{"type":"Feature","properties":{"state":"Karnataka","district":14,"district_n":"DAVANGERE","pc":13,"pc_name":"Davanagere","ac":108,"ac_name":"Mayakonda","booth":22,"booth_name":"Govt Lower Primary School Basavanalu gollarahatti"},"geometry":{"type":"Point","coordinates":[75.9821548,14.4659843]}},{"type":"Feature","properties":{"state":"Karnataka","district":14,"district_n":"DAVANGERE","pc":13,"pc_name":"Davanagere","ac":108,"ac_name":"Mayakonda","booth":36,"booth_name":"Govt Higher Primary School New Building Tholahunse Room No 1"},"geometry":{"type":"Point","coordinates":[75.96378,14.4107552]}},{"type":"Feature","properties":{"state":"Karnataka","district":14,"district_n":"DAVANGERE","pc":13,"pc_name":"Davanagere","ac":108,"ac_name":"Mayakonda","booth":53,"booth_name":"Govt Higher Higher Primary School Narasipura"},"geometry":{"type":"Point","coordinates":[76.0161362,14.4104757]}},{"type":"Feature","properties":{"state":"Karnataka","district":14,"district_n":"DAVANGERE","pc":13,"pc_name":"Davanagere","ac":108,"ac_name":"Mayakonda","booth":56,"booth_name":"Govt Higher Higher Primary School room no 1 Kurki"},"geometry":{"type":"Point","coordinates":[75.97383,14.3743124]}},{"type":"Feature","properties":{"state":"Karnataka","district":14,"district_n":"DAVANGERE","pc":13,"pc_name":"Davanagere","ac":108,"ac_name":"Mayakonda","booth":59,"booth_name":"Govt Higher Primary School Room No 1 Anagodu"},"geometry":{"type":"Point","coordinates":[76.04418,14.3926754]}},{"type":"Feature","properties":{"state":"Karnataka","district":14,"district_n":"DAVANGERE","pc":13,"pc_name":"Davanagere","ac":108,"ac_name":"Mayakonda","booth":65,"booth_name":"Govt Lower Primary School Kenchammanahalli"},"geometry":{"type":"Point","coordinates":[76.08747,14.4120007]}},{"type":"Feature","properties":{"state":"Karnataka","district":14,"district_n":"DAVANGERE","pc":13,"pc_name":"Davanagere","ac":108,"ac_name":"Mayakonda","booth":96,"booth_name":"Govt Higher Primary School South Side Kariganuru"},"geometry":{"type":"Point","coordinates":[75.84994,14.3073072]}},{"type":"Feature","properties":{"state":"Karnataka","district":14,"district_n":"DAVANGERE","pc":13,"pc_name":"Davanagere","ac":108,"ac_name":"Mayakonda","booth":99,"booth_name":"Govt Higher Primary School East side Room No 1 Kattalagere"},"geometry":{"type":"Point","coordinates":[75.83453,14.2949963]}},{"type":"Feature","properties":{"state":"Karnataka","district":14,"district_n":"DAVANGERE","pc":13,"pc_name":"Davanagere","ac":108,"ac_name":"Mayakonda","booth":108,"booth_name":"Govt Higher Primary School Room No 2 Lokikere"},"geometry":{"type":"Point","coordinates":[75.92658,14.3044863]}},{"type":"Feature","properties":{"state":"Karnataka","district":14,"district_n":"DAVANGERE","pc":13,"pc_name":"Davanagere","ac":108,"ac_name":"Mayakonda","booth":128,"booth_name":"Govt Lower Primary School Dyamenahalli"},"geometry":{"type":"Point","coordinates":[75.99866,14.2938595]}},{"type":"Feature","properties":{"state":"Karnataka","district":14,"district_n":"DAVANGERE","pc":13,"pc_name":"Davanagere","ac":108,"ac_name":"Mayakonda","booth":136,"booth_name":"Govt Higher Primary School Arehalli"},"geometry":{"type":"Point","coordinates":[75.8678,14.2764492]}},{"type":"Feature","properties":{"state":"Karnataka","district":14,"district_n":"DAVANGERE","pc":13,"pc_name":"Davanagere","ac":108,"ac_name":"Mayakonda","booth":142,"booth_name":"Govt Higher Primary School Miyapura"},"geometry":{"type":"Point","coordinates":[75.89642,14.2587585]}},{"type":"Feature","properties":{"state":"Karnataka","district":14,"district_n":"DAVANGERE","pc":13,"pc_name":"Davanagere","ac":108,"ac_name":"Mayakonda","booth":156,"booth_name":"Govt Higher Primary Girls School Room No 1 Left Side Mayakonda"},"geometry":{"type":"Point","coordinates":[76.08484,14.2885895]}},{"type":"Feature","properties":{"state":"Karnataka","district":14,"district_n":"DAVANGERE","pc":13,"pc_name":"Davanagere","ac":108,"ac_name":"Mayakonda","booth":165,"booth_name":"Govt Urdu School Anaberu"},"geometry":{"type":"Point","coordinates":[76.03099,14.2670832]}},{"type":"Feature","properties":{"state":"Karnataka","district":14,"district_n":"DAVANGERE","pc":13,"pc_name":"Davanagere","ac":108,"ac_name":"Mayakonda","booth":179,"booth_name":"Govt Model Higher Boys Primary School Thyavanige"},"geometry":{"type":"Point","coordinates":[75.88399,14.247447]}},{"type":"Feature","properties":{"state":"Karnataka","district":14,"district_n":"DAVANGERE","pc":13,"pc_name":"Davanagere","ac":108,"ac_name":"Mayakonda","booth":182,"booth_name":"Govt Higher Primary School South Wing Marabanahalli"},"geometry":{"type":"Point","coordinates":[75.80185,14.2429333]}},{"type":"Feature","properties":{"state":"Karnataka","district":14,"district_n":"DAVANGERE","pc":13,"pc_name":"Davanagere","ac":108,"ac_name":"Mayakonda","booth":13,"booth_name":"Govt Lower Primary School,dyamavvanahalli"},"geometry":{"type":"Point","coordinates":[76.10238,14.4764585]}},{"type":"Feature","properties":{"state":"Karnataka","district":14,"district_n":"DAVANGERE","pc":13,"pc_name":"Davanagere","ac":108,"ac_name":"Mayakonda","booth":185,"booth_name":"Govt Urdu Higher Primary School, Haralipura"},"geometry":{"type":"Point","coordinates":[75.80186,14.2429609]}},{"type":"Feature","properties":{"state":"Karnataka","district":14,"district_n":"DAVANGERE","pc":13,"pc_name":"Davanagere","ac":108,"ac_name":"Mayakonda","booth":10,"booth_name":"Govt Higher Primary School, Kitturu"},"geometry":{"type":"Point","coordinates":[76.09929,14.4989729]}},{"type":"Feature","properties":{"state":"Karnataka","district":14,"district_n":"DAVANGERE","pc":13,"pc_name":"Davanagere","ac":108,"ac_name":"Mayakonda","booth":2,"booth_name":"Govt Higher Primary School, North Wing, Room No 2, Alur"},"geometry":{"type":"Point","coordinates":[76.01948,14.5066957]}},{"type":"Feature","properties":{"state":"Karnataka","district":14,"district_n":"DAVANGERE","pc":13,"pc_name":"Davanagere","ac":108,"ac_name":"Mayakonda","booth":188,"booth_name":"Govt Higher Primary school Kotehal"},"geometry":{"type":"Point","coordinates":[75.81066,14.22505]}},{"type":"Feature","properties":{"state":"Karnataka","district":14,"district_n":"DAVANGERE","pc":13,"pc_name":"Davanagere","ac":108,"ac_name":"Mayakonda","booth":198,"booth_name":"Govt Urdu Lower Primary School Room No 1 Navilehalu"},"geometry":{"type":"Point","coordinates":[75.90368,14.2176523]}},{"type":"Feature","properties":{"state":"Karnataka","district":14,"district_n":"DAVANGERE","pc":13,"pc_name":"Davanagere","ac":108,"ac_name":"Mayakonda","booth":100,"booth_name":"Govt Higher Primary School East wing Room No 2 kattalagere"},"geometry":{"type":"Point","coordinates":[75.8341141,14.2950277]}},{"type":"Feature","properties":{"state":"Karnataka","district":14,"district_n":"DAVANGERE","pc":13,"pc_name":"Davanagere","ac":108,"ac_name":"Mayakonda","booth":14,"booth_name":"Govt Lower Primary School, Gandhinagara"},"geometry":{"type":"Point","coordinates":[76.10238,14.4764585]}},{"type":"Feature","properties":{"state":"Karnataka","district":14,"district_n":"DAVANGERE","pc":13,"pc_name":"Davanagere","ac":108,"ac_name":"Mayakonda","booth":163,"booth_name":"Govt Higher Primary School, Shankaranahalli"},"geometry":{"type":"Point","coordinates":[76.0431061,14.26926]}},{"type":"Feature","properties":{"state":"Karnataka","district":14,"district_n":"DAVANGERE","pc":13,"pc_name":"Davanagere","ac":108,"ac_name":"Mayakonda","booth":160,"booth_name":"Govt Higher Primary School, Hedne"},"geometry":{"type":"Point","coordinates":[76.04786,14.2766418]}},{"type":"Feature","properties":{"state":"Karnataka","district":14,"district_n":"DAVANGERE","pc":13,"pc_name":"Davanagere","ac":108,"ac_name":"Mayakonda","booth":183,"booth_name":"Govt Higher Primary School Uttara Baga, Marabanahlli"},"geometry":{"type":"Point","coordinates":[75.80185,14.2429256]}},{"type":"Feature","properties":{"state":"Karnataka","district":14,"district_n":"DAVANGERE","pc":13,"pc_name":"Davanagere","ac":108,"ac_name":"Mayakonda","booth":140,"booth_name":"Govt Higher Primary School, Room No 1 Belalagere"},"geometry":{"type":"Point","coordinates":[75.84046,14.2504559]}},{"type":"Feature","properties":{"state":"Karnataka","district":14,"district_n":"DAVANGERE","pc":13,"pc_name":"Davanagere","ac":108,"ac_name":"Mayakonda","booth":199,"booth_name":"Govt Urdu Lower Primary School Room No 2 Navilehalu"},"geometry":{"type":"Point","coordinates":[75.903656,14.2176867]}},{"type":"Feature","properties":{"state":"Karnataka","district":14,"district_n":"DAVANGERE","pc":13,"pc_name":"Davanagere","ac":108,"ac_name":"Mayakonda","booth":119,"booth_name":"Govt Higher Primary School, Annapura"},"geometry":{"type":"Point","coordinates":[75.9636,14.4106379]}},{"type":"Feature","properties":{"state":"Karnataka","district":14,"district_n":"DAVANGERE","pc":13,"pc_name":"Davanagere","ac":108,"ac_name":"Mayakonda","booth":216,"booth_name":"Govt Higher Primary School North Wing Room No 1 Daginakatte"},"geometry":{"type":"Point","coordinates":[75.78467,14.19977]}},{"type":"Feature","properties":{"state":"Karnataka","district":14,"district_n":"DAVANGERE","pc":13,"pc_name":"Davanagere","ac":108,"ac_name":"Mayakonda","booth":218,"booth_name":"Grama Panchayath Office Daginakatte"},"geometry":{"type":"Point","coordinates":[75.78494,14.199687]}},{"type":"Feature","properties":{"state":"Karnataka","district":14,"district_n":"DAVANGERE","pc":13,"pc_name":"Davanagere","ac":108,"ac_name":"Mayakonda","booth":212,"booth_name":"Janatha High School East Wing Room No 2 Hosakere"},"geometry":{"type":"Point","coordinates":[75.81287,14.2023582]}},{"type":"Feature","properties":{"state":"Karnataka","district":14,"district_n":"DAVANGERE","pc":13,"pc_name":"Davanagere","ac":108,"ac_name":"Mayakonda","booth":217,"booth_name":"Govt Higher Primary School North Wing Room No 2 Daginakatte"},"geometry":{"type":"Point","coordinates":[75.78467,14.19977]}},{"type":"Feature","properties":{"state":"Karnataka","district":14,"district_n":"DAVANGERE","pc":13,"pc_name":"Davanagere","ac":108,"ac_name":"Mayakonda","booth":214,"booth_name":"Govt Higher Primary School North Wing Shrungarabagu Hosakere"},"geometry":{"type":"Point","coordinates":[75.8124542,14.2023821]}},{"type":"Feature","properties":{"state":"Karnataka","district":14,"district_n":"DAVANGERE","pc":13,"pc_name":"Davanagere","ac":108,"ac_name":"Mayakonda","booth":1,"booth_name":"Govt Higher Primary School North wing Room No 1 Aluru"},"geometry":{"type":"Point","coordinates":[76.01948,14.5066957]}},{"type":"Feature","properties":{"state":"Karnataka","district":14,"district_n":"DAVANGERE","pc":13,"pc_name":"Davanagere","ac":108,"ac_name":"Mayakonda","booth":239,"booth_name":"Anganawadi Kendra Malligenahalli"},"geometry":{"type":"Point","coordinates":[75.8269,14.1191521]}},{"type":"Feature","properties":{"state":"Karnataka","district":14,"district_n":"DAVANGERE","pc":13,"pc_name":"Davanagere","ac":108,"ac_name":"Mayakonda","booth":79,"booth_name":"Govt Higher Primary School Eachagatta"},"geometry":{"type":"Point","coordinates":[76.01797,14.3548574]}},{"type":"Feature","properties":{"state":"Karnataka","district":14,"district_n":"DAVANGERE","pc":13,"pc_name":"Davanagere","ac":108,"ac_name":"Mayakonda","booth":25,"booth_name":"Govt Higher Primary School Room no 2 Igooru"},"geometry":{"type":"Point","coordinates":[76.00446,14.4478979]}},{"type":"Feature","properties":{"state":"Karnataka","district":14,"district_n":"DAVANGERE","pc":13,"pc_name":"Davanagere","ac":108,"ac_name":"Mayakonda","booth":62,"booth_name":"Govt Lower Lower Primary School Hulapinakatte"},"geometry":{"type":"Point","coordinates":[76.0618744,14.3940191]}},{"type":"Feature","properties":{"state":"Karnataka","district":14,"district_n":"DAVANGERE","pc":13,"pc_name":"Davanagere","ac":108,"ac_name":"Mayakonda","booth":82,"booth_name":"Govt Lower Primary School Hunasekatte"},"geometry":{"type":"Point","coordinates":[76.12881,14.3711138]}},{"type":"Feature","properties":{"state":"Karnataka","district":14,"district_n":"DAVANGERE","pc":13,"pc_name":"Davanagere","ac":108,"ac_name":"Mayakonda","booth":162,"booth_name":"Govt Higher Primary School Room No 1 Anaberu"},"geometry":{"type":"Point","coordinates":[76.03095,14.2671461]}},{"type":"Feature","properties":{"state":"Karnataka","district":14,"district_n":"DAVANGERE","pc":13,"pc_name":"Davanagere","ac":108,"ac_name":"Mayakonda","booth":19,"booth_name":"Govt Lower Primary School Lingapura"},"geometry":{"type":"Point","coordinates":[76.03658,14.4650478]}},{"type":"Feature","properties":{"state":"Karnataka","district":14,"district_n":"DAVANGERE","pc":13,"pc_name":"Davanagere","ac":108,"ac_name":"Mayakonda","booth":39,"booth_name":"Govt Lower Primary School Pamenahalli"},"geometry":{"type":"Point","coordinates":[75.95659,14.419405]}},{"type":"Feature","properties":{"state":"Karnataka","district":14,"district_n":"DAVANGERE","pc":13,"pc_name":"Davanagere","ac":108,"ac_name":"Mayakonda","booth":73,"booth_name":"Govt Higher Primary School Room No 2 Nerlige"},"geometry":{"type":"Point","coordinates":[76.04795,14.3676224]}},{"type":"Feature","properties":{"state":"Karnataka","district":14,"district_n":"DAVANGERE","pc":13,"pc_name":"Davanagere","ac":108,"ac_name":"Mayakonda","booth":125,"booth_name":"Govt Higher Primary School Dindadahalli"},"geometry":{"type":"Point","coordinates":[76.07168,14.3124723]}},{"type":"Feature","properties":{"state":"Karnataka","district":14,"district_n":"DAVANGERE","pc":13,"pc_name":"Davanagere","ac":108,"ac_name":"Mayakonda","booth":208,"booth_name":"Govt Higher Primary School Room No 2 Hucchavvanahalli"},"geometry":{"type":"Point","coordinates":[76.09539,14.2550535]}},{"type":"Feature","properties":{"state":"Karnataka","district":14,"district_n":"DAVANGERE","pc":13,"pc_name":"Davanagere","ac":108,"ac_name":"Mayakonda","booth":68,"booth_name":"Govt Lower Primary School katihalli lambanihatti"},"geometry":{"type":"Point","coordinates":[76.1207657,14.3943872]}},{"type":"Feature","properties":{"state":"Karnataka","district":14,"district_n":"DAVANGERE","pc":13,"pc_name":"Davanagere","ac":108,"ac_name":"Mayakonda","booth":151,"booth_name":"Anaberu Kenchappa High School Room No 1 Bada"},"geometry":{"type":"Point","coordinates":[76.00061,14.2788286]}},{"type":"Feature","properties":{"state":"Karnataka","district":14,"district_n":"DAVANGERE","pc":13,"pc_name":"Davanagere","ac":108,"ac_name":"Mayakonda","booth":154,"booth_name":"Govt Higher primary Boys School Room no 1 Mayakonda"},"geometry":{"type":"Point","coordinates":[76.08483,14.28871]}},{"type":"Feature","properties":{"state":"Karnataka","district":14,"district_n":"DAVANGERE","pc":13,"pc_name":"Davanagere","ac":108,"ac_name":"Mayakonda","booth":205,"booth_name":"Govt Higher Primary School Kyathanahalli"},"geometry":{"type":"Point","coordinates":[76.06323,14.2373466]}},{"type":"Feature","properties":{"state":"Karnataka","district":14,"district_n":"DAVANGERE","pc":13,"pc_name":"Davanagere","ac":108,"ac_name":"Mayakonda","booth":211,"booth_name":"Janatha High School East Wing Room No 1 Hosakere"},"geometry":{"type":"Point","coordinates":[75.813,14.2024136]}},{"type":"Feature","properties":{"state":"Karnataka","district":14,"district_n":"DAVANGERE","pc":13,"pc_name":"Davanagere","ac":108,"ac_name":"Mayakonda","booth":219,"booth_name":"Govt Lower Primary School Kanchugaranahalli"},"geometry":{"type":"Point","coordinates":[75.7933,14.16732]}},{"type":"Feature","properties":{"state":"Karnataka","district":14,"district_n":"DAVANGERE","pc":13,"pc_name":"Davanagere","ac":108,"ac_name":"Mayakonda","booth":231,"booth_name":"Govt Higher Primary School Guddadabenakanahalli"},"geometry":{"type":"Point","coordinates":[75.80629,14.1431141]}},{"type":"Feature","properties":{"state":"Karnataka","district":14,"district_n":"DAVANGERE","pc":13,"pc_name":"Davanagere","ac":108,"ac_name":"Mayakonda","booth":20,"booth_name":"Govt Higher Primary School Boragondanahalli"},"geometry":{"type":"Point","coordinates":[76.0068741,14.4649353]}},{"type":"Feature","properties":{"state":"Karnataka","district":14,"district_n":"DAVANGERE","pc":13,"pc_name":"Davanagere","ac":108,"ac_name":"Mayakonda","booth":40,"booth_name":"Govt Higher Primary School H Kalapanahalli"},"geometry":{"type":"Point","coordinates":[75.98044,14.4207335]}},{"type":"Feature","properties":{"state":"Karnataka","district":14,"district_n":"DAVANGERE","pc":13,"pc_name":"Davanagere","ac":108,"ac_name":"Mayakonda","booth":171,"booth_name":"Govt model Higher Primary School North Wing Nalkudre"},"geometry":{"type":"Point","coordinates":[75.90721,14.23908]}},{"type":"Feature","properties":{"state":"Karnataka","district":14,"district_n":"DAVANGERE","pc":13,"pc_name":"Davanagere","ac":108,"ac_name":"Mayakonda","booth":11,"booth_name":"11 Govt Higher Primary School, Kurudi"},"geometry":{"type":"Point","coordinates":[76.12169,14.5127506]}},{"type":"Feature","properties":{"state":"Karnataka","district":14,"district_n":"DAVANGERE","pc":13,"pc_name":"Davanagere","ac":108,"ac_name":"Mayakonda","booth":80,"booth_name":"Govt Lower Primary School School Ganganakatte"},"geometry":{"type":"Point","coordinates":[76.0643,14.3552208]}},{"type":"Feature","properties":{"state":"Karnataka","district":14,"district_n":"DAVANGERE","pc":13,"pc_name":"Davanagere","ac":108,"ac_name":"Mayakonda","booth":5,"booth_name":"Govt Lower Primary School Sriramangara (lambanihatti Mujure Aluru) Room no 1"},"geometry":{"type":"Point","coordinates":[76.023,14.4810562]}},{"type":"Feature","properties":{"state":"Karnataka","district":14,"district_n":"DAVANGERE","pc":13,"pc_name":"Davanagere","ac":108,"ac_name":"Mayakonda","booth":51,"booth_name":"Govt Higher Primary School Siddanuru"},"geometry":{"type":"Point","coordinates":[76.03752,14.4199228]}},{"type":"Feature","properties":{"state":"Karnataka","district":14,"district_n":"DAVANGERE","pc":13,"pc_name":"Davanagere","ac":108,"ac_name":"Mayakonda","booth":60,"booth_name":"Govt Higher Primary School Room No 2 Anagodu"},"geometry":{"type":"Point","coordinates":[76.04418,14.3927479]}},{"type":"Feature","properties":{"state":"Karnataka","district":14,"district_n":"DAVANGERE","pc":13,"pc_name":"Davanagere","ac":108,"ac_name":"Mayakonda","booth":157,"booth_name":"Govt High school mayakonda"},"geometry":{"type":"Point","coordinates":[76.0843658,14.2885895]}},{"type":"Feature","properties":{"state":"Karnataka","district":14,"district_n":"DAVANGERE","pc":13,"pc_name":"Davanagere","ac":108,"ac_name":"Mayakonda","booth":94,"booth_name":"Govt Lower primary school anjaneya nagara"},"geometry":{"type":"Point","coordinates":[75.89352,14.3115025]}},{"type":"Feature","properties":{"state":"Karnataka","district":14,"district_n":"DAVANGERE","pc":13,"pc_name":"Davanagere","ac":108,"ac_name":"Mayakonda","booth":17,"booth_name":"shri hayalada veerappa shivalingappa padavi purva vidyalaya room no 2 Anaji"},"geometry":{"type":"Point","coordinates":[76.0776749,14.4827423]}},{"type":"Feature","properties":{"state":"Karnataka","district":14,"district_n":"DAVANGERE","pc":13,"pc_name":"Davanagere","ac":108,"ac_name":"Mayakonda","booth":28,"booth_name":"Govt Higher Primary School Room no 2 hulikatte"},"geometry":{"type":"Point","coordinates":[76.10159,14.4629145]}},{"type":"Feature","properties":{"state":"Karnataka","district":14,"district_n":"DAVANGERE","pc":13,"pc_name":"Davanagere","ac":108,"ac_name":"Mayakonda","booth":48,"booth_name":"Govt Higher Primary School Myasarahatti (h) Gudalu"},"geometry":{"type":"Point","coordinates":[76.11002,14.4287548]}},{"type":"Feature","properties":{"state":"Karnataka","district":14,"district_n":"DAVANGERE","pc":13,"pc_name":"Davanagere","ac":108,"ac_name":"Mayakonda","booth":77,"booth_name":"Govt Higher Primary School Room No 2 Kolkunte"},"geometry":{"type":"Point","coordinates":[75.96311,14.328681]}},{"type":"Feature","properties":{"state":"Karnataka","district":14,"district_n":"DAVANGERE","pc":13,"pc_name":"Davanagere","ac":108,"ac_name":"Mayakonda","booth":114,"booth_name":"Govt Higher Primary School School Bommenahalli"},"geometry":{"type":"Point","coordinates":[76.0427246,14.3222466]}},{"type":"Feature","properties":{"state":"Karnataka","district":14,"district_n":"DAVANGERE","pc":13,"pc_name":"Davanagere","ac":108,"ac_name":"Mayakonda","booth":117,"booth_name":"Govt Higher Primary School Kodaganuru"},"geometry":{"type":"Point","coordinates":[76.04148,14.3354893]}},{"type":"Feature","properties":{"state":"Karnataka","district":14,"district_n":"DAVANGERE","pc":13,"pc_name":"Davanagere","ac":108,"ac_name":"Mayakonda","booth":120,"booth_name":"Govt Higher Primary School Parashurampura"},"geometry":{"type":"Point","coordinates":[76.06088,14.3202353]}},{"type":"Feature","properties":{"state":"Karnataka","district":14,"district_n":"DAVANGERE","pc":13,"pc_name":"Davanagere","ac":108,"ac_name":"Mayakonda","booth":8,"booth_name":"Govt Higher Primary School School Mellekatte Room no 2"},"geometry":{"type":"Point","coordinates":[76.04509,14.4905224]}},{"type":"Feature","properties":{"state":"Karnataka","district":14,"district_n":"DAVANGERE","pc":13,"pc_name":"Davanagere","ac":108,"ac_name":"Mayakonda","booth":37,"booth_name":"Govt Higher Primary School New Building tholahunse Room no 2"},"geometry":{"type":"Point","coordinates":[75.96389,14.4106646]}},{"type":"Feature","properties":{"state":"Karnataka","district":14,"district_n":"DAVANGERE","pc":13,"pc_name":"Davanagere","ac":108,"ac_name":"Mayakonda","booth":54,"booth_name":"Govt Lower Primary School Mallashettyhalli"},"geometry":{"type":"Point","coordinates":[76.00032,14.4025583]}},{"type":"Feature","properties":{"state":"Karnataka","district":14,"district_n":"DAVANGERE","pc":13,"pc_name":"Davanagere","ac":108,"ac_name":"Mayakonda","booth":57,"booth_name":"Govt Higher Primary School Room No 2 Kurki"},"geometry":{"type":"Point","coordinates":[75.9739,14.3743868]}},{"type":"Feature","properties":{"state":"Karnataka","district":14,"district_n":"DAVANGERE","pc":13,"pc_name":"Davanagere","ac":108,"ac_name":"Mayakonda","booth":71,"booth_name":"Govt Higher Higher Primary School Room No 2 Hebbalu"},"geometry":{"type":"Point","coordinates":[76.09525,14.378376]}},{"type":"Feature","properties":{"state":"Karnataka","district":14,"district_n":"DAVANGERE","pc":13,"pc_name":"Davanagere","ac":108,"ac_name":"Mayakonda","booth":91,"booth_name":"Govt Higher Primary School Yaravanagatihalli"},"geometry":{"type":"Point","coordinates":[75.93455,14.3368731]}},{"type":"Feature","properties":{"state":"Karnataka","district":14,"district_n":"DAVANGERE","pc":13,"pc_name":"Davanagere","ac":108,"ac_name":"Mayakonda","booth":97,"booth_name":"Govt Higher Primary School middle side kariganuru"},"geometry":{"type":"Point","coordinates":[75.83443,14.29502]}},{"type":"Feature","properties":{"state":"Karnataka","district":14,"district_n":"DAVANGERE","pc":13,"pc_name":"Davanagere","ac":108,"ac_name":"Mayakonda","booth":111,"booth_name":"Govt Higher Primary School Room No 1 Attigere"},"geometry":{"type":"Point","coordinates":[75.98933,14.3234091]}},{"type":"Feature","properties":{"state":"Karnataka","district":14,"district_n":"DAVANGERE","pc":13,"pc_name":"Davanagere","ac":108,"ac_name":"Mayakonda","booth":123,"booth_name":"Govt Higher Primary School Bavihalu"},"geometry":{"type":"Point","coordinates":[76.09055,14.3245649]}},{"type":"Feature","properties":{"state":"Karnataka","district":14,"district_n":"DAVANGERE","pc":13,"pc_name":"Davanagere","ac":108,"ac_name":"Mayakonda","booth":134,"booth_name":"Govt Higher Primary Primary School Room No 2 Mathi"},"geometry":{"type":"Point","coordinates":[75.8844452,14.2836075]}},{"type":"Feature","properties":{"state":"Karnataka","district":14,"district_n":"DAVANGERE","pc":13,"pc_name":"Davanagere","ac":108,"ac_name":"Mayakonda","booth":137,"booth_name":"Govt Higher Primary School Kashettihalli"},"geometry":{"type":"Point","coordinates":[75.8401642,14.26337]}},{"type":"Feature","properties":{"state":"Karnataka","district":14,"district_n":"DAVANGERE","pc":13,"pc_name":"Davanagere","ac":108,"ac_name":"Mayakonda","booth":143,"booth_name":"Govt Higher Primary School Room No 1 Shyagale"},"geometry":{"type":"Point","coordinates":[75.93718,14.277235]}},{"type":"Feature","properties":{"state":"Karnataka","district":14,"district_n":"DAVANGERE","pc":13,"pc_name":"Davanagere","ac":108,"ac_name":"Mayakonda","booth":177,"booth_name":"Govt Girls Higher Primary School Thyaanige"},"geometry":{"type":"Point","coordinates":[75.88347,14.2488623]}},{"type":"Feature","properties":{"state":"Karnataka","district":14,"district_n":"DAVANGERE","pc":13,"pc_name":"Davanagere","ac":108,"ac_name":"Mayakonda","booth":186,"booth_name":"Govt Higher Primary School East Side Yalodahalli"},"geometry":{"type":"Point","coordinates":[75.841156,14.2490673]}},{"type":"Feature","properties":{"state":"Karnataka","district":14,"district_n":"DAVANGERE","pc":13,"pc_name":"Davanagere","ac":108,"ac_name":"Mayakonda","booth":206,"booth_name":"Govt Higher Primary School H Basapura"},"geometry":{"type":"Point","coordinates":[76.08675,14.2526741]}},{"type":"Feature","properties":{"state":"Karnataka","district":14,"district_n":"DAVANGERE","pc":13,"pc_name":"Davanagere","ac":108,"ac_name":"Mayakonda","booth":194,"booth_name":"Govt High School South Wing Chiradoni"},"geometry":{"type":"Point","coordinates":[75.84121,14.2117109]}},{"type":"Feature","properties":{"state":"Karnataka","district":14,"district_n":"DAVANGERE","pc":13,"pc_name":"Davanagere","ac":108,"ac_name":"Mayakonda","booth":33,"booth_name":"Govt Higher Primary School Vaddinahalli"},"geometry":{"type":"Point","coordinates":[75.97922,14.443347]}},{"type":"Feature","properties":{"state":"Karnataka","district":14,"district_n":"DAVANGERE","pc":13,"pc_name":"Davanagere","ac":108,"ac_name":"Mayakonda","booth":222,"booth_name":"Govt Lower Primary School Shrungarabagu"},"geometry":{"type":"Point","coordinates":[75.81937,14.1918259]}},{"type":"Feature","properties":{"state":"Karnataka","district":14,"district_n":"DAVANGERE","pc":13,"pc_name":"Davanagere","ac":108,"ac_name":"Mayakonda","booth":228,"booth_name":"Govt Higher Primary School East Wing Kanivebilachi"},"geometry":{"type":"Point","coordinates":[75.8489151,14.1808348]}},{"type":"Feature","properties":{"state":"Karnataka","district":14,"district_n":"DAVANGERE","pc":13,"pc_name":"Davanagere","ac":108,"ac_name":"Mayakonda","booth":148,"booth_name":"Govt Higher Primary School Room No 2 Malalkere"},"geometry":{"type":"Point","coordinates":[75.97729,14.2827663]}},{"type":"Feature","properties":{"state":"Karnataka","district":14,"district_n":"DAVANGERE","pc":13,"pc_name":"Davanagere","ac":108,"ac_name":"Mayakonda","booth":74,"booth_name":"Govt Higher Primary School Hiretogaleri"},"geometry":{"type":"Point","coordinates":[75.97851,14.3549595]}},{"type":"Feature","properties":{"state":"Karnataka","district":14,"district_n":"DAVANGERE","pc":13,"pc_name":"Davanagere","ac":108,"ac_name":"Mayakonda","booth":174,"booth_name":"Govt Lower Primary School Nalkudure Ashokanagara Camp"},"geometry":{"type":"Point","coordinates":[75.91788,14.2521315]}},{"type":"Feature","properties":{"state":"Karnataka","district":14,"district_n":"DAVANGERE","pc":13,"pc_name":"Davanagere","ac":108,"ac_name":"Mayakonda","booth":237,"booth_name":"Govt Lower Primary School Guddadakumaranahalli"},"geometry":{"type":"Point","coordinates":[75.828186,14.124074]}},{"type":"Feature","properties":{"state":"Karnataka","district":14,"district_n":"DAVANGERE","pc":13,"pc_name":"Davanagere","ac":108,"ac_name":"Mayakonda","booth":101,"booth_name":"Govt Higher Primary Girls School West Wing Kattalagere"},"geometry":{"type":"Point","coordinates":[75.81825,14.2661343]}},{"type":"Feature","properties":{"state":"Karnataka","district":14,"district_n":"DAVANGERE","pc":13,"pc_name":"Davanagere","ac":108,"ac_name":"Mayakonda","booth":181,"booth_name":"Govt Lower Primary School, Chikkakurubarahalli"},"geometry":{"type":"Point","coordinates":[75.82333,14.2444944]}},{"type":"Feature","properties":{"state":"Karnataka","district":14,"district_n":"DAVANGERE","pc":13,"pc_name":"Davanagere","ac":108,"ac_name":"Mayakonda","booth":147,"booth_name":"Govt Higher Primary School Room No 1, Malalkere"},"geometry":{"type":"Point","coordinates":[75.97729,14.2827663]}},{"type":"Feature","properties":{"state":"Karnataka","district":14,"district_n":"DAVANGERE","pc":13,"pc_name":"Davanagere","ac":108,"ac_name":"Mayakonda","booth":69,"booth_name":"Govt Higher Primary School Mandaluru"},"geometry":{"type":"Point","coordinates":[76.09686,14.37744]}},{"type":"Feature","properties":{"state":"Karnataka","district":14,"district_n":"DAVANGERE","pc":13,"pc_name":"Davanagere","ac":108,"ac_name":"Mayakonda","booth":7,"booth_name":"Govt Higher Primary School, Mellekatte Room No 1"},"geometry":{"type":"Point","coordinates":[76.04489,14.49069]}},{"type":"Feature","properties":{"state":"Karnataka","district":14,"district_n":"DAVANGERE","pc":13,"pc_name":"Davanagere","ac":108,"ac_name":"Mayakonda","booth":58,"booth_name":"Govt Higher Primary School, Bullapura"},"geometry":{"type":"Point","coordinates":[76.0124359,14.3855114]}},{"type":"Feature","properties":{"state":"Karnataka","district":14,"district_n":"DAVANGERE","pc":13,"pc_name":"Davanagere","ac":108,"ac_name":"Mayakonda","booth":9,"booth_name":"Govt Lower Primary School Gollarahalli"},"geometry":{"type":"Point","coordinates":[76.0712357,14.499671]}},{"type":"Feature","properties":{"state":"Karnataka","district":14,"district_n":"DAVANGERE","pc":13,"pc_name":"Davanagere","ac":108,"ac_name":"Mayakonda","booth":31,"booth_name":"Govt Lower Primary School, Rudranakatte"},"geometry":{"type":"Point","coordinates":[76.03146,14.4366837]}},{"type":"Feature","properties":{"state":"Karnataka","district":14,"district_n":"DAVANGERE","pc":13,"pc_name":"Davanagere","ac":108,"ac_name":"Mayakonda","booth":12,"booth_name":"Govt Higher Primary School Hemmanabethuru"},"geometry":{"type":"Point","coordinates":[76.12081,14.49784]}},{"type":"Feature","properties":{"state":"Karnataka","district":14,"district_n":"DAVANGERE","pc":13,"pc_name":"Davanagere","ac":108,"ac_name":"Mayakonda","booth":213,"booth_name":"Govt Higher Primary School South Wing Shrungarabagu Hosakere"},"geometry":{"type":"Point","coordinates":[75.81259,14.2022572]}},{"type":"Feature","properties":{"state":"Karnataka","district":14,"district_n":"DAVANGERE","pc":13,"pc_name":"Davanagere","ac":108,"ac_name":"Mayakonda","booth":16,"booth_name":"Shri Halayda veerappa shivalingappa padavi purva vidyalaya room no 1 Anaji"},"geometry":{"type":"Point","coordinates":[76.07801,14.4827213]}},{"type":"Feature","properties":{"state":"Karnataka","district":14,"district_n":"DAVANGERE","pc":13,"pc_name":"Davanagere","ac":108,"ac_name":"Mayakonda","booth":95,"booth_name":"Govt Higher Primary School North Side Kariganuru"},"geometry":{"type":"Point","coordinates":[75.84983,14.3070784]}},{"type":"Feature","properties":{"state":"Karnataka","district":14,"district_n":"DAVANGERE","pc":13,"pc_name":"Davanagere","ac":108,"ac_name":"Mayakonda","booth":84,"booth_name":"Govt Higher Primary School Room No 1 Naraganahalli"},"geometry":{"type":"Point","coordinates":[76.08954,14.3444395]}},{"type":"Feature","properties":{"state":"Karnataka","district":14,"district_n":"DAVANGERE","pc":13,"pc_name":"Davanagere","ac":108,"ac_name":"Mayakonda","booth":86,"booth_name":"Govt Lower Lower Primary Primary School Jampenahalli"},"geometry":{"type":"Point","coordinates":[76.033165,14.35795]}},{"type":"Feature","properties":{"state":"Karnataka","district":14,"district_n":"DAVANGERE","pc":13,"pc_name":"Davanagere","ac":108,"ac_name":"Mayakonda","booth":87,"booth_name":"Govt Higher Primary Primary School Kaluru"},"geometry":{"type":"Point","coordinates":[76.00638,14.3331795]}},{"type":"Feature","properties":{"state":"Karnataka","district":14,"district_n":"DAVANGERE","pc":13,"pc_name":"Davanagere","ac":108,"ac_name":"Mayakonda","booth":88,"booth_name":"Govt Higher Higher Primary School Chikkathogaleri"},"geometry":{"type":"Point","coordinates":[75.98312,14.3434353]}},{"type":"Feature","properties":{"state":"Karnataka","district":14,"district_n":"DAVANGERE","pc":13,"pc_name":"Davanagere","ac":108,"ac_name":"Mayakonda","booth":85,"booth_name":"Govt Higher Primary Boys School Room No 2 Naraganahalli"},"geometry":{"type":"Point","coordinates":[76.0895,14.34441]}},{"type":"Feature","properties":{"state":"Karnataka","district":14,"district_n":"DAVANGERE","pc":13,"pc_name":"Davanagere","ac":108,"ac_name":"Mayakonda","booth":93,"booth_name":"Govt Lower Lower Primary School Honnamaradi"},"geometry":{"type":"Point","coordinates":[75.89352,14.3115025]}},{"type":"Feature","properties":{"state":"Karnataka","district":14,"district_n":"DAVANGERE","pc":13,"pc_name":"Davanagere","ac":108,"ac_name":"Mayakonda","booth":32,"booth_name":"Govt Higher Primary School Agasanakatte"},"geometry":{"type":"Point","coordinates":[76.03146,14.4366837]}},{"type":"Feature","properties":{"state":"Karnataka","district":14,"district_n":"DAVANGERE","pc":13,"pc_name":"Davanagere","ac":108,"ac_name":"Mayakonda","booth":232,"booth_name":"Govt Lower Primary School Hosahalli"},"geometry":{"type":"Point","coordinates":[75.85855,14.1556416]}},{"type":"Feature","properties":{"state":"Karnataka","district":14,"district_n":"DAVANGERE","pc":13,"pc_name":"Davanagere","ac":108,"ac_name":"Mayakonda","booth":204,"booth_name":"Govt Higher Primary School Hindasaghatta"},"geometry":{"type":"Point","coordinates":[76.0703659,14.2617474]}},{"type":"Feature","properties":{"state":"Karnataka","district":14,"district_n":"DAVANGERE","pc":13,"pc_name":"Davanagere","ac":108,"ac_name":"Mayakonda","booth":209,"booth_name":"Govt Higher Primary School Vaddarahatti"},"geometry":{"type":"Point","coordinates":[76.1063,14.2548141]}},{"type":"Feature","properties":{"state":"Karnataka","district":14,"district_n":"DAVANGERE","pc":13,"pc_name":"Davanagere","ac":108,"ac_name":"Mayakonda","booth":193,"booth_name":"Govt High School North Wing Chiradoni"},"geometry":{"type":"Point","coordinates":[75.84118,14.2117119]}},{"type":"Feature","properties":{"state":"Karnataka","district":14,"district_n":"DAVANGERE","pc":13,"pc_name":"Davanagere","ac":108,"ac_name":"Mayakonda","booth":192,"booth_name":"Govt Higher Primary Boys School North Wing Chiradoni"},"geometry":{"type":"Point","coordinates":[75.84255,14.2140293]}},{"type":"Feature","properties":{"state":"Karnataka","district":14,"district_n":"DAVANGERE","pc":13,"pc_name":"Davanagere","ac":108,"ac_name":"Mayakonda","booth":190,"booth_name":"Govt Higher Primary School Sangahalli"},"geometry":{"type":"Point","coordinates":[75.83598,14.2315426]}},{"type":"Feature","properties":{"state":"Karnataka","district":14,"district_n":"DAVANGERE","pc":13,"pc_name":"Davanagere","ac":108,"ac_name":"Mayakonda","booth":201,"booth_name":"Govt Higher Primary School West Wing Room No 2 Navilehalu"},"geometry":{"type":"Point","coordinates":[75.90342,14.2176752]}},{"type":"Feature","properties":{"state":"Karnataka","district":14,"district_n":"DAVANGERE","pc":13,"pc_name":"Davanagere","ac":108,"ac_name":"Mayakonda","booth":215,"booth_name":"Govt Higher Primary School South Wing Daginakatte"},"geometry":{"type":"Point","coordinates":[75.78447,14.1994848]}},{"type":"Feature","properties":{"state":"Karnataka","district":14,"district_n":"DAVANGERE","pc":13,"pc_name":"Davanagere","ac":108,"ac_name":"Mayakonda","booth":207,"booth_name":"Govt Higher Primary School Room No 1 Hucchavvanahalli"},"geometry":{"type":"Point","coordinates":[76.09542,14.2550907]}},{"type":"Feature","properties":{"state":"Karnataka","district":14,"district_n":"DAVANGERE","pc":13,"pc_name":"Davanagere","ac":108,"ac_name":"Mayakonda","booth":230,"booth_name":"Govt Higher Primary School Nilogallu"},"geometry":{"type":"Point","coordinates":[75.79326,14.1674166]}},{"type":"Feature","properties":{"state":"Karnataka","district":14,"district_n":"DAVANGERE","pc":13,"pc_name":"Davanagere","ac":108,"ac_name":"Mayakonda","booth":200,"booth_name":"Govt Higher Primary School West Wing Room No 1 Navilehalu"},"geometry":{"type":"Point","coordinates":[75.90334,14.2175961]}},{"type":"Feature","properties":{"state":"Karnataka","district":14,"district_n":"DAVANGERE","pc":13,"pc_name":"Davanagere","ac":108,"ac_name":"Mayakonda","booth":197,"booth_name":"Govt Higher Primary School North Wing Room No 2 Doddaghatta"},"geometry":{"type":"Point","coordinates":[75.8827438,14.2182722]}},{"type":"Feature","properties":{"state":"Karnataka","district":14,"district_n":"DAVANGERE","pc":13,"pc_name":"Davanagere","ac":108,"ac_name":"Mayakonda","booth":223,"booth_name":"Govt Higher Primary School Room No 1 Kamsagara"},"geometry":{"type":"Point","coordinates":[75.85845,14.1573887]}},{"type":"Feature","properties":{"state":"Karnataka","district":14,"district_n":"DAVANGERE","pc":13,"pc_name":"Davanagere","ac":108,"ac_name":"Mayakonda","booth":34,"booth_name":"Govt Higher Primary School School Old building Room no 1 Tholahunse"},"geometry":{"type":"Point","coordinates":[75.96359,14.4106379]}},{"type":"Feature","properties":{"state":"Karnataka","district":14,"district_n":"DAVANGERE","pc":13,"pc_name":"Davanagere","ac":108,"ac_name":"Mayakonda","booth":220,"booth_name":"Govt Urdu Higher Primary School Room No 1 Shrungarabagu"},"geometry":{"type":"Point","coordinates":[75.81248,14.2022228]}},{"type":"Feature","properties":{"state":"Karnataka","district":14,"district_n":"DAVANGERE","pc":13,"pc_name":"Davanagere","ac":108,"ac_name":"Mayakonda","booth":203,"booth_name":"Govt Higher Primary School Room No 2 Nalkunda"},"geometry":{"type":"Point","coordinates":[76.05275,14.2528381]}},{"type":"Feature","properties":{"state":"Karnataka","district":14,"district_n":"DAVANGERE","pc":13,"pc_name":"Davanagere","ac":108,"ac_name":"Mayakonda","booth":49,"booth_name":"Govt Lower Primary School Mudenahalli"},"geometry":{"type":"Point","coordinates":[76.07604,14.4241381]}},{"type":"Feature","properties":{"state":"Karnataka","district":14,"district_n":"DAVANGERE","pc":13,"pc_name":"Davanagere","ac":108,"ac_name":"Mayakonda","booth":50,"booth_name":"Govt Lower Primary School Pavadarangavvanahalli"},"geometry":{"type":"Point","coordinates":[76.0598,14.4167576]}},{"type":"Feature","properties":{"state":"Karnataka","district":14,"district_n":"DAVANGERE","pc":13,"pc_name":"Davanagere","ac":108,"ac_name":"Mayakonda","booth":44,"booth_name":"Govt Higher Primary School Kandanakovi"},"geometry":{"type":"Point","coordinates":[76.07067,14.4289541]}},{"type":"Feature","properties":{"state":"Karnataka","district":14,"district_n":"DAVANGERE","pc":13,"pc_name":"Davanagere","ac":108,"ac_name":"Mayakonda","booth":46,"booth_name":"Govt Higher Primary School Room No 1 Gudalu"},"geometry":{"type":"Point","coordinates":[76.09741,14.4277983]}},{"type":"Feature","properties":{"state":"Karnataka","district":14,"district_n":"DAVANGERE","pc":13,"pc_name":"Davanagere","ac":108,"ac_name":"Mayakonda","booth":4,"booth_name":"Govt Higher Primary School south wing new building Room no 2"},"geometry":{"type":"Point","coordinates":[76.01939,14.50645]}},{"type":"Feature","properties":{"state":"Karnataka","district":14,"district_n":"DAVANGERE","pc":13,"pc_name":"Davanagere","ac":108,"ac_name":"Mayakonda","booth":83,"booth_name":"Govt Lower Primary School Lakkamuttenahalli"},"geometry":{"type":"Point","coordinates":[76.1502762,14.3670931]}},{"type":"Feature","properties":{"state":"Karnataka","district":14,"district_n":"DAVANGERE","pc":13,"pc_name":"Davanagere","ac":108,"ac_name":"Mayakonda","booth":138,"booth_name":"Govt Higher primary School, Belalagere"},"geometry":{"type":"Point","coordinates":[75.84046,14.2504663]}},{"type":"Feature","properties":{"state":"Karnataka","district":14,"district_n":"DAVANGERE","pc":13,"pc_name":"Davanagere","ac":108,"ac_name":"Mayakonda","booth":118,"booth_name":"Govt Govt Junior College, Kodaganur"},"geometry":{"type":"Point","coordinates":[75.96355,14.4107008]}},{"type":"Feature","properties":{"state":"Karnataka","district":14,"district_n":"DAVANGERE","pc":13,"pc_name":"Davanagere","ac":108,"ac_name":"Mayakonda","booth":161,"booth_name":"Govt Lower Primary School, Rampura"},"geometry":{"type":"Point","coordinates":[76.10902,14.2783384]}},{"type":"Feature","properties":{"state":"Karnataka","district":14,"district_n":"DAVANGERE","pc":13,"pc_name":"Davanagere","ac":108,"ac_name":"Mayakonda","booth":15,"booth_name":"Govt Higher Primary School, Room No 1 Anaji"},"geometry":{"type":"Point","coordinates":[76.07801,14.4827213]}},{"type":"Feature","properties":{"state":"Karnataka","district":14,"district_n":"DAVANGERE","pc":13,"pc_name":"Davanagere","ac":108,"ac_name":"Mayakonda","booth":155,"booth_name":"Govt Higher Primary Boys School Room No 2, Mayakonda"},"geometry":{"type":"Point","coordinates":[76.084816,14.2885761]}},{"type":"Feature","properties":{"state":"Karnataka","district":14,"district_n":"DAVANGERE","pc":13,"pc_name":"Davanagere","ac":108,"ac_name":"Mayakonda","booth":106,"booth_name":"Maruthi Govt Junior College New Building Room No 2, Lokikere"},"geometry":{"type":"Point","coordinates":[76.00032,14.4025583]}},{"type":"Feature","properties":{"state":"Karnataka","district":14,"district_n":"DAVANGERE","pc":13,"pc_name":"Davanagere","ac":108,"ac_name":"Mayakonda","booth":173,"booth_name":"Govt Lower Primary School, Nalkudure Gomala (majare)"},"geometry":{"type":"Point","coordinates":[75.89967,14.2531967]}},{"type":"Feature","properties":{"state":"Karnataka","district":14,"district_n":"DAVANGERE","pc":13,"pc_name":"Davanagere","ac":108,"ac_name":"Mayakonda","booth":112,"booth_name":"Govt Higher Primary School Room No 2 Attigere"},"geometry":{"type":"Point","coordinates":[75.9804459,14.4207335]}},{"type":"Feature","properties":{"state":"Karnataka","district":14,"district_n":"DAVANGERE","pc":13,"pc_name":"Davanagere","ac":108,"ac_name":"Mayakonda","booth":3,"booth_name":"Govt Higher Primary School South Wing new building Room No 1"},"geometry":{"type":"Point","coordinates":[76.01956,14.5065126]}},{"type":"Feature","properties":{"state":"Karnataka","district":14,"district_n":"DAVANGERE","pc":13,"pc_name":"Davanagere","ac":108,"ac_name":"Mayakonda","booth":6,"booth_name":"Govt Lower Primary School Sriramangara (lambanihatti Mujure Aluru Room No 2"},"geometry":{"type":"Point","coordinates":[76.02307,14.4810286]}},{"type":"Feature","properties":{"state":"Karnataka","district":14,"district_n":"DAVANGERE","pc":13,"pc_name":"Davanagere","ac":108,"ac_name":"Mayakonda","booth":18,"booth_name":"Govt Lower Primary School Giriyapura"},"geometry":{"type":"Point","coordinates":[76.06476,14.4596233]}},{"type":"Feature","properties":{"state":"Karnataka","district":14,"district_n":"DAVANGERE","pc":13,"pc_name":"Davanagere","ac":108,"ac_name":"Mayakonda","booth":21,"booth_name":"Govt Higher Primary School Basavanalu"},"geometry":{"type":"Point","coordinates":[75.97957,14.4750576]}},{"type":"Feature","properties":{"state":"Karnataka","district":14,"district_n":"DAVANGERE","pc":13,"pc_name":"Davanagere","ac":108,"ac_name":"Mayakonda","booth":23,"booth_name":"Govt Lower Primary School Sri krishnanagara (igoor Majre Gollarahatti)"},"geometry":{"type":"Point","coordinates":[75.99237,14.4472618]}},{"type":"Feature","properties":{"state":"Karnataka","district":14,"district_n":"DAVANGERE","pc":13,"pc_name":"Davanagere","ac":108,"ac_name":"Mayakonda","booth":27,"booth_name":"Govt Higher Primary School Room no 1 Hulikatte"},"geometry":{"type":"Point","coordinates":[76.1016159,14.4628859]}},{"type":"Feature","properties":{"state":"Karnataka","district":14,"district_n":"DAVANGERE","pc":13,"pc_name":"Davanagere","ac":108,"ac_name":"Mayakonda","booth":29,"booth_name":"Govt Lower Primary School Chikkavvanagathihalli"},"geometry":{"type":"Point","coordinates":[76.1194839,14.4743471]}},{"type":"Feature","properties":{"state":"Karnataka","district":14,"district_n":"DAVANGERE","pc":13,"pc_name":"Davanagere","ac":108,"ac_name":"Mayakonda","booth":35,"booth_name":"Govt Higher Primary School Old Building Room No 2 Tholahunse"},"geometry":{"type":"Point","coordinates":[75.96355,14.4107008]}},{"type":"Feature","properties":{"state":"Karnataka","district":14,"district_n":"DAVANGERE","pc":13,"pc_name":"Davanagere","ac":108,"ac_name":"Mayakonda","booth":41,"booth_name":"Govt Higher Primary School Room No 1 Honnuru"},"geometry":{"type":"Point","coordinates":[75.99609,14.4190807]}},{"type":"Feature","properties":{"state":"Karnataka","district":14,"district_n":"DAVANGERE","pc":13,"pc_name":"Davanagere","ac":108,"ac_name":"Mayakonda","booth":43,"booth_name":"Govt Higher Primary School Honnuru Gollarahatti"},"geometry":{"type":"Point","coordinates":[75.9901,14.4102726]}},{"type":"Feature","properties":{"state":"Karnataka","district":14,"district_n":"DAVANGERE","pc":13,"pc_name":"Davanagere","ac":108,"ac_name":"Mayakonda","booth":47,"booth_name":"Govt Higher Primary School Room No 2 Gudalu"},"geometry":{"type":"Point","coordinates":[76.09742,14.4277544]}},{"type":"Feature","properties":{"state":"Karnataka","district":14,"district_n":"DAVANGERE","pc":13,"pc_name":"Davanagere","ac":108,"ac_name":"Mayakonda","booth":52,"booth_name":"Govt Higher Primary School Kogganuru"},"geometry":{"type":"Point","coordinates":[76.0157,14.4013281]}},{"type":"Feature","properties":{"state":"Karnataka","district":14,"district_n":"DAVANGERE","pc":13,"pc_name":"Davanagere","ac":108,"ac_name":"Mayakonda","booth":64,"booth_name":"Govt Lower Primary School Gudalu Hosahalli"},"geometry":{"type":"Point","coordinates":[76.09719,14.4011059]}},{"type":"Feature","properties":{"state":"Karnataka","district":14,"district_n":"DAVANGERE","pc":13,"pc_name":"Davanagere","ac":108,"ac_name":"Mayakonda","booth":70,"booth_name":"Govt Higher Higher Primary School Room No 1 Hebbalu"},"geometry":{"type":"Point","coordinates":[76.09701,14.377387]}},{"type":"Feature","properties":{"state":"Karnataka","district":14,"district_n":"DAVANGERE","pc":13,"pc_name":"Davanagere","ac":108,"ac_name":"Mayakonda","booth":78,"booth_name":"Govt Lower Lower Primary School Hanumanahalli"},"geometry":{"type":"Point","coordinates":[76.0004,14.3574524]}},{"type":"Feature","properties":{"state":"Karnataka","district":14,"district_n":"DAVANGERE","pc":13,"pc_name":"Davanagere","ac":108,"ac_name":"Mayakonda","booth":89,"booth_name":"Govt Higher Primary School Room No 1 Gopanalu"},"geometry":{"type":"Point","coordinates":[75.9630356,14.3285446]}},{"type":"Feature","properties":{"state":"Karnataka","district":14,"district_n":"DAVANGERE","pc":13,"pc_name":"Davanagere","ac":108,"ac_name":"Mayakonda","booth":90,"booth_name":"Govt Higher Primary School Room No 2 Gopanalu"},"geometry":{"type":"Point","coordinates":[75.9629745,14.3285084]}},{"type":"Feature","properties":{"state":"Karnataka","district":14,"district_n":"DAVANGERE","pc":13,"pc_name":"Davanagere","ac":108,"ac_name":"Mayakonda","booth":92,"booth_name":"Govt Lower Primary School Kalkere"},"geometry":{"type":"Point","coordinates":[75.91626,14.3268776]}},{"type":"Feature","properties":{"state":"Karnataka","district":14,"district_n":"DAVANGERE","pc":13,"pc_name":"Davanagere","ac":108,"ac_name":"Mayakonda","booth":98,"booth_name":"Govt Higher Primary Boys School West Side Kattalagere"},"geometry":{"type":"Point","coordinates":[75.83434,14.2951164]}},{"type":"Feature","properties":{"state":"Karnataka","district":14,"district_n":"DAVANGERE","pc":13,"pc_name":"Davanagere","ac":108,"ac_name":"Mayakonda","booth":107,"booth_name":"Govt Higher Primary School Room no 1 Lokikere"},"geometry":{"type":"Point","coordinates":[75.90534,14.3441067]}},{"type":"Feature","properties":{"state":"Karnataka","district":14,"district_n":"DAVANGERE","pc":13,"pc_name":"Davanagere","ac":108,"ac_name":"Mayakonda","booth":109,"booth_name":"Govt Higher Primary School Room No 3 Lokikere"},"geometry":{"type":"Point","coordinates":[75.92658,14.3044863]}},{"type":"Feature","properties":{"state":"Karnataka","district":14,"district_n":"DAVANGERE","pc":13,"pc_name":"Davanagere","ac":108,"ac_name":"Mayakonda","booth":113,"booth_name":"Govt Lower Primary School Medakeripura"},"geometry":{"type":"Point","coordinates":[76.01298,14.3238249]}},{"type":"Feature","properties":{"state":"Karnataka","district":14,"district_n":"DAVANGERE","pc":13,"pc_name":"Davanagere","ac":108,"ac_name":"Mayakonda","booth":115,"booth_name":"Govt Higher Primary School Room No 1 Kabburu"},"geometry":{"type":"Point","coordinates":[76.025444,14.31043]}},{"type":"Feature","properties":{"state":"Karnataka","district":14,"district_n":"DAVANGERE","pc":13,"pc_name":"Davanagere","ac":108,"ac_name":"Mayakonda","booth":124,"booth_name":"Govt Higher Primary School Doddamagadi"},"geometry":{"type":"Point","coordinates":[76.07209,14.3016691]}},{"type":"Feature","properties":{"state":"Karnataka","district":14,"district_n":"DAVANGERE","pc":13,"pc_name":"Davanagere","ac":108,"ac_name":"Mayakonda","booth":129,"booth_name":"Govt Higher Primary School Venkataramana Camp"},"geometry":{"type":"Point","coordinates":[75.96952,14.3098879]}},{"type":"Feature","properties":{"state":"Karnataka","district":14,"district_n":"DAVANGERE","pc":13,"pc_name":"Davanagere","ac":108,"ac_name":"Mayakonda","booth":130,"booth_name":"Govt Higher Primary School Kashipura"},"geometry":{"type":"Point","coordinates":[75.96953,14.3099327]}},{"type":"Feature","properties":{"state":"Karnataka","district":14,"district_n":"DAVANGERE","pc":13,"pc_name":"Davanagere","ac":108,"ac_name":"Mayakonda","booth":132,"booth_name":"Govt Higher Primary School Room No 2 Huvinamadu"},"geometry":{"type":"Point","coordinates":[75.9049149,14.2941751]}},{"type":"Feature","properties":{"state":"Karnataka","district":14,"district_n":"DAVANGERE","pc":13,"pc_name":"Davanagere","ac":108,"ac_name":"Mayakonda","booth":135,"booth_name":"Govt Higher Primary School Kadaranahalli"},"geometry":{"type":"Point","coordinates":[75.8678741,14.2765217]}},{"type":"Feature","properties":{"state":"Karnataka","district":14,"district_n":"DAVANGERE","pc":13,"pc_name":"Davanagere","ac":108,"ac_name":"Mayakonda","booth":150,"booth_name":"Govt Higher Primary School Room No 1 Bada"},"geometry":{"type":"Point","coordinates":[76.00148,14.27884]}},{"type":"Feature","properties":{"state":"Karnataka","district":14,"district_n":"DAVANGERE","pc":13,"pc_name":"Davanagere","ac":108,"ac_name":"Mayakonda","booth":146,"booth_name":"Govt Higher Primary School Kodihalli"},"geometry":{"type":"Point","coordinates":[75.94499,14.2962208]}},{"type":"Feature","properties":{"state":"Karnataka","district":14,"district_n":"DAVANGERE","pc":13,"pc_name":"Davanagere","ac":108,"ac_name":"Mayakonda","booth":153,"booth_name":"Govt Lower Primary School Vittalalpura"},"geometry":{"type":"Point","coordinates":[76.0293,14.286232]}},{"type":"Feature","properties":{"state":"Karnataka","district":14,"district_n":"DAVANGERE","pc":13,"pc_name":"Davanagere","ac":108,"ac_name":"Mayakonda","booth":176,"booth_name":"Govt High School south Wing Thyavanige"},"geometry":{"type":"Point","coordinates":[75.8831558,14.2483368]}},{"type":"Feature","properties":{"state":"Karnataka","district":14,"district_n":"DAVANGERE","pc":13,"pc_name":"Davanagere","ac":108,"ac_name":"Mayakonda","booth":189,"booth_name":"Govt Higher Primary School Harosagara"},"geometry":{"type":"Point","coordinates":[75.81174,14.2173872]}},{"type":"Feature","properties":{"state":"Karnataka","district":14,"district_n":"DAVANGERE","pc":13,"pc_name":"Davanagere","ac":108,"ac_name":"Mayakonda","booth":187,"booth_name":"Govt Higher Primary School North Side Yalodahalli"},"geometry":{"type":"Point","coordinates":[75.7776642,14.2234774]}},{"type":"Feature","properties":{"state":"Karnataka","district":14,"district_n":"DAVANGERE","pc":13,"pc_name":"Davanagere","ac":108,"ac_name":"Mayakonda","booth":195,"booth_name":"Govt Higher Primary School South Wing Doddaghatta"},"geometry":{"type":"Point","coordinates":[75.88247,14.2186213]}},{"type":"Feature","properties":{"state":"Karnataka","district":14,"district_n":"DAVANGERE","pc":13,"pc_name":"Davanagere","ac":108,"ac_name":"Mayakonda","booth":224,"booth_name":"Govt Higher Primary School Room No 2 Kamsagara"},"geometry":{"type":"Point","coordinates":[75.8584442,14.1574678]}},{"type":"Feature","properties":{"state":"Karnataka","district":14,"district_n":"DAVANGERE","pc":13,"pc_name":"Davanagere","ac":108,"ac_name":"Mayakonda","booth":236,"booth_name":"Govt Lower Primary School Madhuranaikanahalli"},"geometry":{"type":"Point","coordinates":[75.8387451,14.1218386]}},{"type":"Feature","properties":{"state":"Karnataka","district":14,"district_n":"DAVANGERE","pc":13,"pc_name":"Davanagere","ac":108,"ac_name":"Mayakonda","booth":221,"booth_name":"Govt Urdu Higher Primary School Room No 2 Shrungarabagu"},"geometry":{"type":"Point","coordinates":[75.81253,14.2023869]}},{"type":"Feature","properties":{"state":"Karnataka","district":14,"district_n":"DAVANGERE","pc":13,"pc_name":"Davanagere","ac":108,"ac_name":"Mayakonda","booth":38,"booth_name":"Govt Higher Primary School Room No 1 Yellamma Nagara Tholahunse"},"geometry":{"type":"Point","coordinates":[75.96389,14.4106941]}},{"type":"Feature","properties":{"state":"Karnataka","district":14,"district_n":"DAVANGERE","pc":13,"pc_name":"Davanagere","ac":108,"ac_name":"Mayakonda","booth":144,"booth_name":"Govt Higher Primary School Room No 2 Shyagale"},"geometry":{"type":"Point","coordinates":[75.94286,14.2803049]}},{"type":"Feature","properties":{"state":"Karnataka","district":14,"district_n":"DAVANGERE","pc":13,"pc_name":"Davanagere","ac":108,"ac_name":"Mayakonda","booth":164,"booth_name":"Govt Higher Primary School Room No 2 2 Anaberu"},"geometry":{"type":"Point","coordinates":[76.03093,14.2671394]}},{"type":"Feature","properties":{"state":"Karnataka","district":14,"district_n":"DAVANGERE","pc":13,"pc_name":"Davanagere","ac":108,"ac_name":"Mayakonda","booth":172,"booth_name":"Govt Model Higher Primary School South Wing Nalkudare"},"geometry":{"type":"Point","coordinates":[75.90721,14.2389307]}},{"type":"Feature","properties":{"state":"Karnataka","district":14,"district_n":"DAVANGERE","pc":13,"pc_name":"Davanagere","ac":108,"ac_name":"Mayakonda","booth":175,"booth_name":"Govt High school north wing thyavanige"},"geometry":{"type":"Point","coordinates":[75.8832,14.2485428]}},{"type":"Feature","properties":{"state":"Karnataka","district":14,"district_n":"DAVANGERE","pc":13,"pc_name":"Davanagere","ac":108,"ac_name":"Mayakonda","booth":233,"booth_name":"Govt Higher Primary School Hosahalli Hosanagara Badavane"},"geometry":{"type":"Point","coordinates":[75.85388,14.1618633]}},{"type":"Feature","properties":{"state":"Karnataka","district":14,"district_n":"DAVANGERE","pc":13,"pc_name":"Davanagere","ac":108,"ac_name":"Mayakonda","booth":238,"booth_name":"Govt Lower Primary School Haleshapura"},"geometry":{"type":"Point","coordinates":[75.82374,14.1268549]}},{"type":"Feature","properties":{"state":"Karnataka","district":14,"district_n":"DAVANGERE","pc":13,"pc_name":"Davanagere","ac":108,"ac_name":"Mayakonda","booth":24,"booth_name":"Govt Higher Primary School Room No 1 Igooru"},"geometry":{"type":"Point","coordinates":[76.00446,14.4479866]}},{"type":"Feature","properties":{"state":"Karnataka","district":14,"district_n":"DAVANGERE","pc":13,"pc_name":"Davanagere","ac":108,"ac_name":"Mayakonda","booth":26,"booth_name":"Govt Higher Primary School Thumbigere"},"geometry":{"type":"Point","coordinates":[76.03587,14.4511442]}},{"type":"Feature","properties":{"state":"Karnataka","district":14,"district_n":"DAVANGERE","pc":13,"pc_name":"Davanagere","ac":108,"ac_name":"Mayakonda","booth":61,"booth_name":"Govt Lower Primary School Shivapura"},"geometry":{"type":"Point","coordinates":[76.05919,14.4118919]}},{"type":"Feature","properties":{"state":"Karnataka","district":14,"district_n":"DAVANGERE","pc":13,"pc_name":"Davanagere","ac":108,"ac_name":"Mayakonda","booth":63,"booth_name":"Govt Lower Primary School Haluvarthi"},"geometry":{"type":"Point","coordinates":[76.08149,14.3952608]}},{"type":"Feature","properties":{"state":"Karnataka","district":14,"district_n":"DAVANGERE","pc":13,"pc_name":"Davanagere","ac":108,"ac_name":"Mayakonda","booth":81,"booth_name":"Govt Lower Primary School Chinnasamudra"},"geometry":{"type":"Point","coordinates":[76.07877,14.3598127]}},{"type":"Feature","properties":{"state":"Karnataka","district":14,"district_n":"DAVANGERE","pc":13,"pc_name":"Davanagere","ac":108,"ac_name":"Mayakonda","booth":152,"booth_name":"Anaberu Kenchappa High School Room No 2 Bada"},"geometry":{"type":"Point","coordinates":[76.00063,14.2788]}},{"type":"Feature","properties":{"state":"Karnataka","district":14,"district_n":"DAVANGERE","pc":13,"pc_name":"Davanagere","ac":108,"ac_name":"Mayakonda","booth":141,"booth_name":"Govt High School Room No 2 Belalagere"},"geometry":{"type":"Point","coordinates":[75.84046,14.2504559]}},{"type":"Feature","properties":{"state":"Karnataka","district":14,"district_n":"DAVANGERE","pc":13,"pc_name":"Davanagere","ac":108,"ac_name":"Mayakonda","booth":196,"booth_name":"Govt Higher Primary School North Wing Room No 1 Doddaghatta"},"geometry":{"type":"Point","coordinates":[75.88258,14.218462]}},{"type":"Feature","properties":{"state":"Karnataka","district":14,"district_n":"DAVANGERE","pc":13,"pc_name":"Davanagere","ac":108,"ac_name":"Mayakonda","booth":30,"booth_name":"Govt Lower Primary School Kereyagalahalli"},"geometry":{"type":"Point","coordinates":[76.08036,14.4468956]}},{"type":"Feature","properties":{"state":"Karnataka","district":14,"district_n":"DAVANGERE","pc":13,"pc_name":"Davanagere","ac":108,"ac_name":"Mayakonda","booth":133,"booth_name":"Govt Higher Primary School Room No 1 Mathi"},"geometry":{"type":"Point","coordinates":[75.8862457,14.2852211]}},{"type":"Feature","properties":{"state":"Karnataka","district":14,"district_n":"DAVANGERE","pc":13,"pc_name":"Davanagere","ac":108,"ac_name":"Mayakonda","booth":121,"booth_name":"Govt Lower Primary School Honnanayakanahalli"},"geometry":{"type":"Point","coordinates":[76.09091,14.3352947]}},{"type":"Feature","properties":{"state":"Karnataka","district":14,"district_n":"DAVANGERE","pc":13,"pc_name":"Davanagere","ac":108,"ac_name":"Mayakonda","booth":104,"booth_name":"Govt Higher Primary School Goniwada Camp"},"geometry":{"type":"Point","coordinates":[75.88092,14.3109627]}},{"type":"Feature","properties":{"state":"Karnataka","district":14,"district_n":"DAVANGERE","pc":13,"pc_name":"Davanagere","ac":108,"ac_name":"Mayakonda","booth":158,"booth_name":"Govt Higher Primary School Upparahatti Room No 1 Mayakonda"},"geometry":{"type":"Point","coordinates":[76.08487,14.28861]}},{"type":"Feature","properties":{"state":"Karnataka","district":14,"district_n":"DAVANGERE","pc":13,"pc_name":"Davanagere","ac":108,"ac_name":"Mayakonda","booth":229,"booth_name":"Govt Higher Primary School West Wing Kanivebilachi"},"geometry":{"type":"Point","coordinates":[75.84893,14.1808968]}},{"type":"Feature","properties":{"state":"Karnataka","district":14,"district_n":"DAVANGERE","pc":13,"pc_name":"Davanagere","ac":108,"ac_name":"Mayakonda","booth":55,"booth_name":"Govt Higher Higher Primary School Chattobanahalli"},"geometry":{"type":"Point","coordinates":[75.98885,14.4007435]}},{"type":"Feature","properties":{"state":"Karnataka","district":14,"district_n":"DAVANGERE","pc":13,"pc_name":"Davanagere","ac":108,"ac_name":"Mayakonda","booth":235,"booth_name":"Govt Higher Primary School South Wing Room No 2 Rudrapura"},"geometry":{"type":"Point","coordinates":[75.8736038,14.1363983]}},{"type":"Feature","properties":{"state":"Karnataka","district":14,"district_n":"DAVANGERE","pc":13,"pc_name":"Davanagere","ac":108,"ac_name":"Mayakonda","booth":66,"booth_name":"Govt Lower Primary School Gummanuru"},"geometry":{"type":"Point","coordinates":[76.10894,14.4161282]}},{"type":"Feature","properties":{"state":"Karnataka","district":14,"district_n":"DAVANGERE","pc":13,"pc_name":"Davanagere","ac":108,"ac_name":"Mayakonda","booth":67,"booth_name":"Govt Lower Primary School Katihalli"},"geometry":{"type":"Point","coordinates":[76.1207657,14.397439]}},{"type":"Feature","properties":{"state":"Karnataka","district":14,"district_n":"DAVANGERE","pc":13,"pc_name":"Davanagere","ac":108,"ac_name":"Mayakonda","booth":72,"booth_name":"Govt Higher Primary School Room No 1 Nerlige"},"geometry":{"type":"Point","coordinates":[76.04787,14.3677664]}},{"type":"Feature","properties":{"state":"Karnataka","district":14,"district_n":"DAVANGERE","pc":13,"pc_name":"Davanagere","ac":108,"ac_name":"Mayakonda","booth":75,"booth_name":"Govt Lower Primary School Kuntapalanahalli"},"geometry":{"type":"Point","coordinates":[75.9270859,14.356679]}},{"type":"Feature","properties":{"state":"Karnataka","district":14,"district_n":"DAVANGERE","pc":13,"pc_name":"Davanagere","ac":108,"ac_name":"Mayakonda","booth":126,"booth_name":"Govt Higher Primary School Room No 1 Ramagondanahalli"},"geometry":{"type":"Point","coordinates":[75.99549,14.3078289]}},{"type":"Feature","properties":{"state":"Karnataka","district":14,"district_n":"DAVANGERE","pc":13,"pc_name":"Davanagere","ac":108,"ac_name":"Mayakonda","booth":127,"booth_name":"Govt Higher Primary School Room No 2 2 Ramagondanahalli"},"geometry":{"type":"Point","coordinates":[75.9955,14.3078251]}}]}