{"type":"FeatureCollection","features":[{"type":"Feature","properties":{"state":"Karnataka","district":1,"district_n":"BELGAUM","pc":2,"pc_name":"Belgaum","ac":11,"ac_name":"Belgaum Uttar","booth":13,"booth_name":"Govt Kannada Higher Primary School, [right wing] Shahu Nagar"},"geometry":{"type":"Point","coordinates":[74.51036,15.88908]}},{"type":"Feature","properties":{"state":"Karnataka","district":1,"district_n":"BELGAUM","pc":2,"pc_name":"Belgaum","ac":11,"ac_name":"Belgaum Uttar","booth":30,"booth_name":"Govt Kannada High Primary School,yamanapur"},"geometry":{"type":"Point","coordinates":[74.52069,15.9103727]}},{"type":"Feature","properties":{"state":"Karnataka","district":1,"district_n":"BELGAUM","pc":2,"pc_name":"Belgaum","ac":11,"ac_name":"Belgaum Uttar","booth":47,"booth_name":"Govt Kannada Higher primary [right Wing] Room Room 3 Alarwad"},"geometry":{"type":"Point","coordinates":[74.56967,15.8377075]}},{"type":"Feature","properties":{"state":"Karnataka","district":1,"district_n":"BELGAUM","pc":2,"pc_name":"Belgaum","ac":11,"ac_name":"Belgaum Uttar","booth":64,"booth_name":"Al ameen School Azad Nagar[room No 1]azad Nagar"},"geometry":{"type":"Point","coordinates":[74.52897,15.8633785]}},{"type":"Feature","properties":{"state":"Karnataka","district":1,"district_n":"BELGAUM","pc":2,"pc_name":"Belgaum","ac":11,"ac_name":"Belgaum Uttar","booth":81,"booth_name":"St Paul?s High School,main building,xth A Class Room Camp Belgaum"},"geometry":{"type":"Point","coordinates":[74.50347,15.8534069]}},{"type":"Feature","properties":{"state":"Karnataka","district":1,"district_n":"BELGAUM","pc":2,"pc_name":"Belgaum","ac":11,"ac_name":"Belgaum Uttar","booth":98,"booth_name":"Govt Kannada Higher Primary School No 22 [old building] Left wing Room No 5, Sadashiva Nagar, Belgaum"},"geometry":{"type":"Point","coordinates":[74.509964,15.8781967]}},{"type":"Feature","properties":{"state":"Karnataka","district":1,"district_n":"BELGAUM","pc":2,"pc_name":"Belgaum","ac":11,"ac_name":"Belgaum Uttar","booth":31,"booth_name":"Govt Kannada High Primary School Hindalco Colony [right Wing]"},"geometry":{"type":"Point","coordinates":[74.52695,15.90412]}},{"type":"Feature","properties":{"state":"Karnataka","district":1,"district_n":"BELGAUM","pc":2,"pc_name":"Belgaum","ac":11,"ac_name":"Belgaum Uttar","booth":33,"booth_name":"Siddeshwar High School old building [right Wing, Room 1]kanabargi"},"geometry":{"type":"Point","coordinates":[74.5647659,15.894495]}},{"type":"Feature","properties":{"state":"Karnataka","district":1,"district_n":"BELGAUM","pc":2,"pc_name":"Belgaum","ac":11,"ac_name":"Belgaum Uttar","booth":46,"booth_name":"Govt Kannada Higher primary [right Wing] Room Room 1 Alarwad"},"geometry":{"type":"Point","coordinates":[74.56958,15.8374863]}},{"type":"Feature","properties":{"state":"Karnataka","district":1,"district_n":"BELGAUM","pc":2,"pc_name":"Belgaum","ac":11,"ac_name":"Belgaum Uttar","booth":48,"booth_name":"Office of the Central Semen Collection Centre Eastern wing Mahantesh Nagar"},"geometry":{"type":"Point","coordinates":[74.53518,15.8744717]}},{"type":"Feature","properties":{"state":"Karnataka","district":1,"district_n":"BELGAUM","pc":2,"pc_name":"Belgaum","ac":11,"ac_name":"Belgaum Uttar","booth":82,"booth_name":"St Xavier High School [left Wing 2nd Room] Camp Belgaum"},"geometry":{"type":"Point","coordinates":[74.5041962,15.8630066]}},{"type":"Feature","properties":{"state":"Karnataka","district":1,"district_n":"BELGAUM","pc":2,"pc_name":"Belgaum","ac":11,"ac_name":"Belgaum Uttar","booth":97,"booth_name":"Govt Kannada Higher Primary Primary No 22[old building West wing] Room No 3, Sadashiva Nagar, belgaum"},"geometry":{"type":"Point","coordinates":[74.50987,15.8780918]}},{"type":"Feature","properties":{"state":"Karnataka","district":1,"district_n":"BELGAUM","pc":2,"pc_name":"Belgaum","ac":11,"ac_name":"Belgaum Uttar","booth":3,"booth_name":"Govt Kannada Higher Primary School School No 26 Old Building [western side]room No 5 5 Vishweshwarayya Nagar"},"geometry":{"type":"Point","coordinates":[74.5066,15.87408]}},{"type":"Feature","properties":{"state":"Karnataka","district":1,"district_n":"BELGAUM","pc":2,"pc_name":"Belgaum","ac":11,"ac_name":"Belgaum Uttar","booth":10,"booth_name":"Office Of The Depoty Director of Public Instruction [western wing] Club Road"},"geometry":{"type":"Point","coordinates":[74.50537,15.8678637]}},{"type":"Feature","properties":{"state":"Karnataka","district":1,"district_n":"BELGAUM","pc":2,"pc_name":"Belgaum","ac":11,"ac_name":"Belgaum Uttar","booth":12,"booth_name":"Govt Kannada Higher Primary Primary School [right wing] Sangameshwar Nagar"},"geometry":{"type":"Point","coordinates":[74.50907,15.8864851]}},{"type":"Feature","properties":{"state":"Karnataka","district":1,"district_n":"BELGAUM","pc":2,"pc_name":"Belgaum","ac":11,"ac_name":"Belgaum Uttar","booth":67,"booth_name":"Govt urdu Higher Primary School, [east wing Room No 3] New Gandhi Nagar, Belgaum"},"geometry":{"type":"Point","coordinates":[74.5335159,15.8601665]}},{"type":"Feature","properties":{"state":"Karnataka","district":1,"district_n":"BELGAUM","pc":2,"pc_name":"Belgaum","ac":11,"ac_name":"Belgaum Uttar","booth":69,"booth_name":"Ushatai Gogte High School Office Room No l Patil Galli, Belgaum"},"geometry":{"type":"Point","coordinates":[74.51611,15.8557758]}},{"type":"Feature","properties":{"state":"Karnataka","district":1,"district_n":"BELGAUM","pc":2,"pc_name":"Belgaum","ac":11,"ac_name":"Belgaum Uttar","booth":76,"booth_name":"Govt Marathi High Primary School No 12,[right wing] wing] 7th standard Class room Mahadwar road"},"geometry":{"type":"Point","coordinates":[74.516716,15.8521538]}},{"type":"Feature","properties":{"state":"Karnataka","district":1,"district_n":"BELGAUM","pc":2,"pc_name":"Belgaum","ac":11,"ac_name":"Belgaum Uttar","booth":4,"booth_name":"Govt Kannada Higher Prmary School Old Building Room No 2 2 2 2nd stage Hanuman Nagar"},"geometry":{"type":"Point","coordinates":[74.49481,15.88133]}},{"type":"Feature","properties":{"state":"Karnataka","district":1,"district_n":"BELGAUM","pc":2,"pc_name":"Belgaum","ac":11,"ac_name":"Belgaum Uttar","booth":11,"booth_name":"Govt Kannada Higher Primary Primary School [left wing] Sangameshwar Nagar"},"geometry":{"type":"Point","coordinates":[74.508934,15.88641]}},{"type":"Feature","properties":{"state":"Karnataka","district":1,"district_n":"BELGAUM","pc":2,"pc_name":"Belgaum","ac":11,"ac_name":"Belgaum Uttar","booth":18,"booth_name":"Agriculture Produce Marketing Committee [development Section] Section] Apmc Yard"},"geometry":{"type":"Point","coordinates":[74.5034256,15.8871527]}},{"type":"Feature","properties":{"state":"Karnataka","district":1,"district_n":"BELGAUM","pc":2,"pc_name":"Belgaum","ac":11,"ac_name":"Belgaum Uttar","booth":54,"booth_name":"Bhagya Laxmi Unit Room No 5 ( North Side) Remand Home"},"geometry":{"type":"Point","coordinates":[74.5229,15.8668928]}},{"type":"Feature","properties":{"state":"Karnataka","district":1,"district_n":"BELGAUM","pc":2,"pc_name":"Belgaum","ac":11,"ac_name":"Belgaum Uttar","booth":61,"booth_name":"Govt Urdu Higher primary primary School No l0 Room No 2 Old Gandhi Nagar, Belgaum"},"geometry":{"type":"Point","coordinates":[74.53127,15.8595524]}},{"type":"Feature","properties":{"state":"Karnataka","district":1,"district_n":"BELGAUM","pc":2,"pc_name":"Belgaum","ac":11,"ac_name":"Belgaum Uttar","booth":68,"booth_name":"Govt Marathi Higher Primary School No 4 [right side] Room No 1 Mali Galli,belgaum"},"geometry":{"type":"Point","coordinates":[74.5170059,15.85785]}},{"type":"Feature","properties":{"state":"Karnataka","district":1,"district_n":"BELGAUM","pc":2,"pc_name":"Belgaum","ac":11,"ac_name":"Belgaum Uttar","booth":2,"booth_name":"Govt Kannada Higher Primary School No 26 Old building building Room No 2 Vishweshwarayya Nagar"},"geometry":{"type":"Point","coordinates":[74.50646,15.8739462]}},{"type":"Feature","properties":{"state":"Karnataka","district":1,"district_n":"BELGAUM","pc":2,"pc_name":"Belgaum","ac":11,"ac_name":"Belgaum Uttar","booth":20,"booth_name":"Seventh Day Adventists English Nursery & Primary School [middle wing] Room No 1"},"geometry":{"type":"Point","coordinates":[74.51468,15.8854856]}},{"type":"Feature","properties":{"state":"Karnataka","district":1,"district_n":"BELGAUM","pc":2,"pc_name":"Belgaum","ac":11,"ac_name":"Belgaum Uttar","booth":27,"booth_name":"Javaharlal Nehru Medical College,main Building Building Boys Comman Room"},"geometry":{"type":"Point","coordinates":[74.51732,15.8836985]}},{"type":"Feature","properties":{"state":"Karnataka","district":1,"district_n":"BELGAUM","pc":2,"pc_name":"Belgaum","ac":11,"ac_name":"Belgaum Uttar","booth":45,"booth_name":"Kannadaboys Kannadaboys School,devraj Urs Colony[room 1]"},"geometry":{"type":"Point","coordinates":[74.57199,15.8513737]}},{"type":"Feature","properties":{"state":"Karnataka","district":1,"district_n":"BELGAUM","pc":2,"pc_name":"Belgaum","ac":11,"ac_name":"Belgaum Uttar","booth":70,"booth_name":"Ushatai Gogte High School office Room No 2 Patil Galli,belgaum"},"geometry":{"type":"Point","coordinates":[74.51618,15.8557844]}},{"type":"Feature","properties":{"state":"Karnataka","district":1,"district_n":"BELGAUM","pc":2,"pc_name":"Belgaum","ac":11,"ac_name":"Belgaum Uttar","booth":84,"booth_name":"St Paul?s High School Vth B Class Camp,belgaum"},"geometry":{"type":"Point","coordinates":[74.50273,15.85256]}},{"type":"Feature","properties":{"state":"Karnataka","district":1,"district_n":"BELGAUM","pc":2,"pc_name":"Belgaum","ac":11,"ac_name":"Belgaum Uttar","booth":25,"booth_name":"Javaharlal Nehru Medical College Main Builidding left side Demonstration Room 1 opposite syndicat Bank"},"geometry":{"type":"Point","coordinates":[74.5182953,15.8824387]}},{"type":"Feature","properties":{"state":"Karnataka","district":1,"district_n":"BELGAUM","pc":2,"pc_name":"Belgaum","ac":11,"ac_name":"Belgaum Uttar","booth":39,"booth_name":"Govt Kannada Lower Primary School, [room 2] Ramateerth Nagar"},"geometry":{"type":"Point","coordinates":[74.54226,15.8859911]}},{"type":"Feature","properties":{"state":"Karnataka","district":1,"district_n":"BELGAUM","pc":2,"pc_name":"Belgaum","ac":11,"ac_name":"Belgaum Uttar","booth":40,"booth_name":"Govt Kannada Higher primary School, New building[eastern wing] [room 2] Siddeshwar Nagar"},"geometry":{"type":"Point","coordinates":[74.5554352,15.8963947]}},{"type":"Feature","properties":{"state":"Karnataka","district":1,"district_n":"BELGAUM","pc":2,"pc_name":"Belgaum","ac":11,"ac_name":"Belgaum Uttar","booth":75,"booth_name":"Balawadi Building Near Kapileshwar Kapileshwar Temple,belgaum"},"geometry":{"type":"Point","coordinates":[74.51549,15.8519287]}},{"type":"Feature","properties":{"state":"Karnataka","district":1,"district_n":"BELGAUM","pc":2,"pc_name":"Belgaum","ac":11,"ac_name":"Belgaum Uttar","booth":89,"booth_name":"B K Model High School New building building Left Wing Xth B Class room Cantonment Belgaum"},"geometry":{"type":"Point","coordinates":[74.50817,15.8506346]}},{"type":"Feature","properties":{"state":"Karnataka","district":1,"district_n":"BELGAUM","pc":2,"pc_name":"Belgaum","ac":11,"ac_name":"Belgaum Uttar","booth":90,"booth_name":"Office of the Minor Irrigation Quality Control Sub,division, Killa Belgaum"},"geometry":{"type":"Point","coordinates":[74.52511,15.8612413]}},{"type":"Feature","properties":{"state":"Karnataka","district":1,"district_n":"BELGAUM","pc":2,"pc_name":"Belgaum","ac":11,"ac_name":"Belgaum Uttar","booth":15,"booth_name":"Govt Marathi Higher Primary School [middle wing] Shahu Nagar"},"geometry":{"type":"Point","coordinates":[74.51071,15.8888578]}},{"type":"Feature","properties":{"state":"Karnataka","district":1,"district_n":"BELGAUM","pc":2,"pc_name":"Belgaum","ac":11,"ac_name":"Belgaum Uttar","booth":32,"booth_name":"Govt Kannada High Primary School,oppoiste Chavadi Kanabargi"},"geometry":{"type":"Point","coordinates":[74.55703,15.89422]}},{"type":"Feature","properties":{"state":"Karnataka","district":1,"district_n":"BELGAUM","pc":2,"pc_name":"Belgaum","ac":11,"ac_name":"Belgaum Uttar","booth":49,"booth_name":"Love Dale Primary School [eastern wing] Room No 1 Mahantesh Nagar"},"geometry":{"type":"Point","coordinates":[74.52827,15.8767662]}},{"type":"Feature","properties":{"state":"Karnataka","district":1,"district_n":"BELGAUM","pc":2,"pc_name":"Belgaum","ac":11,"ac_name":"Belgaum Uttar","booth":66,"booth_name":"Govt urdu Higher Primary School, [east wing Room No 1] New Gandhi Nagar, Belgaum"},"geometry":{"type":"Point","coordinates":[74.53389,15.8608618]}},{"type":"Feature","properties":{"state":"Karnataka","district":1,"district_n":"BELGAUM","pc":2,"pc_name":"Belgaum","ac":11,"ac_name":"Belgaum Uttar","booth":83,"booth_name":"St Xavier High School [right Wing 2nd Room] Camp Belgaum"},"geometry":{"type":"Point","coordinates":[74.50449,15.8629179]}},{"type":"Feature","properties":{"state":"Karnataka","district":1,"district_n":"BELGAUM","pc":2,"pc_name":"Belgaum","ac":11,"ac_name":"Belgaum Uttar","booth":100,"booth_name":"Govt Kannada Higher Primary School Left side Corporation Balawadi building, Ashok Nagar, Belgaum"},"geometry":{"type":"Point","coordinates":[74.52452,15.8760824]}},{"type":"Feature","properties":{"state":"Karnataka","district":1,"district_n":"BELGAUM","pc":2,"pc_name":"Belgaum","ac":11,"ac_name":"Belgaum Uttar","booth":1,"booth_name":"Govt kannada higher primary School School No 26 Room No 1 New building Vishweshwarayya Nagar"},"geometry":{"type":"Point","coordinates":[74.5062561,15.8741283]}},{"type":"Feature","properties":{"state":"Karnataka","district":1,"district_n":"BELGAUM","pc":2,"pc_name":"Belgaum","ac":11,"ac_name":"Belgaum Uttar","booth":35,"booth_name":"Siddeshwar Hgh School new building [left Wing Room 2] Kanabargi"},"geometry":{"type":"Point","coordinates":[74.56457,15.8942642]}},{"type":"Feature","properties":{"state":"Karnataka","district":1,"district_n":"BELGAUM","pc":2,"pc_name":"Belgaum","ac":11,"ac_name":"Belgaum Uttar","booth":37,"booth_name":"Govt Kannada higher primary School,new building building [room 1] Siddeshwar Nagar"},"geometry":{"type":"Point","coordinates":[74.5551,15.8963671]}},{"type":"Feature","properties":{"state":"Karnataka","district":1,"district_n":"BELGAUM","pc":2,"pc_name":"Belgaum","ac":11,"ac_name":"Belgaum Uttar","booth":42,"booth_name":"Govt Kannada Higher primary boys School[right wing] [room 2] Basavan Kudachi"},"geometry":{"type":"Point","coordinates":[74.5645,15.8566313]}},{"type":"Feature","properties":{"state":"Karnataka","district":1,"district_n":"BELGAUM","pc":2,"pc_name":"Belgaum","ac":11,"ac_name":"Belgaum Uttar","booth":44,"booth_name":"Govt Kannada Higher primary Girls School[right wing] [room 2] Basavan Kudachi"},"geometry":{"type":"Point","coordinates":[74.56456,15.8565378]}},{"type":"Feature","properties":{"state":"Karnataka","district":1,"district_n":"BELGAUM","pc":2,"pc_name":"Belgaum","ac":11,"ac_name":"Belgaum Uttar","booth":71,"booth_name":"Corporation dispensary, Tahsildar Galli, Belgaum"},"geometry":{"type":"Point","coordinates":[74.51371,15.8538036]}},{"type":"Feature","properties":{"state":"Karnataka","district":1,"district_n":"BELGAUM","pc":2,"pc_name":"Belgaum","ac":11,"ac_name":"Belgaum Uttar","booth":29,"booth_name":"Govt Kannada High Primary School, Muttyanatti"},"geometry":{"type":"Point","coordinates":[74.53651,15.9246826]}},{"type":"Feature","properties":{"state":"Karnataka","district":1,"district_n":"BELGAUM","pc":2,"pc_name":"Belgaum","ac":11,"ac_name":"Belgaum Uttar","booth":36,"booth_name":"Govt Marathi higher primary School, Kulkarni Gali, (behind Church) New Building, Kanbargi"},"geometry":{"type":"Point","coordinates":[74.55711,15.893549]}},{"type":"Feature","properties":{"state":"Karnataka","district":1,"district_n":"BELGAUM","pc":2,"pc_name":"Belgaum","ac":11,"ac_name":"Belgaum Uttar","booth":43,"booth_name":"Govt Kannada Higher primary Girls School[right wing] [room 1] Basavan Kudachi"},"geometry":{"type":"Point","coordinates":[74.56477,15.8564672]}},{"type":"Feature","properties":{"state":"Karnataka","district":1,"district_n":"BELGAUM","pc":2,"pc_name":"Belgaum","ac":11,"ac_name":"Belgaum Uttar","booth":79,"booth_name":"Govt Kannada Higher Primary School No 7 Balawadi Room, Fulbhag Galli,belgaum"},"geometry":{"type":"Point","coordinates":[74.51888,15.8551178]}},{"type":"Feature","properties":{"state":"Karnataka","district":1,"district_n":"BELGAUM","pc":2,"pc_name":"Belgaum","ac":11,"ac_name":"Belgaum Uttar","booth":86,"booth_name":"Islamiya High School,4th Class room,camp Belgaum"},"geometry":{"type":"Point","coordinates":[74.5082855,15.8547459]}},{"type":"Feature","properties":{"state":"Karnataka","district":1,"district_n":"BELGAUM","pc":2,"pc_name":"Belgaum","ac":11,"ac_name":"Belgaum Uttar","booth":93,"booth_name":"Govt Marathi Higher Primary School No 41,western side Room No 2, Sadashiva Nagar, Belgaum"},"geometry":{"type":"Point","coordinates":[74.50984,15.8781548]}},{"type":"Feature","properties":{"state":"Karnataka","district":1,"district_n":"BELGAUM","pc":2,"pc_name":"Belgaum","ac":11,"ac_name":"Belgaum Uttar","booth":9,"booth_name":"Office Of The Depoty Director of Public Instruction [central wing] Club Road"},"geometry":{"type":"Point","coordinates":[74.50625,15.870122]}},{"type":"Feature","properties":{"state":"Karnataka","district":1,"district_n":"BELGAUM","pc":2,"pc_name":"Belgaum","ac":11,"ac_name":"Belgaum Uttar","booth":34,"booth_name":"Siddeshwar High School old building [right wing Room 2] Kanabargi"},"geometry":{"type":"Point","coordinates":[74.5646057,15.8948]}},{"type":"Feature","properties":{"state":"Karnataka","district":1,"district_n":"BELGAUM","pc":2,"pc_name":"Belgaum","ac":11,"ac_name":"Belgaum Uttar","booth":52,"booth_name":"D P E P Urdu Higher Primary School Room No 1 1 Rukmini Nagar,"},"geometry":{"type":"Point","coordinates":[74.53789,15.8759394]}},{"type":"Feature","properties":{"state":"Karnataka","district":1,"district_n":"BELGAUM","pc":2,"pc_name":"Belgaum","ac":11,"ac_name":"Belgaum Uttar","booth":59,"booth_name":"Govt Kannada higher primary primary School No 23 [left wing] Room No 1 Old Gandhi Nagar"},"geometry":{"type":"Point","coordinates":[74.5312958,15.8592672]}},{"type":"Feature","properties":{"state":"Karnataka","district":1,"district_n":"BELGAUM","pc":2,"pc_name":"Belgaum","ac":11,"ac_name":"Belgaum Uttar","booth":77,"booth_name":"Govt Marathi Higher Primary School No 7 ,left Wing, Room No 1 Bhandur Galli, Belgaum"},"geometry":{"type":"Point","coordinates":[74.51919,15.8543367]}},{"type":"Feature","properties":{"state":"Karnataka","district":1,"district_n":"BELGAUM","pc":2,"pc_name":"Belgaum","ac":11,"ac_name":"Belgaum Uttar","booth":102,"booth_name":"Govt Kannada Higher Primary School Left Side[western wing], Corporation building building Ashok Nagar, Belgaum"},"geometry":{"type":"Point","coordinates":[74.52451,15.876111]}},{"type":"Feature","properties":{"state":"Karnataka","district":1,"district_n":"BELGAUM","pc":2,"pc_name":"Belgaum","ac":11,"ac_name":"Belgaum Uttar","booth":5,"booth_name":"Govt Kannada Higher Prmary School Old Building Room No 1 1 1 2nd stage Hanuman Nagar"},"geometry":{"type":"Point","coordinates":[74.49486,15.8813229]}},{"type":"Feature","properties":{"state":"Karnataka","district":1,"district_n":"BELGAUM","pc":2,"pc_name":"Belgaum","ac":11,"ac_name":"Belgaum Uttar","booth":38,"booth_name":"Govt Kannada Lower Primary School, [room 1] Ramateerth Nagar"},"geometry":{"type":"Point","coordinates":[74.54246,15.8862295]}},{"type":"Feature","properties":{"state":"Karnataka","district":1,"district_n":"BELGAUM","pc":2,"pc_name":"Belgaum","ac":11,"ac_name":"Belgaum Uttar","booth":55,"booth_name":"Physically Chalenged Peple Section (north Side) Room No 6 Remand Home"},"geometry":{"type":"Point","coordinates":[74.5227,15.86703]}},{"type":"Feature","properties":{"state":"Karnataka","district":1,"district_n":"BELGAUM","pc":2,"pc_name":"Belgaum","ac":11,"ac_name":"Belgaum Uttar","booth":56,"booth_name":"Karnataka State Women Development Corporation Section (north Side) Room No 8 Remand Home)"},"geometry":{"type":"Point","coordinates":[74.52298,15.8674774]}},{"type":"Feature","properties":{"state":"Karnataka","district":1,"district_n":"BELGAUM","pc":2,"pc_name":"Belgaum","ac":11,"ac_name":"Belgaum Uttar","booth":73,"booth_name":"Govt Marathi Higher Primary School No 7 [middle wing] Bhandur Galli, Belgaum"},"geometry":{"type":"Point","coordinates":[74.52027,15.854353]}},{"type":"Feature","properties":{"state":"Karnataka","district":1,"district_n":"BELGAUM","pc":2,"pc_name":"Belgaum","ac":11,"ac_name":"Belgaum Uttar","booth":106,"booth_name":"Govt Kannad Lower Primary School , Room No 1 Ramnagar ,belgaum"},"geometry":{"type":"Point","coordinates":[74.5181656,15.8759689]}},{"type":"Feature","properties":{"state":"Karnataka","district":1,"district_n":"BELGAUM","pc":2,"pc_name":"Belgaum","ac":11,"ac_name":"Belgaum Uttar","booth":6,"booth_name":"Govt Kannada Higher Prmary School Old Building Room No 3 3 3 2nd stage Hanuman Nagar"},"geometry":{"type":"Point","coordinates":[74.49482,15.8812256]}},{"type":"Feature","properties":{"state":"Karnataka","district":1,"district_n":"BELGAUM","pc":2,"pc_name":"Belgaum","ac":11,"ac_name":"Belgaum Uttar","booth":23,"booth_name":"Govt Kannada Lower Primary School [room No 1] Vaibhav Nagar,"},"geometry":{"type":"Point","coordinates":[74.5228958,15.8969107]}},{"type":"Feature","properties":{"state":"Karnataka","district":1,"district_n":"BELGAUM","pc":2,"pc_name":"Belgaum","ac":11,"ac_name":"Belgaum Uttar","booth":24,"booth_name":"Govt Kannada Lower Primary School [room No 2] Vaibhav Nagar"},"geometry":{"type":"Point","coordinates":[74.5226746,15.8973112]}},{"type":"Feature","properties":{"state":"Karnataka","district":1,"district_n":"BELGAUM","pc":2,"pc_name":"Belgaum","ac":11,"ac_name":"Belgaum Uttar","booth":41,"booth_name":"Govt Kannada Higher primary boys School[right wing] [room 1] Basavan Kudachi"},"geometry":{"type":"Point","coordinates":[74.56443,15.8566847]}},{"type":"Feature","properties":{"state":"Karnataka","district":1,"district_n":"BELGAUM","pc":2,"pc_name":"Belgaum","ac":11,"ac_name":"Belgaum Uttar","booth":74,"booth_name":"Kapileshwar Vyayam Mandir Kapileshwar Road Belgaum"},"geometry":{"type":"Point","coordinates":[74.51536,15.8519478]}},{"type":"Feature","properties":{"state":"Karnataka","district":1,"district_n":"BELGAUM","pc":2,"pc_name":"Belgaum","ac":11,"ac_name":"Belgaum Uttar","booth":88,"booth_name":"Marathi Primary School New Building Room No 2 Cantonment office Compound, Belgaum"},"geometry":{"type":"Point","coordinates":[74.50751,15.85378]}},{"type":"Feature","properties":{"state":"Karnataka","district":1,"district_n":"BELGAUM","pc":2,"pc_name":"Belgaum","ac":11,"ac_name":"Belgaum Uttar","booth":115,"booth_name":"Govrt Kannada Higher Primary Primary School No 24,old building, Southern side,7th Room Mahantesh Nagar,belgaum"},"geometry":{"type":"Point","coordinates":[74.5306549,15.8760824]}},{"type":"Feature","properties":{"state":"Karnataka","district":1,"district_n":"BELGAUM","pc":2,"pc_name":"Belgaum","ac":11,"ac_name":"Belgaum Uttar","booth":132,"booth_name":"Govt Marathi Higher Primary School No 5 [right Wing] Room no 1, Chawat Galli, Belgaum"},"geometry":{"type":"Point","coordinates":[74.51664,15.866539]}},{"type":"Feature","properties":{"state":"Karnataka","district":1,"district_n":"BELGAUM","pc":2,"pc_name":"Belgaum","ac":11,"ac_name":"Belgaum Uttar","booth":149,"booth_name":"Basiban High School[right wing] [2nd [2nd Room] Bhendi Bazar,belgaum"},"geometry":{"type":"Point","coordinates":[74.51523,15.8606262]}},{"type":"Feature","properties":{"state":"Karnataka","district":1,"district_n":"BELGAUM","pc":2,"pc_name":"Belgaum","ac":11,"ac_name":"Belgaum Uttar","booth":166,"booth_name":"City Corporation Office, old Building Building Nemmadi Room Risaldar Galli, Belgaum"},"geometry":{"type":"Point","coordinates":[74.51153,15.8622332]}},{"type":"Feature","properties":{"state":"Karnataka","district":1,"district_n":"BELGAUM","pc":2,"pc_name":"Belgaum","ac":11,"ac_name":"Belgaum Uttar","booth":103,"booth_name":"Smt G G Yallur,kannada Primary School,[entrance wing], Shivabasavnagar, Belgaum"},"geometry":{"type":"Point","coordinates":[74.51991,15.8822765]}},{"type":"Feature","properties":{"state":"Karnataka","district":1,"district_n":"BELGAUM","pc":2,"pc_name":"Belgaum","ac":11,"ac_name":"Belgaum Uttar","booth":110,"booth_name":"Govt Kannada Higher Primary Primary School No 21, Left side Room No 4, Police Head Quarters, Belgaum"},"geometry":{"type":"Point","coordinates":[74.5188141,15.870903]}},{"type":"Feature","properties":{"state":"Karnataka","district":1,"district_n":"BELGAUM","pc":2,"pc_name":"Belgaum","ac":11,"ac_name":"Belgaum Uttar","booth":112,"booth_name":"Sherman School,belgaum,[left Wing] 5th A Class room Mishan Compound Belgaum"},"geometry":{"type":"Point","coordinates":[74.51683,15.8706026]}},{"type":"Feature","properties":{"state":"Karnataka","district":1,"district_n":"BELGAUM","pc":2,"pc_name":"Belgaum","ac":11,"ac_name":"Belgaum Uttar","booth":146,"booth_name":"Govt Kannada Higher Primary Primary School No 7, Iiird Standard Room, Fulbag Galli, Belgaum"},"geometry":{"type":"Point","coordinates":[74.51866,15.8554707]}},{"type":"Feature","properties":{"state":"Karnataka","district":1,"district_n":"BELGAUM","pc":2,"pc_name":"Belgaum","ac":11,"ac_name":"Belgaum Uttar","booth":169,"booth_name":"Govt Marathi Girls School No 3,[left Wing] Room No 3 Bakrimandi (gavali Galli), Belgaum"},"geometry":{"type":"Point","coordinates":[74.51053,15.8626451]}},{"type":"Feature","properties":{"state":"Karnataka","district":1,"district_n":"BELGAUM","pc":2,"pc_name":"Belgaum","ac":11,"ac_name":"Belgaum Uttar","booth":104,"booth_name":"Smt G G Yallur,kannada Primary School, [left wing] Room No 1 Shivabasavnagar,belgaum"},"geometry":{"type":"Point","coordinates":[74.5197,15.8821373]}},{"type":"Feature","properties":{"state":"Karnataka","district":1,"district_n":"BELGAUM","pc":2,"pc_name":"Belgaum","ac":11,"ac_name":"Belgaum Uttar","booth":111,"booth_name":"Govt Kannada Higher Primary Primary School No 21, Left side Room No 2, Police Head Quarters, Belgaum"},"geometry":{"type":"Point","coordinates":[74.5186539,15.8707733]}},{"type":"Feature","properties":{"state":"Karnataka","district":1,"district_n":"BELGAUM","pc":2,"pc_name":"Belgaum","ac":11,"ac_name":"Belgaum Uttar","booth":118,"booth_name":"Sgv College of Education Room No l,mm Extension,belgaum"},"geometry":{"type":"Point","coordinates":[74.53198,15.8795681]}},{"type":"Feature","properties":{"state":"Karnataka","district":1,"district_n":"BELGAUM","pc":2,"pc_name":"Belgaum","ac":11,"ac_name":"Belgaum Uttar","booth":154,"booth_name":"Corporation Garrage[eastern Side], Khanjar Galli, Belgaum"},"geometry":{"type":"Point","coordinates":[74.5134048,15.8632584]}},{"type":"Feature","properties":{"state":"Karnataka","district":1,"district_n":"BELGAUM","pc":2,"pc_name":"Belgaum","ac":11,"ac_name":"Belgaum Uttar","booth":161,"booth_name":"Govt Sardar?s High School[northern side] Middle Room, Room No 1, Kakatives, Belgaum"},"geometry":{"type":"Point","coordinates":[74.51244,15.8653545]}},{"type":"Feature","properties":{"state":"Karnataka","district":1,"district_n":"BELGAUM","pc":2,"pc_name":"Belgaum","ac":11,"ac_name":"Belgaum Uttar","booth":168,"booth_name":"Govt Marathi Girls School No 3,[middle wing] Room No 2 Bakrimandi (gavali Galli), Belgaum"},"geometry":{"type":"Point","coordinates":[74.50976,15.8632727]}},{"type":"Feature","properties":{"state":"Karnataka","district":1,"district_n":"BELGAUM","pc":2,"pc_name":"Belgaum","ac":11,"ac_name":"Belgaum Uttar","booth":131,"booth_name":"Govt Marathi Higher Primary Primary School No 27 Room No 5 ,shivaji Nagar, Belgaum"},"geometry":{"type":"Point","coordinates":[74.52133,15.8682013]}},{"type":"Feature","properties":{"state":"Karnataka","district":1,"district_n":"BELGAUM","pc":2,"pc_name":"Belgaum","ac":11,"ac_name":"Belgaum Uttar","booth":133,"booth_name":"Govt Marathi Higher Primary School No 5[left wing] Room No 2, Chawat Galli, Belgaum"},"geometry":{"type":"Point","coordinates":[74.51701,15.8665361]}},{"type":"Feature","properties":{"state":"Karnataka","district":1,"district_n":"BELGAUM","pc":2,"pc_name":"Belgaum","ac":11,"ac_name":"Belgaum Uttar","booth":148,"booth_name":"Basiban High School Left wing, [2nd [2nd Room] Bhendi Bazar , Belgaum"},"geometry":{"type":"Point","coordinates":[74.51558,15.8604136]}},{"type":"Feature","properties":{"state":"Karnataka","district":1,"district_n":"BELGAUM","pc":2,"pc_name":"Belgaum","ac":11,"ac_name":"Belgaum Uttar","booth":167,"booth_name":"Govt Marathi Girls School No 3, Right wing Room No 1, Bakrimandi (gavali Galli), Belgaum"},"geometry":{"type":"Point","coordinates":[74.51008,15.8628731]}},{"type":"Feature","properties":{"state":"Karnataka","district":1,"district_n":"BELGAUM","pc":2,"pc_name":"Belgaum","ac":11,"ac_name":"Belgaum Uttar","booth":182,"booth_name":"City Corporation Office Guest House[western wing] Konwal Galli, Belgaum"},"geometry":{"type":"Point","coordinates":[74.51221,15.8541918]}},{"type":"Feature","properties":{"state":"Karnataka","district":1,"district_n":"BELGAUM","pc":2,"pc_name":"Belgaum","ac":11,"ac_name":"Belgaum Uttar","booth":95,"booth_name":"Govt Kannada Higher Priamry School No 22 old building Eastwing Room No 1, Sadashiva Nagar, Belgaum"},"geometry":{"type":"Point","coordinates":[74.51002,15.8781242]}},{"type":"Feature","properties":{"state":"Karnataka","district":1,"district_n":"BELGAUM","pc":2,"pc_name":"Belgaum","ac":11,"ac_name":"Belgaum Uttar","booth":109,"booth_name":"Shermens School, Right wing Room No 1, Mishan Compound Belgaum"},"geometry":{"type":"Point","coordinates":[74.5163345,15.8703594]}},{"type":"Feature","properties":{"state":"Karnataka","district":1,"district_n":"BELGAUM","pc":2,"pc_name":"Belgaum","ac":11,"ac_name":"Belgaum Uttar","booth":134,"booth_name":"Maratha Mandal High School[right Side] Room No 1, Chawat Galli, Belgaum"},"geometry":{"type":"Point","coordinates":[74.5162,15.8663216]}},{"type":"Feature","properties":{"state":"Karnataka","district":1,"district_n":"BELGAUM","pc":2,"pc_name":"Belgaum","ac":11,"ac_name":"Belgaum Uttar","booth":152,"booth_name":"Govt Urdu Girls School No l,last wing [1st Room] Khanjar Galli,belgaum"},"geometry":{"type":"Point","coordinates":[74.5170059,15.866538]}},{"type":"Feature","properties":{"state":"Karnataka","district":1,"district_n":"BELGAUM","pc":2,"pc_name":"Belgaum","ac":11,"ac_name":"Belgaum Uttar","booth":159,"booth_name":"Govt Marathi Higher Primary School No 6,khadak Galli,belgaum"},"geometry":{"type":"Point","coordinates":[74.51326,15.8636169]}},{"type":"Feature","properties":{"state":"Karnataka","district":1,"district_n":"BELGAUM","pc":2,"pc_name":"Belgaum","ac":11,"ac_name":"Belgaum Uttar","booth":177,"booth_name":"Govt Kannada Higher Primary School No 6,[room No 2] 2] Konwal Galli,belgaum"},"geometry":{"type":"Point","coordinates":[74.51066,15.8556252]}},{"type":"Feature","properties":{"state":"Karnataka","district":1,"district_n":"BELGAUM","pc":2,"pc_name":"Belgaum","ac":11,"ac_name":"Belgaum Uttar","booth":125,"booth_name":"Office of the Joint Director of Agriculture,garrage right side, Shivaji Nagar, Belgaum"},"geometry":{"type":"Point","coordinates":[74.5209,15.869029]}},{"type":"Feature","properties":{"state":"Karnataka","district":1,"district_n":"BELGAUM","pc":2,"pc_name":"Belgaum","ac":11,"ac_name":"Belgaum Uttar","booth":139,"booth_name":"Dist Central Co op Bank[new building Entran Wing ], Old Pb Road, Belgaum"},"geometry":{"type":"Point","coordinates":[74.5134,15.85944]}},{"type":"Feature","properties":{"state":"Karnataka","district":1,"district_n":"BELGAUM","pc":2,"pc_name":"Belgaum","ac":11,"ac_name":"Belgaum Uttar","booth":140,"booth_name":"Dist Central Co op Bank[new building[car garage] Old Pb Road, Belgaum"},"geometry":{"type":"Point","coordinates":[74.5190659,15.8594427]}},{"type":"Feature","properties":{"state":"Karnataka","district":1,"district_n":"BELGAUM","pc":2,"pc_name":"Belgaum","ac":11,"ac_name":"Belgaum Uttar","booth":175,"booth_name":"Fire Fighter Station[corporation building]raviwar peth"},"geometry":{"type":"Point","coordinates":[74.51551,15.8562679]}},{"type":"Feature","properties":{"state":"Karnataka","district":1,"district_n":"BELGAUM","pc":2,"pc_name":"Belgaum","ac":11,"ac_name":"Belgaum Uttar","booth":176,"booth_name":"Govt Marathi Girls School No 28 Konwal Galli, Belgaum"},"geometry":{"type":"Point","coordinates":[74.51551,15.8562679]}},{"type":"Feature","properties":{"state":"Karnataka","district":1,"district_n":"BELGAUM","pc":2,"pc_name":"Belgaum","ac":11,"ac_name":"Belgaum Uttar","booth":129,"booth_name":"Govt Urdu Primary School[south side] Room No 1 New Veerabhadra Nagar, Belgaum"},"geometry":{"type":"Point","coordinates":[74.5220261,15.87267]}},{"type":"Feature","properties":{"state":"Karnataka","district":1,"district_n":"BELGAUM","pc":2,"pc_name":"Belgaum","ac":11,"ac_name":"Belgaum Uttar","booth":136,"booth_name":"Govt Kannada Higher Primary Primary School No 2 old building leftwing Room No 3, Shetti Galli, Belgaum"},"geometry":{"type":"Point","coordinates":[74.51612,15.8451252]}},{"type":"Feature","properties":{"state":"Karnataka","district":1,"district_n":"BELGAUM","pc":2,"pc_name":"Belgaum","ac":11,"ac_name":"Belgaum Uttar","booth":143,"booth_name":"Govt Maratha Higher Primary School No 4 [middle Room], Mali Galli, Belgaum"},"geometry":{"type":"Point","coordinates":[74.51709,15.8575544]}},{"type":"Feature","properties":{"state":"Karnataka","district":1,"district_n":"BELGAUM","pc":2,"pc_name":"Belgaum","ac":11,"ac_name":"Belgaum Uttar","booth":179,"booth_name":"Govt Marathi Girls School No l,[left Wing] Room No 2, 2, Near Kanbli Kuth, Maruti Galli, Belgaum"},"geometry":{"type":"Point","coordinates":[74.5128,15.8573942]}},{"type":"Feature","properties":{"state":"Karnataka","district":1,"district_n":"BELGAUM","pc":2,"pc_name":"Belgaum","ac":11,"ac_name":"Belgaum Uttar","booth":113,"booth_name":"Govt High School , [room No 1]mahantesh Nagar, Belgaum"},"geometry":{"type":"Point","coordinates":[74.52977,15.8746223]}},{"type":"Feature","properties":{"state":"Karnataka","district":1,"district_n":"BELGAUM","pc":2,"pc_name":"Belgaum","ac":11,"ac_name":"Belgaum Uttar","booth":130,"booth_name":"Govt Urdu Primary School [north side] Room No 1 New Veerabhadra Nagar,belgaum"},"geometry":{"type":"Point","coordinates":[74.52123,15.8722515]}},{"type":"Feature","properties":{"state":"Karnataka","district":1,"district_n":"BELGAUM","pc":2,"pc_name":"Belgaum","ac":11,"ac_name":"Belgaum Uttar","booth":147,"booth_name":"Sarvajanik Library Bhatkhande Galli ,belgaum"},"geometry":{"type":"Point","coordinates":[74.5134659,15.8595285]}},{"type":"Feature","properties":{"state":"Karnataka","district":1,"district_n":"BELGAUM","pc":2,"pc_name":"Belgaum","ac":11,"ac_name":"Belgaum Uttar","booth":164,"booth_name":"Govt College of of Education[b Ed Colllege [left Room], Kakatives, Belgaum"},"geometry":{"type":"Point","coordinates":[74.51158,15.8654222]}},{"type":"Feature","properties":{"state":"Karnataka","district":1,"district_n":"BELGAUM","pc":2,"pc_name":"Belgaum","ac":11,"ac_name":"Belgaum Uttar","booth":181,"booth_name":"City Corporation Office Guest House{eastern Wing]konwal Galli, Belgaum"},"geometry":{"type":"Point","coordinates":[74.510025,15.8552942]}},{"type":"Feature","properties":{"state":"Karnataka","district":1,"district_n":"BELGAUM","pc":2,"pc_name":"Belgaum","ac":11,"ac_name":"Belgaum Uttar","booth":120,"booth_name":"Govt Kannada Higher Primary School No 24 New building[left wing] Room besides Laboratory Mahantesh Nagar"},"geometry":{"type":"Point","coordinates":[74.53113,15.8761892]}},{"type":"Feature","properties":{"state":"Karnataka","district":1,"district_n":"BELGAUM","pc":2,"pc_name":"Belgaum","ac":11,"ac_name":"Belgaum Uttar","booth":127,"booth_name":"Govt Marathi Higher Primay School No 27,room No 8 Shivaji Nagar,belgaum"},"geometry":{"type":"Point","coordinates":[74.521286,15.868681]}},{"type":"Feature","properties":{"state":"Karnataka","district":1,"district_n":"BELGAUM","pc":2,"pc_name":"Belgaum","ac":11,"ac_name":"Belgaum Uttar","booth":145,"booth_name":"Govt Kannada Higher Primary School No 7, Iind Standard Room Middle Room, Fulbag Galli, Belgaum"},"geometry":{"type":"Point","coordinates":[74.51857,15.8550234]}},{"type":"Feature","properties":{"state":"Karnataka","district":1,"district_n":"BELGAUM","pc":2,"pc_name":"Belgaum","ac":11,"ac_name":"Belgaum Uttar","booth":170,"booth_name":"Govt Marathi Higher Primary School No 2 [lift Wing] , Room No 1 Ganapat Galli Belgaum"},"geometry":{"type":"Point","coordinates":[74.51255,15.85951]}},{"type":"Feature","properties":{"state":"Karnataka","district":1,"district_n":"BELGAUM","pc":2,"pc_name":"Belgaum","ac":11,"ac_name":"Belgaum Uttar","booth":91,"booth_name":"Divisional Forest Office[chamber Hall]forest Compound, Belgaum"},"geometry":{"type":"Point","coordinates":[74.51962,15.8633146]}},{"type":"Feature","properties":{"state":"Karnataka","district":1,"district_n":"BELGAUM","pc":2,"pc_name":"Belgaum","ac":11,"ac_name":"Belgaum Uttar","booth":105,"booth_name":"Smt G G Yallur,kannada Primary School,[left wing] Room No 3 Shivabasavnagar, Belgaum"},"geometry":{"type":"Point","coordinates":[74.51959,15.88256]}},{"type":"Feature","properties":{"state":"Karnataka","district":1,"district_n":"BELGAUM","pc":2,"pc_name":"Belgaum","ac":11,"ac_name":"Belgaum Uttar","booth":138,"booth_name":"Maratha Mandal High School Left Side Room No 3, Chawat Galli, Belgaum"},"geometry":{"type":"Point","coordinates":[74.5165253,15.8666039]}},{"type":"Feature","properties":{"state":"Karnataka","district":1,"district_n":"BELGAUM","pc":2,"pc_name":"Belgaum","ac":11,"ac_name":"Belgaum Uttar","booth":142,"booth_name":"Govt Marathi Higher Primary School No 4, [frontwing] Room No 2, Mali Galli, Belgaum"},"geometry":{"type":"Point","coordinates":[74.5172043,15.8576059]}},{"type":"Feature","properties":{"state":"Karnataka","district":1,"district_n":"BELGAUM","pc":2,"pc_name":"Belgaum","ac":11,"ac_name":"Belgaum Uttar","booth":155,"booth_name":"Govt Urdu Girls School No l ,left Side Room No 2, Khanjar Galli, Belgaum"},"geometry":{"type":"Point","coordinates":[74.52255,15.8655548]}},{"type":"Feature","properties":{"state":"Karnataka","district":1,"district_n":"BELGAUM","pc":2,"pc_name":"Belgaum","ac":11,"ac_name":"Belgaum Uttar","booth":156,"booth_name":"Govt Urdu Girls School No l,middle wing,khanjar Galli, Belgaum"},"geometry":{"type":"Point","coordinates":[74.5155,15.8618317]}},{"type":"Feature","properties":{"state":"Karnataka","district":1,"district_n":"BELGAUM","pc":2,"pc_name":"Belgaum","ac":11,"ac_name":"Belgaum Uttar","booth":123,"booth_name":"Govt Kannada Higher Primary Primary School No 33, room No 6 Vantamuri Colony,mme, Belgaum"},"geometry":{"type":"Point","coordinates":[74.53558,15.8825293]}},{"type":"Feature","properties":{"state":"Karnataka","district":1,"district_n":"BELGAUM","pc":2,"pc_name":"Belgaum","ac":11,"ac_name":"Belgaum Uttar","booth":124,"booth_name":"Govt Kannada Higher Primary Primary School No 33, room No 7 Vantamuri Colony,mme, Belgaum"},"geometry":{"type":"Point","coordinates":[74.53529,15.8821669]}},{"type":"Feature","properties":{"state":"Karnataka","district":1,"district_n":"BELGAUM","pc":2,"pc_name":"Belgaum","ac":11,"ac_name":"Belgaum Uttar","booth":141,"booth_name":"Dist Central Co op Bank[guest House entran Wing] Old Pb Road, Belgaum"},"geometry":{"type":"Point","coordinates":[74.51861,15.8600063]}},{"type":"Feature","properties":{"state":"Karnataka","district":1,"district_n":"BELGAUM","pc":2,"pc_name":"Belgaum","ac":11,"ac_name":"Belgaum Uttar","booth":174,"booth_name":"Govt Kannada Higher Primary School No 9,[left Wing], Kelakar Bag, Belgaum"},"geometry":{"type":"Point","coordinates":[74.50799,15.8601656]}},{"type":"Feature","properties":{"state":"Karnataka","district":1,"district_n":"BELGAUM","pc":2,"pc_name":"Belgaum","ac":11,"ac_name":"Belgaum Uttar","booth":78,"booth_name":"Govt Marathi Higher Primary School No 7 ,right Wing, Room No 3 Bhandur Galli, Belgaum"},"geometry":{"type":"Point","coordinates":[74.51875,15.8540907]}},{"type":"Feature","properties":{"state":"Karnataka","district":1,"district_n":"BELGAUM","pc":2,"pc_name":"Belgaum","ac":11,"ac_name":"Belgaum Uttar","booth":101,"booth_name":"Govt Kannada Higher Primary School Left Side Room No 1corporation building [facing west], Ashok Nagar, Belgaum"},"geometry":{"type":"Point","coordinates":[74.52467,15.8765755]}},{"type":"Feature","properties":{"state":"Karnataka","district":1,"district_n":"BELGAUM","pc":2,"pc_name":"Belgaum","ac":11,"ac_name":"Belgaum Uttar","booth":135,"booth_name":"Govt Kannada Higher Primary Primary School No,2, Old building Right wing Room No 1, Shetti Galli, Belgaum"},"geometry":{"type":"Point","coordinates":[74.51665,15.8638229]}},{"type":"Feature","properties":{"state":"Karnataka","district":1,"district_n":"BELGAUM","pc":2,"pc_name":"Belgaum","ac":11,"ac_name":"Belgaum Uttar","booth":137,"booth_name":"Govt Kannada Higher Primary Primary School No 2[new building Right wing] Room No 2, Shetti Galli, Belgaum"},"geometry":{"type":"Point","coordinates":[74.51669,15.8637362]}},{"type":"Feature","properties":{"state":"Karnataka","district":1,"district_n":"BELGAUM","pc":2,"pc_name":"Belgaum","ac":11,"ac_name":"Belgaum Uttar","booth":144,"booth_name":"Govt Kannada Higher Primary School No 7, lst standard room,right wing,fulbag Galli, Belgaum"},"geometry":{"type":"Point","coordinates":[74.5186539,15.854847]}},{"type":"Feature","properties":{"state":"Karnataka","district":1,"district_n":"BELGAUM","pc":2,"pc_name":"Belgaum","ac":11,"ac_name":"Belgaum Uttar","booth":171,"booth_name":"Central High School Huns Talkis Road Belagaum"},"geometry":{"type":"Point","coordinates":[74.5118942,15.860055]}},{"type":"Feature","properties":{"state":"Karnataka","district":1,"district_n":"BELGAUM","pc":2,"pc_name":"Belgaum","ac":11,"ac_name":"Belgaum Uttar","booth":173,"booth_name":"Govt Kannada Higher Primary School No 9, [right wing], Kelakar Bag, Belgaum"},"geometry":{"type":"Point","coordinates":[74.5081558,15.8603945]}},{"type":"Feature","properties":{"state":"Karnataka","district":1,"district_n":"BELGAUM","pc":2,"pc_name":"Belgaum","ac":11,"ac_name":"Belgaum Uttar","booth":178,"booth_name":"Govt Marathi Girls School No l, Right wing Room No 1, Near Kanbli Kuth, Maruti Galli, Belgaum"},"geometry":{"type":"Point","coordinates":[74.51305,15.857439]}},{"type":"Feature","properties":{"state":"Karnataka","district":1,"district_n":"BELGAUM","pc":2,"pc_name":"Belgaum","ac":11,"ac_name":"Belgaum Uttar","booth":17,"booth_name":"Agriculture Produce Marketing Committee Hall Hall Apmc Yard"},"geometry":{"type":"Point","coordinates":[74.50358,15.8871365]}},{"type":"Feature","properties":{"state":"Karnataka","district":1,"district_n":"BELGAUM","pc":2,"pc_name":"Belgaum","ac":11,"ac_name":"Belgaum Uttar","booth":26,"booth_name":"Javaharlal Nehru Medical College Main Builidding left side Demonstration Room 2 opposite syndicat Bank"},"geometry":{"type":"Point","coordinates":[74.52271,15.8968925]}},{"type":"Feature","properties":{"state":"Karnataka","district":1,"district_n":"BELGAUM","pc":2,"pc_name":"Belgaum","ac":11,"ac_name":"Belgaum Uttar","booth":51,"booth_name":"D P E P Urdu Higher Primary School Room No 2 2 Rukmini Nagar,"},"geometry":{"type":"Point","coordinates":[74.53828,15.8763323]}},{"type":"Feature","properties":{"state":"Karnataka","district":1,"district_n":"BELGAUM","pc":2,"pc_name":"Belgaum","ac":11,"ac_name":"Belgaum Uttar","booth":60,"booth_name":"Govt Kannada higher primary primary School No 23 [left wing] Room No 2 Old Gandhi Nagar"},"geometry":{"type":"Point","coordinates":[74.53128,15.8593054]}},{"type":"Feature","properties":{"state":"Karnataka","district":1,"district_n":"BELGAUM","pc":2,"pc_name":"Belgaum","ac":11,"ac_name":"Belgaum Uttar","booth":85,"booth_name":"Islamiya High School, Iii B class room [right Wing] Camp Belgaum"},"geometry":{"type":"Point","coordinates":[74.50783,15.8548832]}},{"type":"Feature","properties":{"state":"Karnataka","district":1,"district_n":"BELGAUM","pc":2,"pc_name":"Belgaum","ac":11,"ac_name":"Belgaum Uttar","booth":94,"booth_name":"Govt Marathi Higher Primary School No 41 Eastern Side Room No 1, Sadashiva Nagar, Belgaum"},"geometry":{"type":"Point","coordinates":[74.51007,15.8782177]}},{"type":"Feature","properties":{"state":"Karnataka","district":1,"district_n":"BELGAUM","pc":2,"pc_name":"Belgaum","ac":11,"ac_name":"Belgaum Uttar","booth":19,"booth_name":"Seventh Day Adventists English Nursery & Primary School [ west wing]"},"geometry":{"type":"Point","coordinates":[74.51466,15.8853731]}},{"type":"Feature","properties":{"state":"Karnataka","district":1,"district_n":"BELGAUM","pc":2,"pc_name":"Belgaum","ac":11,"ac_name":"Belgaum Uttar","booth":28,"booth_name":"Javaharlal Nehru Medical College Main Builidding left side Demonstration Room 4 opposite syndicat Bank"},"geometry":{"type":"Point","coordinates":[74.5174255,15.8838825]}},{"type":"Feature","properties":{"state":"Karnataka","district":1,"district_n":"BELGAUM","pc":2,"pc_name":"Belgaum","ac":11,"ac_name":"Belgaum Uttar","booth":53,"booth_name":"Chambar of the Programme officers Room No 4 (west side) Remand Home"},"geometry":{"type":"Point","coordinates":[74.52234,15.8671627]}},{"type":"Feature","properties":{"state":"Karnataka","district":1,"district_n":"BELGAUM","pc":2,"pc_name":"Belgaum","ac":11,"ac_name":"Belgaum Uttar","booth":62,"booth_name":"Govt Urdu Higher Primary School [left wing Room No 8] New Gandhi Nagar, Belgaum"},"geometry":{"type":"Point","coordinates":[74.53337,15.86003]}},{"type":"Feature","properties":{"state":"Karnataka","district":1,"district_n":"BELGAUM","pc":2,"pc_name":"Belgaum","ac":11,"ac_name":"Belgaum Uttar","booth":87,"booth_name":"St Anthony Kannada Model School Room No 1 Camp Camp Belgaum"},"geometry":{"type":"Point","coordinates":[74.50689,15.8547029]}},{"type":"Feature","properties":{"state":"Karnataka","district":1,"district_n":"BELGAUM","pc":2,"pc_name":"Belgaum","ac":11,"ac_name":"Belgaum Uttar","booth":92,"booth_name":"Gymkhana Building[souther room] Lingaraj College, Belgaum"},"geometry":{"type":"Point","coordinates":[74.50645,15.8646822]}},{"type":"Feature","properties":{"state":"Karnataka","district":1,"district_n":"BELGAUM","pc":2,"pc_name":"Belgaum","ac":11,"ac_name":"Belgaum Uttar","booth":119,"booth_name":"Central Siemen Collection Centre, Western wing Kanabargi,road, Belgaum"},"geometry":{"type":"Point","coordinates":[74.53526,15.8742733]}},{"type":"Feature","properties":{"state":"Karnataka","district":1,"district_n":"BELGAUM","pc":2,"pc_name":"Belgaum","ac":11,"ac_name":"Belgaum Uttar","booth":128,"booth_name":"Govt Marathi Higher Primay School No 27,room No 7 Shivaji Nagar,belgaum"},"geometry":{"type":"Point","coordinates":[74.5214157,15.8683577]}},{"type":"Feature","properties":{"state":"Karnataka","district":1,"district_n":"BELGAUM","pc":2,"pc_name":"Belgaum","ac":11,"ac_name":"Belgaum Uttar","booth":153,"booth_name":"Govt Urdu Girls School No l,last wing [3st Room] Khanjar Galli,belgaum"},"geometry":{"type":"Point","coordinates":[74.5152359,15.8615828]}},{"type":"Feature","properties":{"state":"Karnataka","district":1,"district_n":"BELGAUM","pc":2,"pc_name":"Belgaum","ac":11,"ac_name":"Belgaum Uttar","booth":162,"booth_name":"Govt Sardar?s High School,[northern side]eastern Room, Room Room No 2, Kakatives, Belgaum"},"geometry":{"type":"Point","coordinates":[74.51225,15.8648834]}},{"type":"Feature","properties":{"state":"Karnataka","district":1,"district_n":"BELGAUM","pc":2,"pc_name":"Belgaum","ac":11,"ac_name":"Belgaum Uttar","booth":96,"booth_name":"Govt Kannada Higher Primary Primary School No 22 [old building][right wing]room No 2 Sadashiv Nagar, Belgaum"},"geometry":{"type":"Point","coordinates":[74.50975,15.8780031]}},{"type":"Feature","properties":{"state":"Karnataka","district":1,"district_n":"BELGAUM","pc":2,"pc_name":"Belgaum","ac":11,"ac_name":"Belgaum Uttar","booth":117,"booth_name":"Govt Kannada Higher Primar School Anjaney Nagar, Belgaum"},"geometry":{"type":"Point","coordinates":[74.5364151,15.8793316]}},{"type":"Feature","properties":{"state":"Karnataka","district":1,"district_n":"BELGAUM","pc":2,"pc_name":"Belgaum","ac":11,"ac_name":"Belgaum Uttar","booth":121,"booth_name":"Govt Kannada Higher Primary School Rani Chennamma Housing Society Mme Shrinagar, Belgaum"},"geometry":{"type":"Point","coordinates":[74.5264359,15.8858547]}},{"type":"Feature","properties":{"state":"Karnataka","district":1,"district_n":"BELGAUM","pc":2,"pc_name":"Belgaum","ac":11,"ac_name":"Belgaum Uttar","booth":126,"booth_name":"Office of the Joint Director of Agriculture Garrage,left sideshivaji Nagar, Belgaum"},"geometry":{"type":"Point","coordinates":[74.52064,15.8684664]}},{"type":"Feature","properties":{"state":"Karnataka","district":1,"district_n":"BELGAUM","pc":2,"pc_name":"Belgaum","ac":11,"ac_name":"Belgaum Uttar","booth":151,"booth_name":"Basiban Hgh School[right wing] [ Room No 4] Bhendi Bazar,belgaum"},"geometry":{"type":"Point","coordinates":[74.5152054,15.8605556]}},{"type":"Feature","properties":{"state":"Karnataka","district":1,"district_n":"BELGAUM","pc":2,"pc_name":"Belgaum","ac":11,"ac_name":"Belgaum Uttar","booth":160,"booth_name":"Govt Sardar?s High School[northern side]western room No 1, Kakatives"},"geometry":{"type":"Point","coordinates":[74.51212,15.8654242]}},{"type":"Feature","properties":{"state":"Karnataka","district":1,"district_n":"BELGAUM","pc":2,"pc_name":"Belgaum","ac":11,"ac_name":"Belgaum Uttar","booth":7,"booth_name":"Govt Kannada Higher Prmary School New Building Room No 1 1 1 2nd stage Hanuman Nagar"},"geometry":{"type":"Point","coordinates":[74.49489,15.8810263]}},{"type":"Feature","properties":{"state":"Karnataka","district":1,"district_n":"BELGAUM","pc":2,"pc_name":"Belgaum","ac":11,"ac_name":"Belgaum Uttar","booth":8,"booth_name":"Govt Kannada Higher Prmary School New Building Room No 2 2 2 2nd stage Hanuman Nagar"},"geometry":{"type":"Point","coordinates":[74.4948044,15.8808851]}},{"type":"Feature","properties":{"state":"Karnataka","district":1,"district_n":"BELGAUM","pc":2,"pc_name":"Belgaum","ac":11,"ac_name":"Belgaum Uttar","booth":21,"booth_name":"Seventh Day Adventists English Nursery & Primary School [eastern 3rd Room Wing]"},"geometry":{"type":"Point","coordinates":[74.514595,15.8855524]}},{"type":"Feature","properties":{"state":"Karnataka","district":1,"district_n":"BELGAUM","pc":2,"pc_name":"Belgaum","ac":11,"ac_name":"Belgaum Uttar","booth":22,"booth_name":"Seventh Day Adeventists English Nursery & Primary School[eastern Wing]"},"geometry":{"type":"Point","coordinates":[74.51478,15.8854647]}},{"type":"Feature","properties":{"state":"Karnataka","district":1,"district_n":"BELGAUM","pc":2,"pc_name":"Belgaum","ac":11,"ac_name":"Belgaum Uttar","booth":57,"booth_name":"Govt Marathi higher primary School [room No 1] 1] Old Gandhi Nagar,belgaum"},"geometry":{"type":"Point","coordinates":[74.53143,15.8581638]}},{"type":"Feature","properties":{"state":"Karnataka","district":1,"district_n":"BELGAUM","pc":2,"pc_name":"Belgaum","ac":11,"ac_name":"Belgaum Uttar","booth":58,"booth_name":"Govt Marathi higher primary School [room No 2] 2] Old Gandhi Nagar,belgaum"},"geometry":{"type":"Point","coordinates":[74.5312347,15.859334]}},{"type":"Feature","properties":{"state":"Karnataka","district":1,"district_n":"BELGAUM","pc":2,"pc_name":"Belgaum","ac":11,"ac_name":"Belgaum Uttar","booth":72,"booth_name":"Govt Marathi Higher Primary School No 7 [right wing, Room No 1] Bhandur Galli, Belgaum"},"geometry":{"type":"Point","coordinates":[74.5188446,15.8541]}},{"type":"Feature","properties":{"state":"Karnataka","district":1,"district_n":"BELGAUM","pc":2,"pc_name":"Belgaum","ac":11,"ac_name":"Belgaum Uttar","booth":107,"booth_name":"Govt Marathi Lower Primary School No 39 Room No 1 Eastern side,ramnagar, Belgaum"},"geometry":{"type":"Point","coordinates":[74.5159454,15.8751259]}},{"type":"Feature","properties":{"state":"Karnataka","district":1,"district_n":"BELGAUM","pc":2,"pc_name":"Belgaum","ac":11,"ac_name":"Belgaum Uttar","booth":108,"booth_name":"Govt Marathi Lower Primary Primary School No 39, [eastern side Room No 2], Ram nagar, Belgaum"},"geometry":{"type":"Point","coordinates":[74.5178,15.8757648]}},{"type":"Feature","properties":{"state":"Karnataka","district":1,"district_n":"BELGAUM","pc":2,"pc_name":"Belgaum","ac":11,"ac_name":"Belgaum Uttar","booth":122,"booth_name":"Govt Kannada Higher Primary Primary School No 33, room No 8 Vantamuri Colony,mme, Belgaum"},"geometry":{"type":"Point","coordinates":[74.5354462,15.8823709]}},{"type":"Feature","properties":{"state":"Karnataka","district":1,"district_n":"BELGAUM","pc":2,"pc_name":"Belgaum","ac":11,"ac_name":"Belgaum Uttar","booth":157,"booth_name":"Govt Model Kannada Girls School No l, North Room,bhadkal Galli,"},"geometry":{"type":"Point","coordinates":[74.5140457,15.8644772]}},{"type":"Feature","properties":{"state":"Karnataka","district":1,"district_n":"BELGAUM","pc":2,"pc_name":"Belgaum","ac":11,"ac_name":"Belgaum Uttar","booth":158,"booth_name":"Govt Model Kannada Girls School No l,south Room Bhadakal Galli"},"geometry":{"type":"Point","coordinates":[74.5137253,15.8644552]}},{"type":"Feature","properties":{"state":"Karnataka","district":1,"district_n":"BELGAUM","pc":2,"pc_name":"Belgaum","ac":11,"ac_name":"Belgaum Uttar","booth":172,"booth_name":"Govt Marathi Higher Primary School No 2,[right Side] Ganapat Galli,belgaum"},"geometry":{"type":"Point","coordinates":[74.51258,15.8593454]}},{"type":"Feature","properties":{"state":"Karnataka","district":1,"district_n":"BELGAUM","pc":2,"pc_name":"Belgaum","ac":11,"ac_name":"Belgaum Uttar","booth":14,"booth_name":"Govt Kannada Higher Primary Primary School, [left wing] Shahu Nagar,"},"geometry":{"type":"Point","coordinates":[74.5106659,15.8887606]}},{"type":"Feature","properties":{"state":"Karnataka","district":1,"district_n":"BELGAUM","pc":2,"pc_name":"Belgaum","ac":11,"ac_name":"Belgaum Uttar","booth":16,"booth_name":"Govt Marathi Higher Primary School School School School [left wing} Shahu Nagar"},"geometry":{"type":"Point","coordinates":[74.5106,15.8887835]}},{"type":"Feature","properties":{"state":"Karnataka","district":1,"district_n":"BELGAUM","pc":2,"pc_name":"Belgaum","ac":11,"ac_name":"Belgaum Uttar","booth":50,"booth_name":"Love Dale Primary School[eastern wing] Room No 3 3 Mahantesh Nagar"},"geometry":{"type":"Point","coordinates":[74.5281143,15.8776617]}},{"type":"Feature","properties":{"state":"Karnataka","district":1,"district_n":"BELGAUM","pc":2,"pc_name":"Belgaum","ac":11,"ac_name":"Belgaum Uttar","booth":63,"booth_name":"Govt Urdu Higher Primary School, [ Left wing Room No 6] New Gandhi Nagar, belgaum"},"geometry":{"type":"Point","coordinates":[74.53348,15.8601723]}},{"type":"Feature","properties":{"state":"Karnataka","district":1,"district_n":"BELGAUM","pc":2,"pc_name":"Belgaum","ac":11,"ac_name":"Belgaum Uttar","booth":65,"booth_name":"Al ameen ameen School [right wing Room No 2] Azad Nagar, Belgaum"},"geometry":{"type":"Point","coordinates":[74.52854,15.8633032]}},{"type":"Feature","properties":{"state":"Karnataka","district":1,"district_n":"BELGAUM","pc":2,"pc_name":"Belgaum","ac":11,"ac_name":"Belgaum Uttar","booth":80,"booth_name":"St Paul?s High School Main building North Side 9th C Class Room camp Belgaum"},"geometry":{"type":"Point","coordinates":[74.50316,15.8538685]}},{"type":"Feature","properties":{"state":"Karnataka","district":1,"district_n":"BELGAUM","pc":2,"pc_name":"Belgaum","ac":11,"ac_name":"Belgaum Uttar","booth":99,"booth_name":"Office of the Dist Social Welfare Office[ Right side, Tailoring Unit], Neharu Nagar, Belgaum"},"geometry":{"type":"Point","coordinates":[74.5162354,15.8792191]}},{"type":"Feature","properties":{"state":"Karnataka","district":1,"district_n":"BELGAUM","pc":2,"pc_name":"Belgaum","ac":11,"ac_name":"Belgaum Uttar","booth":114,"booth_name":"Govt High School, [room No 3] Mahantesh Nagar,"},"geometry":{"type":"Point","coordinates":[74.52624,15.8856916]}},{"type":"Feature","properties":{"state":"Karnataka","district":1,"district_n":"BELGAUM","pc":2,"pc_name":"Belgaum","ac":11,"ac_name":"Belgaum Uttar","booth":116,"booth_name":"Govt Kannada Higher Primary Primary School No 24,old building Western side Room No ll Mahantesh Nagar,belgaum"},"geometry":{"type":"Point","coordinates":[74.53077,15.87621]}},{"type":"Feature","properties":{"state":"Karnataka","district":1,"district_n":"BELGAUM","pc":2,"pc_name":"Belgaum","ac":11,"ac_name":"Belgaum Uttar","booth":150,"booth_name":"Basiban High School[left wing] [3rd Room] Bhendi Bazar, Belgaum"},"geometry":{"type":"Point","coordinates":[74.51543,15.8603411]}},{"type":"Feature","properties":{"state":"Karnataka","district":1,"district_n":"BELGAUM","pc":2,"pc_name":"Belgaum","ac":11,"ac_name":"Belgaum Uttar","booth":163,"booth_name":"Govt College of Education,b Ed college, Middle Room,kakatives"},"geometry":{"type":"Point","coordinates":[74.51151,15.8651886]}},{"type":"Feature","properties":{"state":"Karnataka","district":1,"district_n":"BELGAUM","pc":2,"pc_name":"Belgaum","ac":11,"ac_name":"Belgaum Uttar","booth":165,"booth_name":"Govt Urdu Higher Primary School,no l, Western Room No 1, Kakatives, Belgaum"},"geometry":{"type":"Point","coordinates":[74.5114,15.8643875]}},{"type":"Feature","properties":{"state":"Karnataka","district":1,"district_n":"BELGAUM","pc":2,"pc_name":"Belgaum","ac":11,"ac_name":"Belgaum Uttar","booth":180,"booth_name":"Govt Kannada Higher Primary School No 6, Room No 4 Konwal Galli, Belgaum"},"geometry":{"type":"Point","coordinates":[74.5103149,15.855444]}}]}