{"type":"FeatureCollection","features":[{"type":"Feature","properties":{"state":"Karnataka","district":14,"district_n":"DAVANGERE","pc":13,"pc_name":"Davanagere","ac":110,"ac_name":"Honnali","booth":216,"booth_name":"Govt Higher Primary School School Mussenal"},"geometry":{"type":"Point","coordinates":[75.57952,14.1051674]}},{"type":"Feature","properties":{"state":"Karnataka","district":14,"district_n":"DAVANGERE","pc":13,"pc_name":"Davanagere","ac":110,"ac_name":"Honnali","booth":220,"booth_name":"Govt Higher primary School, Gadekatte"},"geometry":{"type":"Point","coordinates":[75.6282,14.1104374]}},{"type":"Feature","properties":{"state":"Karnataka","district":14,"district_n":"DAVANGERE","pc":13,"pc_name":"Davanagere","ac":110,"ac_name":"Honnali","booth":64,"booth_name":"Govt Higher Primary School Dodderahalli"},"geometry":{"type":"Point","coordinates":[75.5957,14.2399206]}},{"type":"Feature","properties":{"state":"Karnataka","district":14,"district_n":"DAVANGERE","pc":13,"pc_name":"Davanagere","ac":110,"ac_name":"Honnali","booth":65,"booth_name":"Govt Higher Primary School Hathuru"},"geometry":{"type":"Point","coordinates":[75.5976639,14.241827]}},{"type":"Feature","properties":{"state":"Karnataka","district":14,"district_n":"DAVANGERE","pc":13,"pc_name":"Davanagere","ac":110,"ac_name":"Honnali","booth":53,"booth_name":"Govt Govt Lower Primary School, Hanumasagara Kelagina Thanda"},"geometry":{"type":"Point","coordinates":[75.6264954,14.2824316]}},{"type":"Feature","properties":{"state":"Karnataka","district":14,"district_n":"DAVANGERE","pc":13,"pc_name":"Davanagere","ac":110,"ac_name":"Honnali","booth":211,"booth_name":"Govt Higher Primary School School Chatnahalli"},"geometry":{"type":"Point","coordinates":[75.5696945,14.1045074]}},{"type":"Feature","properties":{"state":"Karnataka","district":14,"district_n":"DAVANGERE","pc":13,"pc_name":"Davanagere","ac":110,"ac_name":"Honnali","booth":217,"booth_name":"Grama Panchayath Office Office Kunkova"},"geometry":{"type":"Point","coordinates":[75.62602,14.113986]}},{"type":"Feature","properties":{"state":"Karnataka","district":14,"district_n":"DAVANGERE","pc":13,"pc_name":"Davanagere","ac":110,"ac_name":"Honnali","booth":62,"booth_name":"Govt Higher Primary School East Wing Kattige"},"geometry":{"type":"Point","coordinates":[75.543396,14.2371235]}},{"type":"Feature","properties":{"state":"Karnataka","district":14,"district_n":"DAVANGERE","pc":13,"pc_name":"Davanagere","ac":110,"ac_name":"Honnali","booth":68,"booth_name":"Assistant Director of Agriculture Office Office Honnali"},"geometry":{"type":"Point","coordinates":[75.648056,14.2393627]}},{"type":"Feature","properties":{"state":"Karnataka","district":14,"district_n":"DAVANGERE","pc":13,"pc_name":"Davanagere","ac":110,"ac_name":"Honnali","booth":110,"booth_name":"Govt Higher Primary School West Wing Wing Malligenahalli"},"geometry":{"type":"Point","coordinates":[75.51947,14.1885357]}},{"type":"Feature","properties":{"state":"Karnataka","district":14,"district_n":"DAVANGERE","pc":13,"pc_name":"Davanagere","ac":110,"ac_name":"Honnali","booth":33,"booth_name":"Govt Higher Primary School North Wing Wing Kulambi"},"geometry":{"type":"Point","coordinates":[75.79938,14.2984638]}},{"type":"Feature","properties":{"state":"Karnataka","district":14,"district_n":"DAVANGERE","pc":13,"pc_name":"Davanagere","ac":110,"ac_name":"Honnali","booth":167,"booth_name":"Govt Girls High School School Nyamathi"},"geometry":{"type":"Point","coordinates":[75.56548,14.1494446]}},{"type":"Feature","properties":{"state":"Karnataka","district":14,"district_n":"DAVANGERE","pc":13,"pc_name":"Davanagere","ac":110,"ac_name":"Honnali","booth":213,"booth_name":"Govt Higher Primary School School Palavanahalli"},"geometry":{"type":"Point","coordinates":[75.57947,14.1051855]}},{"type":"Feature","properties":{"state":"Karnataka","district":14,"district_n":"DAVANGERE","pc":13,"pc_name":"Davanagere","ac":110,"ac_name":"Honnali","booth":67,"booth_name":"Assistant Executive Engineers Office Z P P Honnali"},"geometry":{"type":"Point","coordinates":[75.64837,14.2377605]}},{"type":"Feature","properties":{"state":"Karnataka","district":14,"district_n":"DAVANGERE","pc":13,"pc_name":"Davanagere","ac":110,"ac_name":"Honnali","booth":200,"booth_name":"Govt Higher primary school, Chi kadadakatte"},"geometry":{"type":"Point","coordinates":[75.672966,14.1204948]}},{"type":"Feature","properties":{"state":"Karnataka","district":14,"district_n":"DAVANGERE","pc":13,"pc_name":"Davanagere","ac":110,"ac_name":"Honnali","booth":72,"booth_name":"Govt Govt Lower primary school , Durgigudi Badavane Honnali"},"geometry":{"type":"Point","coordinates":[75.6403656,14.2365885]}},{"type":"Feature","properties":{"state":"Karnataka","district":14,"district_n":"DAVANGERE","pc":13,"pc_name":"Davanagere","ac":110,"ac_name":"Honnali","booth":202,"booth_name":"Govt Higher Primary School, Room No 2 Odeyarahattur 2,"},"geometry":{"type":"Point","coordinates":[75.6299057,14.1229467]}},{"type":"Feature","properties":{"state":"Karnataka","district":14,"district_n":"DAVANGERE","pc":13,"pc_name":"Davanagere","ac":110,"ac_name":"Honnali","booth":153,"booth_name":"Govt Lower Primary School Kudurekonda"},"geometry":{"type":"Point","coordinates":[75.56199,14.148675]}},{"type":"Feature","properties":{"state":"Karnataka","district":14,"district_n":"DAVANGERE","pc":13,"pc_name":"Davanagere","ac":110,"ac_name":"Honnali","booth":147,"booth_name":"Govt Higher Primary School School Madanabavi 2, Room No 2"},"geometry":{"type":"Point","coordinates":[75.60957,14.1818571]}},{"type":"Feature","properties":{"state":"Karnataka","district":14,"district_n":"DAVANGERE","pc":13,"pc_name":"Davanagere","ac":110,"ac_name":"Honnali","booth":193,"booth_name":"Govt Lower Primary School School School Bhyranahalli"},"geometry":{"type":"Point","coordinates":[75.7738953,14.1383448]}},{"type":"Feature","properties":{"state":"Karnataka","district":14,"district_n":"DAVANGERE","pc":13,"pc_name":"Davanagere","ac":110,"ac_name":"Honnali","booth":179,"booth_name":"Govt Lower Primary School, School, School, Arehalli"},"geometry":{"type":"Point","coordinates":[75.6246948,14.1501865]}},{"type":"Feature","properties":{"state":"Karnataka","district":14,"district_n":"DAVANGERE","pc":13,"pc_name":"Davanagere","ac":110,"ac_name":"Honnali","booth":84,"booth_name":"Govt Lower Primary School School Takkanahalli"},"geometry":{"type":"Point","coordinates":[75.69664,14.2346115]}},{"type":"Feature","properties":{"state":"Karnataka","district":14,"district_n":"DAVANGERE","pc":13,"pc_name":"Davanagere","ac":110,"ac_name":"Honnali","booth":87,"booth_name":"Govt Higher Primary School School Benakanahalli"},"geometry":{"type":"Point","coordinates":[75.71226,14.2128534]}},{"type":"Feature","properties":{"state":"Karnataka","district":14,"district_n":"DAVANGERE","pc":13,"pc_name":"Davanagere","ac":110,"ac_name":"Honnali","booth":90,"booth_name":"Sri Vinayaka High School School Benakanahalli"},"geometry":{"type":"Point","coordinates":[75.71328,14.2123775]}},{"type":"Feature","properties":{"state":"Karnataka","district":14,"district_n":"DAVANGERE","pc":13,"pc_name":"Davanagere","ac":110,"ac_name":"Honnali","booth":109,"booth_name":"Govt Higher Primary School, East Wing, Malligenahalli"},"geometry":{"type":"Point","coordinates":[75.51947,14.1885357]}},{"type":"Feature","properties":{"state":"Karnataka","district":14,"district_n":"DAVANGERE","pc":13,"pc_name":"Davanagere","ac":110,"ac_name":"Honnali","booth":4,"booth_name":"Govt High School, Hiregonigere"},"geometry":{"type":"Point","coordinates":[75.63858,14.3197889]}},{"type":"Feature","properties":{"state":"Karnataka","district":14,"district_n":"DAVANGERE","pc":13,"pc_name":"Davanagere","ac":110,"ac_name":"Honnali","booth":50,"booth_name":"Govt Higher Primary School, East Wing, Belimallur"},"geometry":{"type":"Point","coordinates":[75.6525955,14.2687035]}},{"type":"Feature","properties":{"state":"Karnataka","district":14,"district_n":"DAVANGERE","pc":13,"pc_name":"Davanagere","ac":110,"ac_name":"Honnali","booth":233,"booth_name":"Govt Higher Primary School North Wing Wing Lingapura"},"geometry":{"type":"Point","coordinates":[75.73102,14.1100388]}},{"type":"Feature","properties":{"state":"Karnataka","district":14,"district_n":"DAVANGERE","pc":13,"pc_name":"Davanagere","ac":110,"ac_name":"Honnali","booth":93,"booth_name":"Govt Higher Primary School School Didaguru"},"geometry":{"type":"Point","coordinates":[75.66925,14.205616]}},{"type":"Feature","properties":{"state":"Karnataka","district":14,"district_n":"DAVANGERE","pc":13,"pc_name":"Davanagere","ac":110,"ac_name":"Honnali","booth":1,"booth_name":"Govt Higher Primary School Konanathale"},"geometry":{"type":"Point","coordinates":[75.63373,14.35456]}},{"type":"Feature","properties":{"state":"Karnataka","district":14,"district_n":"DAVANGERE","pc":13,"pc_name":"Davanagere","ac":110,"ac_name":"Honnali","booth":7,"booth_name":"Govt Higher Primary School Holeharalahalli"},"geometry":{"type":"Point","coordinates":[75.63162,14.3047762]}},{"type":"Feature","properties":{"state":"Karnataka","district":14,"district_n":"DAVANGERE","pc":13,"pc_name":"Davanagere","ac":110,"ac_name":"Honnali","booth":13,"booth_name":"Govt Lower Primary School Narasagondanahalli"},"geometry":{"type":"Point","coordinates":[75.6991348,14.2797785]}},{"type":"Feature","properties":{"state":"Karnataka","district":14,"district_n":"DAVANGERE","pc":13,"pc_name":"Davanagere","ac":110,"ac_name":"Honnali","booth":21,"booth_name":"Govt Higher Primary School Yarehalli"},"geometry":{"type":"Point","coordinates":[75.77124,14.3173046]}},{"type":"Feature","properties":{"state":"Karnataka","district":14,"district_n":"DAVANGERE","pc":13,"pc_name":"Davanagere","ac":110,"ac_name":"Honnali","booth":24,"booth_name":"Govt Higher Primary School Bannikodu"},"geometry":{"type":"Point","coordinates":[75.80221,14.335557]}},{"type":"Feature","properties":{"state":"Karnataka","district":14,"district_n":"DAVANGERE","pc":13,"pc_name":"Davanagere","ac":110,"ac_name":"Honnali","booth":36,"booth_name":"Govt Higher Primary School North Wing Kumbaluru"},"geometry":{"type":"Point","coordinates":[75.7974854,14.2537975]}},{"type":"Feature","properties":{"state":"Karnataka","district":14,"district_n":"DAVANGERE","pc":13,"pc_name":"Davanagere","ac":110,"ac_name":"Honnali","booth":47,"booth_name":"Govt Higher Primary School Gantyapura"},"geometry":{"type":"Point","coordinates":[75.7829742,14.285799]}},{"type":"Feature","properties":{"state":"Karnataka","district":14,"district_n":"DAVANGERE","pc":13,"pc_name":"Davanagere","ac":110,"ac_name":"Honnali","booth":96,"booth_name":"Govt Junior College East Wing Wing Devanyakanahalli"},"geometry":{"type":"Point","coordinates":[75.6553,14.2326708]}},{"type":"Feature","properties":{"state":"Karnataka","district":14,"district_n":"DAVANGERE","pc":13,"pc_name":"Davanagere","ac":110,"ac_name":"Honnali","booth":104,"booth_name":"Govt Higher Primary School School Guddehalli"},"geometry":{"type":"Point","coordinates":[75.5166855,14.2038488]}},{"type":"Feature","properties":{"state":"Karnataka","district":14,"district_n":"DAVANGERE","pc":13,"pc_name":"Davanagere","ac":110,"ac_name":"Honnali","booth":113,"booth_name":"Govt Higher Primary School West Wing Wing Wing Kenchikoppa"},"geometry":{"type":"Point","coordinates":[75.56084,14.1929312]}},{"type":"Feature","properties":{"state":"Karnataka","district":14,"district_n":"DAVANGERE","pc":13,"pc_name":"Davanagere","ac":110,"ac_name":"Honnali","booth":107,"booth_name":"Govt Higher Primary School School Belaguthi"},"geometry":{"type":"Point","coordinates":[75.5191345,14.1889687]}},{"type":"Feature","properties":{"state":"Karnataka","district":14,"district_n":"DAVANGERE","pc":13,"pc_name":"Davanagere","ac":110,"ac_name":"Honnali","booth":173,"booth_name":"Govt Higher Primary Girls School School Nyamathi"},"geometry":{"type":"Point","coordinates":[75.5737839,14.15325]}},{"type":"Feature","properties":{"state":"Karnataka","district":14,"district_n":"DAVANGERE","pc":13,"pc_name":"Davanagere","ac":110,"ac_name":"Honnali","booth":136,"booth_name":"Govt Higher Primary School School School Bullapura"},"geometry":{"type":"Point","coordinates":[75.69619,14.1551723]}},{"type":"Feature","properties":{"state":"Karnataka","district":14,"district_n":"DAVANGERE","pc":13,"pc_name":"Davanagere","ac":110,"ac_name":"Honnali","booth":139,"booth_name":"Govt Lower Primary School School School Mavinakote Tanda"},"geometry":{"type":"Point","coordinates":[75.7271,14.1622562]}},{"type":"Feature","properties":{"state":"Karnataka","district":14,"district_n":"DAVANGERE","pc":13,"pc_name":"Davanagere","ac":110,"ac_name":"Honnali","booth":159,"booth_name":"Govt Lower Primary School School Bidarahalli"},"geometry":{"type":"Point","coordinates":[75.4791,14.1414042]}},{"type":"Feature","properties":{"state":"Karnataka","district":14,"district_n":"DAVANGERE","pc":13,"pc_name":"Davanagere","ac":110,"ac_name":"Honnali","booth":170,"booth_name":"Nadakacheri Nyamthi East Wing Nyamathi"},"geometry":{"type":"Point","coordinates":[75.56895,14.1492538]}},{"type":"Feature","properties":{"state":"Karnataka","district":14,"district_n":"DAVANGERE","pc":13,"pc_name":"Davanagere","ac":110,"ac_name":"Honnali","booth":176,"booth_name":"Govt Lower Primary School A K Colony Colony Nyamathi"},"geometry":{"type":"Point","coordinates":[75.57922,14.1484718]}},{"type":"Feature","properties":{"state":"Karnataka","district":14,"district_n":"DAVANGERE","pc":13,"pc_name":"Davanagere","ac":110,"ac_name":"Honnali","booth":190,"booth_name":"Govt Higher Primary School School Kyasinakere"},"geometry":{"type":"Point","coordinates":[75.75361,14.1353178]}},{"type":"Feature","properties":{"state":"Karnataka","district":14,"district_n":"DAVANGERE","pc":13,"pc_name":"Davanagere","ac":110,"ac_name":"Honnali","booth":199,"booth_name":"Govt Higher Primary School Chi Kadadakatte"},"geometry":{"type":"Point","coordinates":[75.672966,14.1204948]}},{"type":"Feature","properties":{"state":"Karnataka","district":14,"district_n":"DAVANGERE","pc":13,"pc_name":"Davanagere","ac":110,"ac_name":"Honnali","booth":219,"booth_name":"Govt Higher Primary School School Kugonahalli"},"geometry":{"type":"Point","coordinates":[75.6382,14.1004372]}},{"type":"Feature","properties":{"state":"Karnataka","district":14,"district_n":"DAVANGERE","pc":13,"pc_name":"Davanagere","ac":110,"ac_name":"Honnali","booth":127,"booth_name":"Govt Higher Primary School School Ujjanipura"},"geometry":{"type":"Point","coordinates":[75.70743,14.1817274]}},{"type":"Feature","properties":{"state":"Karnataka","district":14,"district_n":"DAVANGERE","pc":13,"pc_name":"Davanagere","ac":110,"ac_name":"Honnali","booth":230,"booth_name":"Govt Higher Primary School School Tyavaregopagondanahalli"},"geometry":{"type":"Point","coordinates":[75.63891,14.2086983]}},{"type":"Feature","properties":{"state":"Karnataka","district":14,"district_n":"DAVANGERE","pc":13,"pc_name":"Davanagere","ac":110,"ac_name":"Honnali","booth":236,"booth_name":"Govt Higher Primary School School Hunsagatta"},"geometry":{"type":"Point","coordinates":[75.75752,14.1173992]}},{"type":"Feature","properties":{"state":"Karnataka","district":14,"district_n":"DAVANGERE","pc":13,"pc_name":"Davanagere","ac":110,"ac_name":"Honnali","booth":150,"booth_name":"Govt Higher Primary School School Rameshwara"},"geometry":{"type":"Point","coordinates":[75.53763,14.1816339]}},{"type":"Feature","properties":{"state":"Karnataka","district":14,"district_n":"DAVANGERE","pc":13,"pc_name":"Davanagere","ac":110,"ac_name":"Honnali","booth":56,"booth_name":"Govt Higher Primary School School Balmuri"},"geometry":{"type":"Point","coordinates":[75.5965,14.2524328]}},{"type":"Feature","properties":{"state":"Karnataka","district":14,"district_n":"DAVANGERE","pc":13,"pc_name":"Davanagere","ac":110,"ac_name":"Honnali","booth":188,"booth_name":"Govt Higher Primary School West Wing Wing Wing Kulagatte"},"geometry":{"type":"Point","coordinates":[75.7375259,14.1414356]}},{"type":"Feature","properties":{"state":"Karnataka","district":14,"district_n":"DAVANGERE","pc":13,"pc_name":"Davanagere","ac":110,"ac_name":"Honnali","booth":205,"booth_name":"Govt Higher Primary School North Wing Wing Savalanga"},"geometry":{"type":"Point","coordinates":[75.52579,14.1021357]}},{"type":"Feature","properties":{"state":"Karnataka","district":14,"district_n":"DAVANGERE","pc":13,"pc_name":"Davanagere","ac":110,"ac_name":"Honnali","booth":208,"booth_name":"Govt Higher Primary School School Machagondanahalli"},"geometry":{"type":"Point","coordinates":[75.50389,14.112668]}},{"type":"Feature","properties":{"state":"Karnataka","district":14,"district_n":"DAVANGERE","pc":13,"pc_name":"Davanagere","ac":110,"ac_name":"Honnali","booth":231,"booth_name":"Govt Higher Primary School School Hanagavadi"},"geometry":{"type":"Point","coordinates":[75.72092,14.09061]}},{"type":"Feature","properties":{"state":"Karnataka","district":14,"district_n":"DAVANGERE","pc":13,"pc_name":"Davanagere","ac":110,"ac_name":"Honnali","booth":237,"booth_name":"Govt Higher Primary Urdu School School Hunsagatta"},"geometry":{"type":"Point","coordinates":[75.7540741,14.11902]}},{"type":"Feature","properties":{"state":"Karnataka","district":14,"district_n":"DAVANGERE","pc":13,"pc_name":"Davanagere","ac":110,"ac_name":"Honnali","booth":134,"booth_name":"Govt Higher Primary Urdu School South Wing Wing Sasvehalli"},"geometry":{"type":"Point","coordinates":[75.717,14.1526461]}},{"type":"Feature","properties":{"state":"Karnataka","district":14,"district_n":"DAVANGERE","pc":13,"pc_name":"Davanagere","ac":110,"ac_name":"Honnali","booth":142,"booth_name":"Govt Higher Primary School School Govinakovi"},"geometry":{"type":"Point","coordinates":[75.66729,14.1654873]}},{"type":"Feature","properties":{"state":"Karnataka","district":14,"district_n":"DAVANGERE","pc":13,"pc_name":"Davanagere","ac":110,"ac_name":"Honnali","booth":145,"booth_name":"Govt Higher Primary School West Wing Wing Basavanahalli"},"geometry":{"type":"Point","coordinates":[75.63195,14.1687508]}},{"type":"Feature","properties":{"state":"Karnataka","district":14,"district_n":"DAVANGERE","pc":13,"pc_name":"Davanagere","ac":110,"ac_name":"Honnali","booth":165,"booth_name":"Govt Higher Primary School Shanthinagara Shanthinagara Surahonne"},"geometry":{"type":"Point","coordinates":[75.55488,14.1433468]}},{"type":"Feature","properties":{"state":"Karnataka","district":14,"district_n":"DAVANGERE","pc":13,"pc_name":"Davanagere","ac":110,"ac_name":"Honnali","booth":44,"booth_name":"Govt Urdu Higher primary school,room No 2 Kunduru 5"},"geometry":{"type":"Point","coordinates":[75.78286,14.2857885]}},{"type":"Feature","properties":{"state":"Karnataka","district":14,"district_n":"DAVANGERE","pc":13,"pc_name":"Davanagere","ac":110,"ac_name":"Honnali","booth":27,"booth_name":"Govt Higher Primary School,room No 2 Muktenahalli 2"},"geometry":{"type":"Point","coordinates":[75.84033,14.3252249]}},{"type":"Feature","properties":{"state":"Karnataka","district":14,"district_n":"DAVANGERE","pc":13,"pc_name":"Davanagere","ac":110,"ac_name":"Honnali","booth":10,"booth_name":"Govt Lower Primary School Kotemalluru Thanda ( Vijayapura )"},"geometry":{"type":"Point","coordinates":[75.65323,14.2949114]}},{"type":"Feature","properties":{"state":"Karnataka","district":14,"district_n":"DAVANGERE","pc":13,"pc_name":"Davanagere","ac":110,"ac_name":"Honnali","booth":30,"booth_name":"Govt Higher Primary School , Kengalahalli"},"geometry":{"type":"Point","coordinates":[75.8151855,14.3166895]}},{"type":"Feature","properties":{"state":"Karnataka","district":14,"district_n":"DAVANGERE","pc":13,"pc_name":"Davanagere","ac":110,"ac_name":"Honnali","booth":222,"booth_name":"Govt Higher Primary School, Room No 2 1) Dodderi 2 2 2 2 2 2 2 2 2 2 2 2 2 2 2 2 2 2 2 2 2 2 2) Akkathangiyarakatte (b)"},"geometry":{"type":"Point","coordinates":[75.6771545,14.0929461]}},{"type":"Feature","properties":{"state":"Karnataka","district":14,"district_n":"DAVANGERE","pc":13,"pc_name":"Davanagere","ac":110,"ac_name":"Honnali","booth":210,"booth_name":"Govt Higher Primary School, Room No 2 Sogilu 2, Chatnahalli 2, nahalli 2,"},"geometry":{"type":"Point","coordinates":[75.54645,14.0979471]}},{"type":"Feature","properties":{"state":"Karnataka","district":14,"district_n":"DAVANGERE","pc":13,"pc_name":"Davanagere","ac":110,"ac_name":"Honnali","booth":133,"booth_name":"Govt Higher Primary School, Room No 1 1 Sasvehalli 3,"},"geometry":{"type":"Point","coordinates":[75.7130051,14.1530371]}},{"type":"Feature","properties":{"state":"Karnataka","district":14,"district_n":"DAVANGERE","pc":13,"pc_name":"Davanagere","ac":110,"ac_name":"Honnali","booth":130,"booth_name":"Govt Higher Primary School ,room No 2 1)vijayapura 2, 2) Sadashivapura"},"geometry":{"type":"Point","coordinates":[75.70985,14.19696]}},{"type":"Feature","properties":{"state":"Karnataka","district":14,"district_n":"DAVANGERE","pc":13,"pc_name":"Davanagere","ac":110,"ac_name":"Honnali","booth":119,"booth_name":"Govt Primary School School Arabagatte 2,"},"geometry":{"type":"Point","coordinates":[75.6302,14.195384]}},{"type":"Feature","properties":{"state":"Karnataka","district":14,"district_n":"DAVANGERE","pc":13,"pc_name":"Davanagere","ac":110,"ac_name":"Honnali","booth":116,"booth_name":"Govt High School, School, Soraturu 3"},"geometry":{"type":"Point","coordinates":[75.59662,14.2180614]}},{"type":"Feature","properties":{"state":"Karnataka","district":14,"district_n":"DAVANGERE","pc":13,"pc_name":"Davanagere","ac":110,"ac_name":"Honnali","booth":196,"booth_name":"Govt Lower Primary School Bagevadi"},"geometry":{"type":"Point","coordinates":[75.69796,14.10927]}},{"type":"Feature","properties":{"state":"Karnataka","district":14,"district_n":"DAVANGERE","pc":13,"pc_name":"Davanagere","ac":110,"ac_name":"Honnali","booth":39,"booth_name":"Gramapanchayath Office, kumbaluru 3 2"},"geometry":{"type":"Point","coordinates":[75.79271,14.2647266]}},{"type":"Feature","properties":{"state":"Karnataka","district":14,"district_n":"DAVANGERE","pc":13,"pc_name":"Davanagere","ac":110,"ac_name":"Honnali","booth":25,"booth_name":"Govt Higher Primary Schoolroom No 2 Bannikodu 2"},"geometry":{"type":"Point","coordinates":[75.80252,14.3355446]}},{"type":"Feature","properties":{"state":"Karnataka","district":14,"district_n":"DAVANGERE","pc":13,"pc_name":"Davanagere","ac":110,"ac_name":"Honnali","booth":22,"booth_name":"Govt Higher Primary School Chikkahalivana"},"geometry":{"type":"Point","coordinates":[75.7697449,14.3109055]}},{"type":"Feature","properties":{"state":"Karnataka","district":14,"district_n":"DAVANGERE","pc":13,"pc_name":"Davanagere","ac":110,"ac_name":"Honnali","booth":8,"booth_name":"8 Govt Higher Primary School Holeharalahalli 2"},"geometry":{"type":"Point","coordinates":[75.63145,14.304821]}},{"type":"Feature","properties":{"state":"Karnataka","district":14,"district_n":"DAVANGERE","pc":13,"pc_name":"Davanagere","ac":110,"ac_name":"Honnali","booth":70,"booth_name":"Govt Degree Colage Colage Honnali"},"geometry":{"type":"Point","coordinates":[75.64834,14.2399149]}},{"type":"Feature","properties":{"state":"Karnataka","district":14,"district_n":"DAVANGERE","pc":13,"pc_name":"Davanagere","ac":110,"ac_name":"Honnali","booth":73,"booth_name":"Stella Marys Higher Primary School Durgigudi East Wing Wing Honnali"},"geometry":{"type":"Point","coordinates":[75.64036,14.23659]}},{"type":"Feature","properties":{"state":"Karnataka","district":14,"district_n":"DAVANGERE","pc":13,"pc_name":"Davanagere","ac":110,"ac_name":"Honnali","booth":76,"booth_name":"Town Panchayat Office Office Honnali"},"geometry":{"type":"Point","coordinates":[75.64861,14.2387743]}},{"type":"Feature","properties":{"state":"Karnataka","district":14,"district_n":"DAVANGERE","pc":13,"pc_name":"Davanagere","ac":110,"ac_name":"Honnali","booth":156,"booth_name":"Govt Lower primary school, Belalakatte"},"geometry":{"type":"Point","coordinates":[75.4613342,14.1139221]}},{"type":"Feature","properties":{"state":"Karnataka","district":14,"district_n":"DAVANGERE","pc":13,"pc_name":"Davanagere","ac":110,"ac_name":"Honnali","booth":3,"booth_name":"Govt Higher Primary School Hiregonigere"},"geometry":{"type":"Point","coordinates":[75.6385956,14.3197794]}},{"type":"Feature","properties":{"state":"Karnataka","district":14,"district_n":"DAVANGERE","pc":13,"pc_name":"Davanagere","ac":110,"ac_name":"Honnali","booth":5,"booth_name":"Govt Higher Primary School Honnuru Vaddrahatti"},"geometry":{"type":"Point","coordinates":[75.67628,14.3133068]}},{"type":"Feature","properties":{"state":"Karnataka","district":14,"district_n":"DAVANGERE","pc":13,"pc_name":"Davanagere","ac":110,"ac_name":"Honnali","booth":125,"booth_name":"Govt Higher primary school, Beeragondanahalli"},"geometry":{"type":"Point","coordinates":[75.68576,14.1793575]}},{"type":"Feature","properties":{"state":"Karnataka","district":14,"district_n":"DAVANGERE","pc":13,"pc_name":"Davanagere","ac":110,"ac_name":"Honnali","booth":88,"booth_name":"Govt Higher Primary School,roomk No 2, Benakanahalli 2,"},"geometry":{"type":"Point","coordinates":[75.71235,14.212842]}},{"type":"Feature","properties":{"state":"Karnataka","district":14,"district_n":"DAVANGERE","pc":13,"pc_name":"Davanagere","ac":110,"ac_name":"Honnali","booth":91,"booth_name":"Govt Lower Primary School, School, Holemadapura"},"geometry":{"type":"Point","coordinates":[75.69031,14.21271]}},{"type":"Feature","properties":{"state":"Karnataka","district":14,"district_n":"DAVANGERE","pc":13,"pc_name":"Davanagere","ac":110,"ac_name":"Honnali","booth":168,"booth_name":"Govt Girls High School School Nyamathi 2, Room No 2"},"geometry":{"type":"Point","coordinates":[75.5654,14.1496048]}},{"type":"Feature","properties":{"state":"Karnataka","district":14,"district_n":"DAVANGERE","pc":13,"pc_name":"Davanagere","ac":110,"ac_name":"Honnali","booth":51,"booth_name":"Grama Panchyath Office, Office, Belimalluru 3,"},"geometry":{"type":"Point","coordinates":[75.6525955,14.2687035]}},{"type":"Feature","properties":{"state":"Karnataka","district":14,"district_n":"DAVANGERE","pc":13,"pc_name":"Davanagere","ac":110,"ac_name":"Honnali","booth":126,"booth_name":"Govt Higher primary school, Beeragondanahalli"},"geometry":{"type":"Point","coordinates":[75.68576,14.1793575]}},{"type":"Feature","properties":{"state":"Karnataka","district":14,"district_n":"DAVANGERE","pc":13,"pc_name":"Davanagere","ac":110,"ac_name":"Honnali","booth":94,"booth_name":"Govt, Lower primary school , A K Colony Didaguru"},"geometry":{"type":"Point","coordinates":[75.66921,14.2056522]}},{"type":"Feature","properties":{"state":"Karnataka","district":14,"district_n":"DAVANGERE","pc":13,"pc_name":"Davanagere","ac":110,"ac_name":"Honnali","booth":214,"booth_name":"Govt Higher Primary School, Room No 2 2 Palavanahalli 2,"},"geometry":{"type":"Point","coordinates":[75.57948,14.1051731]}},{"type":"Feature","properties":{"state":"Karnataka","district":14,"district_n":"DAVANGERE","pc":13,"pc_name":"Davanagere","ac":110,"ac_name":"Honnali","booth":122,"booth_name":"Govt Higher Primary School, Room No 2 2 2 Haralahalli 2"},"geometry":{"type":"Point","coordinates":[75.66192,14.19204]}},{"type":"Feature","properties":{"state":"Karnataka","district":14,"district_n":"DAVANGERE","pc":13,"pc_name":"Davanagere","ac":110,"ac_name":"Honnali","booth":59,"booth_name":"Govt Higher Primary Schoo, Room No 2, H Gopagondanahalli 2"},"geometry":{"type":"Point","coordinates":[75.61475,14.2556067]}},{"type":"Feature","properties":{"state":"Karnataka","district":14,"district_n":"DAVANGERE","pc":13,"pc_name":"Davanagere","ac":110,"ac_name":"Honnali","booth":71,"booth_name":"Stella Mary Higher Primary School Durgigudi North Wing Wing Honnali"},"geometry":{"type":"Point","coordinates":[75.64039,14.2365646]}},{"type":"Feature","properties":{"state":"Karnataka","district":14,"district_n":"DAVANGERE","pc":13,"pc_name":"Davanagere","ac":110,"ac_name":"Honnali","booth":79,"booth_name":"Bharatiya Vidya Samsthe North Wing Honnali"},"geometry":{"type":"Point","coordinates":[75.6509857,14.2387371]}},{"type":"Feature","properties":{"state":"Karnataka","district":14,"district_n":"DAVANGERE","pc":13,"pc_name":"Davanagere","ac":110,"ac_name":"Honnali","booth":197,"booth_name":"Govt Lower Primary School Huralihalli"},"geometry":{"type":"Point","coordinates":[75.69543,14.116807]}},{"type":"Feature","properties":{"state":"Karnataka","district":14,"district_n":"DAVANGERE","pc":13,"pc_name":"Davanagere","ac":110,"ac_name":"Honnali","booth":14,"booth_name":"Govt Lower Primary School Arakere A K Colony"},"geometry":{"type":"Point","coordinates":[75.7165,14.2965927]}},{"type":"Feature","properties":{"state":"Karnataka","district":14,"district_n":"DAVANGERE","pc":13,"pc_name":"Davanagere","ac":110,"ac_name":"Honnali","booth":15,"booth_name":"Govt Higher Primary School Taraganahalli"},"geometry":{"type":"Point","coordinates":[75.71435,14.2632923]}},{"type":"Feature","properties":{"state":"Karnataka","district":14,"district_n":"DAVANGERE","pc":13,"pc_name":"Davanagere","ac":110,"ac_name":"Honnali","booth":37,"booth_name":"Govt Higher Primary School , Kumbaluru"},"geometry":{"type":"Point","coordinates":[75.7974854,14.2537975]}},{"type":"Feature","properties":{"state":"Karnataka","district":14,"district_n":"DAVANGERE","pc":13,"pc_name":"Davanagere","ac":110,"ac_name":"Honnali","booth":16,"booth_name":"Govt Higher Primary School Taraganahalli"},"geometry":{"type":"Point","coordinates":[75.78296,14.2857943]}},{"type":"Feature","properties":{"state":"Karnataka","district":14,"district_n":"DAVANGERE","pc":13,"pc_name":"Davanagere","ac":110,"ac_name":"Honnali","booth":112,"booth_name":"Govt Higher Primary School East Wing Wing Kenchikoppa"},"geometry":{"type":"Point","coordinates":[75.5610046,14.1929674]}},{"type":"Feature","properties":{"state":"Karnataka","district":14,"district_n":"DAVANGERE","pc":13,"pc_name":"Davanagere","ac":110,"ac_name":"Honnali","booth":209,"booth_name":"Govt Higher Primary School Sogilu"},"geometry":{"type":"Point","coordinates":[75.54644,14.0979738]}},{"type":"Feature","properties":{"state":"Karnataka","district":14,"district_n":"DAVANGERE","pc":13,"pc_name":"Davanagere","ac":110,"ac_name":"Honnali","booth":101,"booth_name":"Govt Lower Primary School School Marikoppa"},"geometry":{"type":"Point","coordinates":[75.6127,14.23551]}},{"type":"Feature","properties":{"state":"Karnataka","district":14,"district_n":"DAVANGERE","pc":13,"pc_name":"Davanagere","ac":110,"ac_name":"Honnali","booth":103,"booth_name":"Govt High School School Jeenahalli"},"geometry":{"type":"Point","coordinates":[75.53652,14.2134562]}},{"type":"Feature","properties":{"state":"Karnataka","district":14,"district_n":"DAVANGERE","pc":13,"pc_name":"Davanagere","ac":110,"ac_name":"Honnali","booth":114,"booth_name":"Govt Higher Primary School East Wing Wing Soraturu"},"geometry":{"type":"Point","coordinates":[75.59668,14.2182837]}},{"type":"Feature","properties":{"state":"Karnataka","district":14,"district_n":"DAVANGERE","pc":13,"pc_name":"Davanagere","ac":110,"ac_name":"Honnali","booth":228,"booth_name":"Govt Lower Primary School School Hosamalali"},"geometry":{"type":"Point","coordinates":[75.6325455,14.1803875]}},{"type":"Feature","properties":{"state":"Karnataka","district":14,"district_n":"DAVANGERE","pc":13,"pc_name":"Davanagere","ac":110,"ac_name":"Honnali","booth":234,"booth_name":"Govt Higher Primary School South Wing Wing Lingapura"},"geometry":{"type":"Point","coordinates":[75.73109,14.1101789]}},{"type":"Feature","properties":{"state":"Karnataka","district":14,"district_n":"DAVANGERE","pc":13,"pc_name":"Davanagere","ac":110,"ac_name":"Honnali","booth":2,"booth_name":"Govt Lower Primary School Haraganahalli"},"geometry":{"type":"Point","coordinates":[75.6292648,14.3387337]}},{"type":"Feature","properties":{"state":"Karnataka","district":14,"district_n":"DAVANGERE","pc":13,"pc_name":"Davanagere","ac":110,"ac_name":"Honnali","booth":19,"booth_name":"Govt Higher Primary School Yakkanahalli"},"geometry":{"type":"Point","coordinates":[75.76682,14.29767]}},{"type":"Feature","properties":{"state":"Karnataka","district":14,"district_n":"DAVANGERE","pc":13,"pc_name":"Davanagere","ac":110,"ac_name":"Honnali","booth":42,"booth_name":"Govt Higher Primary Urdu School Kundru"},"geometry":{"type":"Point","coordinates":[75.78203,14.2862349]}},{"type":"Feature","properties":{"state":"Karnataka","district":14,"district_n":"DAVANGERE","pc":13,"pc_name":"Davanagere","ac":110,"ac_name":"Honnali","booth":45,"booth_name":"Govt Higher Primary Urdu School Bevinahalli"},"geometry":{"type":"Point","coordinates":[75.75436,14.2632847]}},{"type":"Feature","properties":{"state":"Karnataka","district":14,"district_n":"DAVANGERE","pc":13,"pc_name":"Davanagere","ac":110,"ac_name":"Honnali","booth":48,"booth_name":"Govt Higher Primary School Masadi"},"geometry":{"type":"Point","coordinates":[75.6826248,14.2612]}},{"type":"Feature","properties":{"state":"Karnataka","district":14,"district_n":"DAVANGERE","pc":13,"pc_name":"Davanagere","ac":110,"ac_name":"Honnali","booth":82,"booth_name":"Sri Haladamma Devi Girls High School West Wing Honnali"},"geometry":{"type":"Point","coordinates":[75.64377,14.2349339]}},{"type":"Feature","properties":{"state":"Karnataka","district":14,"district_n":"DAVANGERE","pc":13,"pc_name":"Davanagere","ac":110,"ac_name":"Honnali","booth":99,"booth_name":"Govt Higher Primary School School Hiremata"},"geometry":{"type":"Point","coordinates":[75.63979,14.2313738]}},{"type":"Feature","properties":{"state":"Karnataka","district":14,"district_n":"DAVANGERE","pc":13,"pc_name":"Davanagere","ac":110,"ac_name":"Honnali","booth":105,"booth_name":"Govt Lower Primary School School Hosakoppa"},"geometry":{"type":"Point","coordinates":[75.49435,14.2058258]}},{"type":"Feature","properties":{"state":"Karnataka","district":14,"district_n":"DAVANGERE","pc":13,"pc_name":"Davanagere","ac":110,"ac_name":"Honnali","booth":108,"booth_name":"National High School Belaguthi"},"geometry":{"type":"Point","coordinates":[75.51947,14.1885357]}},{"type":"Feature","properties":{"state":"Karnataka","district":14,"district_n":"DAVANGERE","pc":13,"pc_name":"Davanagere","ac":110,"ac_name":"Honnali","booth":111,"booth_name":"Govt Higher Primary School North Wing Wing Malligenahalli"},"geometry":{"type":"Point","coordinates":[75.52992,14.1913166]}},{"type":"Feature","properties":{"state":"Karnataka","district":14,"district_n":"DAVANGERE","pc":13,"pc_name":"Davanagere","ac":110,"ac_name":"Honnali","booth":102,"booth_name":"Govt Higher Primary School School Jeenahalli"},"geometry":{"type":"Point","coordinates":[75.53738,14.211422]}},{"type":"Feature","properties":{"state":"Karnataka","district":14,"district_n":"DAVANGERE","pc":13,"pc_name":"Davanagere","ac":110,"ac_name":"Honnali","booth":128,"booth_name":"Govt Lower Primary School School Chikkabasuru"},"geometry":{"type":"Point","coordinates":[75.70447,14.2051735]}},{"type":"Feature","properties":{"state":"Karnataka","district":14,"district_n":"DAVANGERE","pc":13,"pc_name":"Davanagere","ac":110,"ac_name":"Honnali","booth":174,"booth_name":"Govt Higher Primary Boys School North Wing Wing Nyamathi"},"geometry":{"type":"Point","coordinates":[75.57334,14.1455584]}},{"type":"Feature","properties":{"state":"Karnataka","district":14,"district_n":"DAVANGERE","pc":13,"pc_name":"Davanagere","ac":110,"ac_name":"Honnali","booth":131,"booth_name":"Govt Higher Primary School School Sasvehalli"},"geometry":{"type":"Point","coordinates":[75.7130051,14.1531668]}},{"type":"Feature","properties":{"state":"Karnataka","district":14,"district_n":"DAVANGERE","pc":13,"pc_name":"Davanagere","ac":110,"ac_name":"Honnali","booth":191,"booth_name":"Gram Panchayati Office Office Kyasinakere"},"geometry":{"type":"Point","coordinates":[75.75361,14.1354437]}},{"type":"Feature","properties":{"state":"Karnataka","district":14,"district_n":"DAVANGERE","pc":13,"pc_name":"Davanagere","ac":110,"ac_name":"Honnali","booth":194,"booth_name":"Govt Higher Primary School East Wing Hosahalli"},"geometry":{"type":"Point","coordinates":[75.71496,14.12389]}},{"type":"Feature","properties":{"state":"Karnataka","district":14,"district_n":"DAVANGERE","pc":13,"pc_name":"Davanagere","ac":110,"ac_name":"Honnali","booth":154,"booth_name":"Govt Higher Primary School School Hosajoga"},"geometry":{"type":"Point","coordinates":[75.45437,14.1343393]}},{"type":"Feature","properties":{"state":"Karnataka","district":14,"district_n":"DAVANGERE","pc":13,"pc_name":"Davanagere","ac":110,"ac_name":"Honnali","booth":162,"booth_name":"Govt Higher Primary School School Surahonne"},"geometry":{"type":"Point","coordinates":[75.561264,14.1488047]}},{"type":"Feature","properties":{"state":"Karnataka","district":14,"district_n":"DAVANGERE","pc":13,"pc_name":"Davanagere","ac":110,"ac_name":"Honnali","booth":171,"booth_name":"Nadakacheri Nyamathi West Wing Wing Wing Nyamthi"},"geometry":{"type":"Point","coordinates":[75.568985,14.1492805]}},{"type":"Feature","properties":{"state":"Karnataka","district":14,"district_n":"DAVANGERE","pc":13,"pc_name":"Davanagere","ac":110,"ac_name":"Honnali","booth":182,"booth_name":"Govt Lower Primary School School School Bijogatte"},"geometry":{"type":"Point","coordinates":[75.64206,14.14456]}},{"type":"Feature","properties":{"state":"Karnataka","district":14,"district_n":"DAVANGERE","pc":13,"pc_name":"Davanagere","ac":110,"ac_name":"Honnali","booth":85,"booth_name":"Govt Higher Primary School School Kammaragatte"},"geometry":{"type":"Point","coordinates":[75.7078857,14.2241983]}},{"type":"Feature","properties":{"state":"Karnataka","district":14,"district_n":"DAVANGERE","pc":13,"pc_name":"Davanagere","ac":110,"ac_name":"Honnali","booth":28,"booth_name":"Govt Lower Primary School Timmenahalli"},"geometry":{"type":"Point","coordinates":[75.84017,14.3255568]}},{"type":"Feature","properties":{"state":"Karnataka","district":14,"district_n":"DAVANGERE","pc":13,"pc_name":"Davanagere","ac":110,"ac_name":"Honnali","booth":31,"booth_name":"Govt Higher Primary School East East Wing Wing Kulambi"},"geometry":{"type":"Point","coordinates":[75.79629,14.2996016]}},{"type":"Feature","properties":{"state":"Karnataka","district":14,"district_n":"DAVANGERE","pc":13,"pc_name":"Davanagere","ac":110,"ac_name":"Honnali","booth":148,"booth_name":"Govt Higher Primary School South Wing Wing Arundi"},"geometry":{"type":"Point","coordinates":[75.56792,14.1786985]}},{"type":"Feature","properties":{"state":"Karnataka","district":14,"district_n":"DAVANGERE","pc":13,"pc_name":"Davanagere","ac":110,"ac_name":"Honnali","booth":185,"booth_name":"Govt Higher Primary School School Marigondanahalli"},"geometry":{"type":"Point","coordinates":[75.67288,14.12055]}},{"type":"Feature","properties":{"state":"Karnataka","district":14,"district_n":"DAVANGERE","pc":13,"pc_name":"Davanagere","ac":110,"ac_name":"Honnali","booth":63,"booth_name":"Govt Higher Primary School West Wing Kattige"},"geometry":{"type":"Point","coordinates":[75.54322,14.2371368]}},{"type":"Feature","properties":{"state":"Karnataka","district":14,"district_n":"DAVANGERE","pc":13,"pc_name":"Davanagere","ac":110,"ac_name":"Honnali","booth":184,"booth_name":"Govt Higher Primary School East East Wing Wing Wing Kuruva"},"geometry":{"type":"Point","coordinates":[75.62473,14.1501465]}},{"type":"Feature","properties":{"state":"Karnataka","district":14,"district_n":"DAVANGERE","pc":13,"pc_name":"Davanagere","ac":110,"ac_name":"Honnali","booth":186,"booth_name":"Govt Higher Primary School East Wing Wing Kulagatte"},"geometry":{"type":"Point","coordinates":[75.73762,14.1414165]}},{"type":"Feature","properties":{"state":"Karnataka","district":14,"district_n":"DAVANGERE","pc":13,"pc_name":"Davanagere","ac":110,"ac_name":"Honnali","booth":26,"booth_name":"Govt Higher Primary School Muktenahalli"},"geometry":{"type":"Point","coordinates":[75.81521,14.316618]}},{"type":"Feature","properties":{"state":"Karnataka","district":14,"district_n":"DAVANGERE","pc":13,"pc_name":"Davanagere","ac":110,"ac_name":"Honnali","booth":29,"booth_name":"Govt Higher Primary School Kengalahalli"},"geometry":{"type":"Point","coordinates":[75.8151855,14.3166895]}},{"type":"Feature","properties":{"state":"Karnataka","district":14,"district_n":"DAVANGERE","pc":13,"pc_name":"Davanagere","ac":110,"ac_name":"Honnali","booth":32,"booth_name":"Grama Panchayati Office Kulambi"},"geometry":{"type":"Point","coordinates":[75.7962952,14.2995644]}},{"type":"Feature","properties":{"state":"Karnataka","district":14,"district_n":"DAVANGERE","pc":13,"pc_name":"Davanagere","ac":110,"ac_name":"Honnali","booth":151,"booth_name":"Govt Higher Primary School South Wing Wing Yaraganalu"},"geometry":{"type":"Point","coordinates":[75.53513,14.1650257]}},{"type":"Feature","properties":{"state":"Karnataka","district":14,"district_n":"DAVANGERE","pc":13,"pc_name":"Davanagere","ac":110,"ac_name":"Honnali","booth":225,"booth_name":"Govt Higher Primary School South Wing Wing Chiluru"},"geometry":{"type":"Point","coordinates":[75.67963,14.10475]}},{"type":"Feature","properties":{"state":"Karnataka","district":14,"district_n":"DAVANGERE","pc":13,"pc_name":"Davanagere","ac":110,"ac_name":"Honnali","booth":207,"booth_name":"Govt Higher Primary School South Wing Wing Savalanga"},"geometry":{"type":"Point","coordinates":[75.5258,14.1021671]}},{"type":"Feature","properties":{"state":"Karnataka","district":14,"district_n":"DAVANGERE","pc":13,"pc_name":"Davanagere","ac":110,"ac_name":"Honnali","booth":218,"booth_name":"Govt Higher Primary School School Kunkova"},"geometry":{"type":"Point","coordinates":[75.62514,14.1134777]}},{"type":"Feature","properties":{"state":"Karnataka","district":14,"district_n":"DAVANGERE","pc":13,"pc_name":"Davanagere","ac":110,"ac_name":"Honnali","booth":223,"booth_name":"Govt Lower Primary School School Kengatte"},"geometry":{"type":"Point","coordinates":[75.67956,14.1047335]}},{"type":"Feature","properties":{"state":"Karnataka","district":14,"district_n":"DAVANGERE","pc":13,"pc_name":"Davanagere","ac":110,"ac_name":"Honnali","booth":224,"booth_name":"Govt Higher Primary School North Wing Wing Chiluru"},"geometry":{"type":"Point","coordinates":[75.65509,14.1497545]}},{"type":"Feature","properties":{"state":"Karnataka","district":14,"district_n":"DAVANGERE","pc":13,"pc_name":"Davanagere","ac":110,"ac_name":"Honnali","booth":227,"booth_name":"Govt Higher Primary School School Taggihalli"},"geometry":{"type":"Point","coordinates":[75.69971,14.0950623]}},{"type":"Feature","properties":{"state":"Karnataka","district":14,"district_n":"DAVANGERE","pc":13,"pc_name":"Davanagere","ac":110,"ac_name":"Honnali","booth":229,"booth_name":"Govt Lower Primary School Halemalali"},"geometry":{"type":"Point","coordinates":[75.65317,14.2313118]}},{"type":"Feature","properties":{"state":"Karnataka","district":14,"district_n":"DAVANGERE","pc":13,"pc_name":"Davanagere","ac":110,"ac_name":"Honnali","booth":238,"booth_name":"Govt Lower Primary School School Tyagadakatte"},"geometry":{"type":"Point","coordinates":[75.77756,14.1175556]}},{"type":"Feature","properties":{"state":"Karnataka","district":14,"district_n":"DAVANGERE","pc":13,"pc_name":"Davanagere","ac":110,"ac_name":"Honnali","booth":40,"booth_name":"Govt Higher Primary School Kunduru"},"geometry":{"type":"Point","coordinates":[75.78203,14.2861853]}},{"type":"Feature","properties":{"state":"Karnataka","district":14,"district_n":"DAVANGERE","pc":13,"pc_name":"Davanagere","ac":110,"ac_name":"Honnali","booth":43,"booth_name":"Grama Panchayathi Office Konduru"},"geometry":{"type":"Point","coordinates":[75.78208,14.28624]}},{"type":"Feature","properties":{"state":"Karnataka","district":14,"district_n":"DAVANGERE","pc":13,"pc_name":"Davanagere","ac":110,"ac_name":"Honnali","booth":169,"booth_name":"Grama Panchayathi Office Office Nyamathi"},"geometry":{"type":"Point","coordinates":[75.5729,14.1504412]}},{"type":"Feature","properties":{"state":"Karnataka","district":14,"district_n":"DAVANGERE","pc":13,"pc_name":"Davanagere","ac":110,"ac_name":"Honnali","booth":83,"booth_name":"Govt Higher Primary School School Gollarahalli"},"geometry":{"type":"Point","coordinates":[75.66916,14.2422171]}},{"type":"Feature","properties":{"state":"Karnataka","district":14,"district_n":"DAVANGERE","pc":13,"pc_name":"Davanagere","ac":110,"ac_name":"Honnali","booth":92,"booth_name":"Govt Higher Primary School School Bidaragadde"},"geometry":{"type":"Point","coordinates":[75.68506,14.2246094]}},{"type":"Feature","properties":{"state":"Karnataka","district":14,"district_n":"DAVANGERE","pc":13,"pc_name":"Davanagere","ac":110,"ac_name":"Honnali","booth":235,"booth_name":"Govt Lower primary School, Channamumbapura"},"geometry":{"type":"Point","coordinates":[75.7210846,14.2001791]}},{"type":"Feature","properties":{"state":"Karnataka","district":14,"district_n":"DAVANGERE","pc":13,"pc_name":"Davanagere","ac":110,"ac_name":"Honnali","booth":206,"booth_name":"Govt Lower primary school, Salabalu"},"geometry":{"type":"Point","coordinates":[75.425705,14.1121054]}},{"type":"Feature","properties":{"state":"Karnataka","district":14,"district_n":"DAVANGERE","pc":13,"pc_name":"Davanagere","ac":110,"ac_name":"Honnali","booth":86,"booth_name":"Govt Lower Primary School Anjaneyapura"},"geometry":{"type":"Point","coordinates":[75.71251,14.2293854]}},{"type":"Feature","properties":{"state":"Karnataka","district":14,"district_n":"DAVANGERE","pc":13,"pc_name":"Davanagere","ac":110,"ac_name":"Honnali","booth":61,"booth_name":"Govt Higher Primary School,room No 2, 2, Madenahalli 2"},"geometry":{"type":"Point","coordinates":[75.5571747,14.234889]}},{"type":"Feature","properties":{"state":"Karnataka","district":14,"district_n":"DAVANGERE","pc":13,"pc_name":"Davanagere","ac":110,"ac_name":"Honnali","booth":69,"booth_name":"Sri Channa Mallikarjuna Higher Primary School School Honnali"},"geometry":{"type":"Point","coordinates":[75.64591,14.24035]}},{"type":"Feature","properties":{"state":"Karnataka","district":14,"district_n":"DAVANGERE","pc":13,"pc_name":"Davanagere","ac":110,"ac_name":"Honnali","booth":77,"booth_name":"Taluk Panchayat Samithi Office Office Honnali"},"geometry":{"type":"Point","coordinates":[75.64858,14.2393808]}},{"type":"Feature","properties":{"state":"Karnataka","district":14,"district_n":"DAVANGERE","pc":13,"pc_name":"Davanagere","ac":110,"ac_name":"Honnali","booth":78,"booth_name":"Swami Vivekananda English Medium School Honnali"},"geometry":{"type":"Point","coordinates":[75.64821,14.2439613]}},{"type":"Feature","properties":{"state":"Karnataka","district":14,"district_n":"DAVANGERE","pc":13,"pc_name":"Davanagere","ac":110,"ac_name":"Honnali","booth":80,"booth_name":"Swami Vivekananda English Medium School School Honnali"},"geometry":{"type":"Point","coordinates":[75.64821,14.2439613]}},{"type":"Feature","properties":{"state":"Karnataka","district":14,"district_n":"DAVANGERE","pc":13,"pc_name":"Davanagere","ac":110,"ac_name":"Honnali","booth":120,"booth_name":"Govt Higher Primary School School School Arabagatte"},"geometry":{"type":"Point","coordinates":[75.62825,14.1952391]}},{"type":"Feature","properties":{"state":"Karnataka","district":14,"district_n":"DAVANGERE","pc":13,"pc_name":"Davanagere","ac":110,"ac_name":"Honnali","booth":121,"booth_name":"Govt Higher Primary School School School Haralahalli"},"geometry":{"type":"Point","coordinates":[75.6618958,14.1920328]}},{"type":"Feature","properties":{"state":"Karnataka","district":14,"district_n":"DAVANGERE","pc":13,"pc_name":"Davanagere","ac":110,"ac_name":"Honnali","booth":123,"booth_name":"Govt Higher Primary School School Hirebasuru"},"geometry":{"type":"Point","coordinates":[75.6797,14.1916]}},{"type":"Feature","properties":{"state":"Karnataka","district":14,"district_n":"DAVANGERE","pc":13,"pc_name":"Davanagere","ac":110,"ac_name":"Honnali","booth":141,"booth_name":"Govt Higher Primary School School Rampura 2, Room No 2"},"geometry":{"type":"Point","coordinates":[75.6875153,14.1584682]}},{"type":"Feature","properties":{"state":"Karnataka","district":14,"district_n":"DAVANGERE","pc":13,"pc_name":"Davanagere","ac":110,"ac_name":"Honnali","booth":137,"booth_name":"Govt Lower Primary School Inur"},"geometry":{"type":"Point","coordinates":[75.70633,14.1642771]}},{"type":"Feature","properties":{"state":"Karnataka","district":14,"district_n":"DAVANGERE","pc":13,"pc_name":"Davanagere","ac":110,"ac_name":"Honnali","booth":135,"booth_name":"Govt Higher Primary Primary School Sasvehalli 5, Room No 2"},"geometry":{"type":"Point","coordinates":[75.71295,14.1533337]}},{"type":"Feature","properties":{"state":"Karnataka","district":14,"district_n":"DAVANGERE","pc":13,"pc_name":"Davanagere","ac":110,"ac_name":"Honnali","booth":124,"booth_name":"Govt Lower Primary School, School, Hotyapura"},"geometry":{"type":"Point","coordinates":[75.68579,14.1793985]}},{"type":"Feature","properties":{"state":"Karnataka","district":14,"district_n":"DAVANGERE","pc":13,"pc_name":"Davanagere","ac":110,"ac_name":"Honnali","booth":106,"booth_name":"Govt Lower Primary School School 1)guddehalli Thanda Thanda 2) Naraginakere"},"geometry":{"type":"Point","coordinates":[75.50177,14.2043715]}},{"type":"Feature","properties":{"state":"Karnataka","district":14,"district_n":"DAVANGERE","pc":13,"pc_name":"Davanagere","ac":110,"ac_name":"Honnali","booth":232,"booth_name":"Govt Higher Primary School ,room No 2, Hanagavadi 2,"},"geometry":{"type":"Point","coordinates":[75.72091,14.0905848]}},{"type":"Feature","properties":{"state":"Karnataka","district":14,"district_n":"DAVANGERE","pc":13,"pc_name":"Davanagere","ac":110,"ac_name":"Honnali","booth":212,"booth_name":"Govt Higher Primary School, Room No 2 2 Chatnahalli 2, nahalli 2,"},"geometry":{"type":"Point","coordinates":[75.56965,14.1044931]}},{"type":"Feature","properties":{"state":"Karnataka","district":14,"district_n":"DAVANGERE","pc":13,"pc_name":"Davanagere","ac":110,"ac_name":"Honnali","booth":55,"booth_name":"Govt Lower Primary School , Balleshwara"},"geometry":{"type":"Point","coordinates":[75.6065,14.2624321]}},{"type":"Feature","properties":{"state":"Karnataka","district":14,"district_n":"DAVANGERE","pc":13,"pc_name":"Davanagere","ac":110,"ac_name":"Honnali","booth":41,"booth_name":"Govt Higher Primary School,room No 2 Kunduru 2"},"geometry":{"type":"Point","coordinates":[75.78204,14.28622]}},{"type":"Feature","properties":{"state":"Karnataka","district":14,"district_n":"DAVANGERE","pc":13,"pc_name":"Davanagere","ac":110,"ac_name":"Honnali","booth":35,"booth_name":"Govt Higher Primary School,room No 2 2 Nelahonne 2,"},"geometry":{"type":"Point","coordinates":[75.7976151,14.2538]}},{"type":"Feature","properties":{"state":"Karnataka","district":14,"district_n":"DAVANGERE","pc":13,"pc_name":"Davanagere","ac":110,"ac_name":"Honnali","booth":20,"booth_name":"Govt Higher Primary School,room No2, Yakkanahalli 2"},"geometry":{"type":"Point","coordinates":[75.76675,14.297884]}},{"type":"Feature","properties":{"state":"Karnataka","district":14,"district_n":"DAVANGERE","pc":13,"pc_name":"Davanagere","ac":110,"ac_name":"Honnali","booth":18,"booth_name":"Govt lower Primary School sevalalnagra"},"geometry":{"type":"Point","coordinates":[75.74456,14.2833519]}},{"type":"Feature","properties":{"state":"Karnataka","district":14,"district_n":"DAVANGERE","pc":13,"pc_name":"Davanagere","ac":110,"ac_name":"Honnali","booth":12,"booth_name":"Govt Higher Primary School Arakere Room No No 2"},"geometry":{"type":"Point","coordinates":[75.69265,14.2754288]}},{"type":"Feature","properties":{"state":"Karnataka","district":14,"district_n":"DAVANGERE","pc":13,"pc_name":"Davanagere","ac":110,"ac_name":"Honnali","booth":177,"booth_name":"Govt Higher Primary School School Danihalli"},"geometry":{"type":"Point","coordinates":[75.59596,14.1641493]}},{"type":"Feature","properties":{"state":"Karnataka","district":14,"district_n":"DAVANGERE","pc":13,"pc_name":"Davanagere","ac":110,"ac_name":"Honnali","booth":178,"booth_name":"Govt Higher Primary School School School Kodachagondanahalli"},"geometry":{"type":"Point","coordinates":[75.60518,14.15253]}},{"type":"Feature","properties":{"state":"Karnataka","district":14,"district_n":"DAVANGERE","pc":13,"pc_name":"Davanagere","ac":110,"ac_name":"Honnali","booth":203,"booth_name":"Govt Higher Primary School School Doddetinahalli"},"geometry":{"type":"Point","coordinates":[75.5940247,14.1389036]}},{"type":"Feature","properties":{"state":"Karnataka","district":14,"district_n":"DAVANGERE","pc":13,"pc_name":"Davanagere","ac":110,"ac_name":"Honnali","booth":215,"booth_name":"Govt Higher Primary School School Ganjeenahalli"},"geometry":{"type":"Point","coordinates":[75.57031,14.1160021]}},{"type":"Feature","properties":{"state":"Karnataka","district":14,"district_n":"DAVANGERE","pc":13,"pc_name":"Davanagere","ac":110,"ac_name":"Honnali","booth":52,"booth_name":"Govt Higher Primary School School Hanumasagra"},"geometry":{"type":"Point","coordinates":[75.6264954,14.2824326]}},{"type":"Feature","properties":{"state":"Karnataka","district":14,"district_n":"DAVANGERE","pc":13,"pc_name":"Davanagere","ac":110,"ac_name":"Honnali","booth":54,"booth_name":"Govt Higher Primary School School Konayakanahalli"},"geometry":{"type":"Point","coordinates":[75.6067,14.2635]}},{"type":"Feature","properties":{"state":"Karnataka","district":14,"district_n":"DAVANGERE","pc":13,"pc_name":"Davanagere","ac":110,"ac_name":"Honnali","booth":221,"booth_name":"Govt Higher Primary School School Dodderi"},"geometry":{"type":"Point","coordinates":[75.67722,14.0929852]}},{"type":"Feature","properties":{"state":"Karnataka","district":14,"district_n":"DAVANGERE","pc":13,"pc_name":"Davanagere","ac":110,"ac_name":"Honnali","booth":226,"booth_name":"Govt Higher Primary Urdu School Muslim Colony Colony Chiluru"},"geometry":{"type":"Point","coordinates":[75.67925,14.105196]}},{"type":"Feature","properties":{"state":"Karnataka","district":14,"district_n":"DAVANGERE","pc":13,"pc_name":"Davanagere","ac":110,"ac_name":"Honnali","booth":149,"booth_name":"Govt Higher Primary School North Wing Wing Arundi"},"geometry":{"type":"Point","coordinates":[75.56803,14.178936]}},{"type":"Feature","properties":{"state":"Karnataka","district":14,"district_n":"DAVANGERE","pc":13,"pc_name":"Davanagere","ac":110,"ac_name":"Honnali","booth":152,"booth_name":"Govt Higher Primary School North Wing Wing Yaraganalu"},"geometry":{"type":"Point","coordinates":[75.53496,14.1649027]}},{"type":"Feature","properties":{"state":"Karnataka","district":14,"district_n":"DAVANGERE","pc":13,"pc_name":"Davanagere","ac":110,"ac_name":"Honnali","booth":204,"booth_name":"Govt Higher Higher Primary School School Kodikoppa u 2, Chatnahalli 2, nahalli 2,"},"geometry":{"type":"Point","coordinates":[75.5722961,14.1390285]}},{"type":"Feature","properties":{"state":"Karnataka","district":14,"district_n":"DAVANGERE","pc":13,"pc_name":"Davanagere","ac":110,"ac_name":"Honnali","booth":187,"booth_name":"Grama Panchayth Office, Kulagatte 2,"},"geometry":{"type":"Point","coordinates":[75.7375946,14.141346]}},{"type":"Feature","properties":{"state":"Karnataka","district":14,"district_n":"DAVANGERE","pc":13,"pc_name":"Davanagere","ac":110,"ac_name":"Honnali","booth":181,"booth_name":"Govt Lower Primary School, School, Kankanahalli"},"geometry":{"type":"Point","coordinates":[75.62962,14.1408358]}},{"type":"Feature","properties":{"state":"Karnataka","district":14,"district_n":"DAVANGERE","pc":13,"pc_name":"Davanagere","ac":110,"ac_name":"Honnali","booth":172,"booth_name":"Govt Govt Girls High School, Room No 3 3 Nyamthi 6,"},"geometry":{"type":"Point","coordinates":[75.56564,14.1497135]}},{"type":"Feature","properties":{"state":"Karnataka","district":14,"district_n":"DAVANGERE","pc":13,"pc_name":"Davanagere","ac":110,"ac_name":"Honnali","booth":166,"booth_name":"Govt Higher Primary School, Room No 2 (shanthinagara)surahonne"},"geometry":{"type":"Point","coordinates":[75.55505,14.1434813]}},{"type":"Feature","properties":{"state":"Karnataka","district":14,"district_n":"DAVANGERE","pc":13,"pc_name":"Davanagere","ac":110,"ac_name":"Honnali","booth":97,"booth_name":"Govt Govt Higher Primary School, T B B Ciorcle 1) Devanyakanahalli 3 3 3 3 3 3 3 3 3 3 2)maragondanahalli (b)"},"geometry":{"type":"Point","coordinates":[75.654686,14.2344742]}},{"type":"Feature","properties":{"state":"Karnataka","district":14,"district_n":"DAVANGERE","pc":13,"pc_name":"Davanagere","ac":110,"ac_name":"Honnali","booth":89,"booth_name":"Sri Vinayaka High School, Room No 2, 2, Benakanahalli 4"},"geometry":{"type":"Point","coordinates":[75.71319,14.2124243]}},{"type":"Feature","properties":{"state":"Karnataka","district":14,"district_n":"DAVANGERE","pc":13,"pc_name":"Davanagere","ac":110,"ac_name":"Honnali","booth":6,"booth_name":"Govt Higher Primary School Chikkagonigere"},"geometry":{"type":"Point","coordinates":[75.64113,14.3077326]}},{"type":"Feature","properties":{"state":"Karnataka","district":14,"district_n":"DAVANGERE","pc":13,"pc_name":"Davanagere","ac":110,"ac_name":"Honnali","booth":9,"booth_name":"Govt Lower Primary School Kotemalluru"},"geometry":{"type":"Point","coordinates":[75.6498947,14.2828426]}},{"type":"Feature","properties":{"state":"Karnataka","district":14,"district_n":"DAVANGERE","pc":13,"pc_name":"Davanagere","ac":110,"ac_name":"Honnali","booth":11,"booth_name":"Govt Higher Primary School Arakere"},"geometry":{"type":"Point","coordinates":[75.69291,14.2753716]}},{"type":"Feature","properties":{"state":"Karnataka","district":14,"district_n":"DAVANGERE","pc":13,"pc_name":"Davanagere","ac":110,"ac_name":"Honnali","booth":17,"booth_name":"Govt Higher Primary School Timlapura"},"geometry":{"type":"Point","coordinates":[75.78304,14.2856035]}},{"type":"Feature","properties":{"state":"Karnataka","district":14,"district_n":"DAVANGERE","pc":13,"pc_name":"Davanagere","ac":110,"ac_name":"Honnali","booth":23,"booth_name":"Govt Higher Primary School Yarechikkanahalli"},"geometry":{"type":"Point","coordinates":[75.79738,14.3182]}},{"type":"Feature","properties":{"state":"Karnataka","district":14,"district_n":"DAVANGERE","pc":13,"pc_name":"Davanagere","ac":110,"ac_name":"Honnali","booth":34,"booth_name":"Govt Higher Primary School School Nelahonne"},"geometry":{"type":"Point","coordinates":[75.79775,14.2537737]}},{"type":"Feature","properties":{"state":"Karnataka","district":14,"district_n":"DAVANGERE","pc":13,"pc_name":"Davanagere","ac":110,"ac_name":"Honnali","booth":38,"booth_name":"Govt Higher Primary School South Wing Kumbaluru"},"geometry":{"type":"Point","coordinates":[75.79758,14.253767]}},{"type":"Feature","properties":{"state":"Karnataka","district":14,"district_n":"DAVANGERE","pc":13,"pc_name":"Davanagere","ac":110,"ac_name":"Honnali","booth":46,"booth_name":"Govt Higher Primary School Neralagundi"},"geometry":{"type":"Point","coordinates":[75.75893,14.2550421]}},{"type":"Feature","properties":{"state":"Karnataka","district":14,"district_n":"DAVANGERE","pc":13,"pc_name":"Davanagere","ac":110,"ac_name":"Honnali","booth":49,"booth_name":"Govt Higher Primary School North Wing Belimalluru"},"geometry":{"type":"Point","coordinates":[75.6525955,14.2687035]}},{"type":"Feature","properties":{"state":"Karnataka","district":14,"district_n":"DAVANGERE","pc":13,"pc_name":"Davanagere","ac":110,"ac_name":"Honnali","booth":57,"booth_name":"Govt Lower Primary School School Somanamallapur"},"geometry":{"type":"Point","coordinates":[75.59478,14.2582045]}},{"type":"Feature","properties":{"state":"Karnataka","district":14,"district_n":"DAVANGERE","pc":13,"pc_name":"Davanagere","ac":110,"ac_name":"Honnali","booth":58,"booth_name":"Govt Higher Primary School H Gopagondanahalli"},"geometry":{"type":"Point","coordinates":[75.61461,14.2556334]}},{"type":"Feature","properties":{"state":"Karnataka","district":14,"district_n":"DAVANGERE","pc":13,"pc_name":"Davanagere","ac":110,"ac_name":"Honnali","booth":60,"booth_name":"Govt Higher Primary School School Madenahalli"},"geometry":{"type":"Point","coordinates":[75.5575256,14.2348089]}},{"type":"Feature","properties":{"state":"Karnataka","district":14,"district_n":"DAVANGERE","pc":13,"pc_name":"Davanagere","ac":110,"ac_name":"Honnali","booth":66,"booth_name":"Bharatiya Vidya Samsthe Honnali South Wing"},"geometry":{"type":"Point","coordinates":[75.65099,14.2387724]}},{"type":"Feature","properties":{"state":"Karnataka","district":14,"district_n":"DAVANGERE","pc":13,"pc_name":"Davanagere","ac":110,"ac_name":"Honnali","booth":74,"booth_name":"Stella Marys Higher Primary School Durgigudi West Wing Wing Honnali"},"geometry":{"type":"Point","coordinates":[75.64037,14.2365608]}},{"type":"Feature","properties":{"state":"Karnataka","district":14,"district_n":"DAVANGERE","pc":13,"pc_name":"Davanagere","ac":110,"ac_name":"Honnali","booth":75,"booth_name":"Govt Higher Primary School Tungabhadra Badavane Badavane Honnali"},"geometry":{"type":"Point","coordinates":[75.6330948,14.2367954]}},{"type":"Feature","properties":{"state":"Karnataka","district":14,"district_n":"DAVANGERE","pc":13,"pc_name":"Davanagere","ac":110,"ac_name":"Honnali","booth":81,"booth_name":"Sri Haladamma Devi Girls High School East Wing Wing Honnali"},"geometry":{"type":"Point","coordinates":[75.64381,14.2349072]}},{"type":"Feature","properties":{"state":"Karnataka","district":14,"district_n":"DAVANGERE","pc":13,"pc_name":"Davanagere","ac":110,"ac_name":"Honnali","booth":95,"booth_name":"Govt Junior College North Wing Wing Devanakanahalli"},"geometry":{"type":"Point","coordinates":[75.65545,14.2330685]}},{"type":"Feature","properties":{"state":"Karnataka","district":14,"district_n":"DAVANGERE","pc":13,"pc_name":"Davanagere","ac":110,"ac_name":"Honnali","booth":98,"booth_name":"Govt Higher Primary School School Sunkadakatte"},"geometry":{"type":"Point","coordinates":[75.64784,14.2176256]}},{"type":"Feature","properties":{"state":"Karnataka","district":14,"district_n":"DAVANGERE","pc":13,"pc_name":"Davanagere","ac":110,"ac_name":"Honnali","booth":100,"booth_name":"Govt Higher Primary School H Kadadakatte"},"geometry":{"type":"Point","coordinates":[75.6489944,14.2392159]}},{"type":"Feature","properties":{"state":"Karnataka","district":14,"district_n":"DAVANGERE","pc":13,"pc_name":"Davanagere","ac":110,"ac_name":"Honnali","booth":115,"booth_name":"Govt Higher Primary School West Wing Wing Soraturu"},"geometry":{"type":"Point","coordinates":[75.5965958,14.2183247]}},{"type":"Feature","properties":{"state":"Karnataka","district":14,"district_n":"DAVANGERE","pc":13,"pc_name":"Davanagere","ac":110,"ac_name":"Honnali","booth":117,"booth_name":"Govt Lower Primary School School Tuggalahalli"},"geometry":{"type":"Point","coordinates":[75.5891342,14.212533]}},{"type":"Feature","properties":{"state":"Karnataka","district":14,"district_n":"DAVANGERE","pc":13,"pc_name":"Davanagere","ac":110,"ac_name":"Honnali","booth":118,"booth_name":"Govt High School School Arabagatte"},"geometry":{"type":"Point","coordinates":[75.6301956,14.1951246]}},{"type":"Feature","properties":{"state":"Karnataka","district":14,"district_n":"DAVANGERE","pc":13,"pc_name":"Davanagere","ac":110,"ac_name":"Honnali","booth":129,"booth_name":"Govt Higher Primary School School Vijayapura"},"geometry":{"type":"Point","coordinates":[75.7097,14.1969576]}},{"type":"Feature","properties":{"state":"Karnataka","district":14,"district_n":"DAVANGERE","pc":13,"pc_name":"Davanagere","ac":110,"ac_name":"Honnali","booth":132,"booth_name":"Govt Higher Primary Urdu School School School North Wing Wing Sasvehalli"},"geometry":{"type":"Point","coordinates":[75.7129745,14.1533537]}},{"type":"Feature","properties":{"state":"Karnataka","district":14,"district_n":"DAVANGERE","pc":13,"pc_name":"Davanagere","ac":110,"ac_name":"Honnali","booth":143,"booth_name":"Govt High School School Govinakovi"},"geometry":{"type":"Point","coordinates":[75.63195,14.1687508]}},{"type":"Feature","properties":{"state":"Karnataka","district":14,"district_n":"DAVANGERE","pc":13,"pc_name":"Davanagere","ac":110,"ac_name":"Honnali","booth":144,"booth_name":"Govt Higher Primary School East Wing Wing Basavanahalli"},"geometry":{"type":"Point","coordinates":[75.6320343,14.1689053]}},{"type":"Feature","properties":{"state":"Karnataka","district":14,"district_n":"DAVANGERE","pc":13,"pc_name":"Davanagere","ac":110,"ac_name":"Honnali","booth":146,"booth_name":"Govt Higher Primary School School Madanabavi"},"geometry":{"type":"Point","coordinates":[75.60959,14.1821842]}},{"type":"Feature","properties":{"state":"Karnataka","district":14,"district_n":"DAVANGERE","pc":13,"pc_name":"Davanagere","ac":110,"ac_name":"Honnali","booth":138,"booth_name":"Govt Higher Primary School School Hanumanahalli"},"geometry":{"type":"Point","coordinates":[75.729805,14.155201]}},{"type":"Feature","properties":{"state":"Karnataka","district":14,"district_n":"DAVANGERE","pc":13,"pc_name":"Davanagere","ac":110,"ac_name":"Honnali","booth":140,"booth_name":"Govt Higher Primary School School Rampura"},"geometry":{"type":"Point","coordinates":[75.6875458,14.1584663]}},{"type":"Feature","properties":{"state":"Karnataka","district":14,"district_n":"DAVANGERE","pc":13,"pc_name":"Davanagere","ac":110,"ac_name":"Honnali","booth":155,"booth_name":"Govt Higher Primary School School Halejoga"},"geometry":{"type":"Point","coordinates":[75.45403,14.1409369]}},{"type":"Feature","properties":{"state":"Karnataka","district":14,"district_n":"DAVANGERE","pc":13,"pc_name":"Davanagere","ac":110,"ac_name":"Honnali","booth":157,"booth_name":"Govt Higher Primary School School Suragondanakoppa"},"geometry":{"type":"Point","coordinates":[75.4613647,14.1139021]}},{"type":"Feature","properties":{"state":"Karnataka","district":14,"district_n":"DAVANGERE","pc":13,"pc_name":"Davanagere","ac":110,"ac_name":"Honnali","booth":158,"booth_name":"Govt Higher Primary School School Chinnikatte"},"geometry":{"type":"Point","coordinates":[75.48966,14.1214581]}},{"type":"Feature","properties":{"state":"Karnataka","district":14,"district_n":"DAVANGERE","pc":13,"pc_name":"Davanagere","ac":110,"ac_name":"Honnali","booth":160,"booth_name":"Govt Lower Primary School School Kodatalu"},"geometry":{"type":"Point","coordinates":[75.52459,14.11905]}},{"type":"Feature","properties":{"state":"Karnataka","district":14,"district_n":"DAVANGERE","pc":13,"pc_name":"Davanagere","ac":110,"ac_name":"Honnali","booth":161,"booth_name":"Govt Lower Primary School School Madapura"},"geometry":{"type":"Point","coordinates":[75.50678,14.1207209]}},{"type":"Feature","properties":{"state":"Karnataka","district":14,"district_n":"DAVANGERE","pc":13,"pc_name":"Davanagere","ac":110,"ac_name":"Honnali","booth":163,"booth_name":"Govt Higher Primary School School Surahonne"},"geometry":{"type":"Point","coordinates":[75.56098,14.1487761]}},{"type":"Feature","properties":{"state":"Karnataka","district":14,"district_n":"DAVANGERE","pc":13,"pc_name":"Davanagere","ac":110,"ac_name":"Honnali","booth":164,"booth_name":"Govt Higher Primary School School Surahonne"},"geometry":{"type":"Point","coordinates":[75.56125,14.1488028]}},{"type":"Feature","properties":{"state":"Karnataka","district":14,"district_n":"DAVANGERE","pc":13,"pc_name":"Davanagere","ac":110,"ac_name":"Honnali","booth":175,"booth_name":"Govt Higher Primary Boys School South Wing Wing Nyamathi"},"geometry":{"type":"Point","coordinates":[75.573494,14.1455355]}},{"type":"Feature","properties":{"state":"Karnataka","district":14,"district_n":"DAVANGERE","pc":13,"pc_name":"Davanagere","ac":110,"ac_name":"Honnali","booth":180,"booth_name":"Govt Higher Primary School School Ganganakote"},"geometry":{"type":"Point","coordinates":[75.62964,14.1408749]}},{"type":"Feature","properties":{"state":"Karnataka","district":14,"district_n":"DAVANGERE","pc":13,"pc_name":"Davanagere","ac":110,"ac_name":"Honnali","booth":183,"booth_name":"Govt Higher Primary School West Wing Wing Wing Kuruva"},"geometry":{"type":"Point","coordinates":[75.63117,14.1701632]}},{"type":"Feature","properties":{"state":"Karnataka","district":14,"district_n":"DAVANGERE","pc":13,"pc_name":"Davanagere","ac":110,"ac_name":"Honnali","booth":189,"booth_name":"Maruthi High School School Kulagatte"},"geometry":{"type":"Point","coordinates":[75.74226,14.1433277]}},{"type":"Feature","properties":{"state":"Karnataka","district":14,"district_n":"DAVANGERE","pc":13,"pc_name":"Davanagere","ac":110,"ac_name":"Honnali","booth":195,"booth_name":"Govt Higher Primary School West Wing Wing Hosahalli"},"geometry":{"type":"Point","coordinates":[75.7149658,14.12385]}},{"type":"Feature","properties":{"state":"Karnataka","district":14,"district_n":"DAVANGERE","pc":13,"pc_name":"Davanagere","ac":110,"ac_name":"Honnali","booth":198,"booth_name":"Govt Higher Primary School School Kotehal"},"geometry":{"type":"Point","coordinates":[75.6728439,14.1203594]}},{"type":"Feature","properties":{"state":"Karnataka","district":14,"district_n":"DAVANGERE","pc":13,"pc_name":"Davanagere","ac":110,"ac_name":"Honnali","booth":192,"booth_name":"Govt Lower Primary School School School Chilapura"},"geometry":{"type":"Point","coordinates":[75.7732544,14.1266241]}},{"type":"Feature","properties":{"state":"Karnataka","district":14,"district_n":"DAVANGERE","pc":13,"pc_name":"Davanagere","ac":110,"ac_name":"Honnali","booth":201,"booth_name":"Govt Higher Primary School Odeyarahattur"},"geometry":{"type":"Point","coordinates":[75.63,14.1228695]}}]}