{"type":"FeatureCollection","features":[{"type":"Feature","properties":{"state":"Karnataka","district":18,"district_n":"TUMKUR","pc":19,"pc_name":"Tumkur","ac":129,"ac_name":"Tiptur","booth":200,"booth_name":"Government Lower Primary School"},"geometry":{"type":"Point","coordinates":[76.70698,13.3102226]}},{"type":"Feature","properties":{"state":"Karnataka","district":18,"district_n":"TUMKUR","pc":19,"pc_name":"Tumkur","ac":129,"ac_name":"Tiptur","booth":201,"booth_name":"Government Higher Primary School"},"geometry":{"type":"Point","coordinates":[76.65922,13.2124557]}},{"type":"Feature","properties":{"state":"Karnataka","district":18,"district_n":"TUMKUR","pc":19,"pc_name":"Tumkur","ac":129,"ac_name":"Tiptur","booth":203,"booth_name":"Government Girls Higher Primary School (right Side)"},"geometry":{"type":"Point","coordinates":[76.55153,13.1721544]}},{"type":"Feature","properties":{"state":"Karnataka","district":18,"district_n":"TUMKUR","pc":19,"pc_name":"Tumkur","ac":129,"ac_name":"Tiptur","booth":204,"booth_name":"Government Girls Higher Primary School (left Side)"},"geometry":{"type":"Point","coordinates":[76.5518646,13.1785936]}},{"type":"Feature","properties":{"state":"Karnataka","district":18,"district_n":"TUMKUR","pc":19,"pc_name":"Tumkur","ac":129,"ac_name":"Tiptur","booth":206,"booth_name":"Government Model Higher Primary School (west side)"},"geometry":{"type":"Point","coordinates":[76.5518646,13.1785936]}},{"type":"Feature","properties":{"state":"Karnataka","district":18,"district_n":"TUMKUR","pc":19,"pc_name":"Tumkur","ac":129,"ac_name":"Tiptur","booth":207,"booth_name":"Government Higher Primary School"},"geometry":{"type":"Point","coordinates":[76.5512,13.1657152]}},{"type":"Feature","properties":{"state":"Karnataka","district":18,"district_n":"TUMKUR","pc":19,"pc_name":"Tumkur","ac":129,"ac_name":"Tiptur","booth":209,"booth_name":"Government Higher Primary School"},"geometry":{"type":"Point","coordinates":[76.50059,13.12157]}},{"type":"Feature","properties":{"state":"Karnataka","district":18,"district_n":"TUMKUR","pc":19,"pc_name":"Tumkur","ac":129,"ac_name":"Tiptur","booth":212,"booth_name":"Government Higher Primary School"},"geometry":{"type":"Point","coordinates":[76.53294,13.1704845]}},{"type":"Feature","properties":{"state":"Karnataka","district":18,"district_n":"TUMKUR","pc":19,"pc_name":"Tumkur","ac":129,"ac_name":"Tiptur","booth":215,"booth_name":"Government Lower Primary School"},"geometry":{"type":"Point","coordinates":[76.5799255,13.1694965]}},{"type":"Feature","properties":{"state":"Karnataka","district":18,"district_n":"TUMKUR","pc":19,"pc_name":"Tumkur","ac":129,"ac_name":"Tiptur","booth":218,"booth_name":"Government High School (south Wing)"},"geometry":{"type":"Point","coordinates":[76.5799255,13.1694965]}},{"type":"Feature","properties":{"state":"Karnataka","district":18,"district_n":"TUMKUR","pc":19,"pc_name":"Tumkur","ac":129,"ac_name":"Tiptur","booth":3,"booth_name":"Government Lower Primary School"},"geometry":{"type":"Point","coordinates":[76.46725,13.4094267]}},{"type":"Feature","properties":{"state":"Karnataka","district":18,"district_n":"TUMKUR","pc":19,"pc_name":"Tumkur","ac":129,"ac_name":"Tiptur","booth":6,"booth_name":"Government Lower Primary School"},"geometry":{"type":"Point","coordinates":[76.3655243,13.3902779]}},{"type":"Feature","properties":{"state":"Karnataka","district":18,"district_n":"TUMKUR","pc":19,"pc_name":"Tumkur","ac":129,"ac_name":"Tiptur","booth":9,"booth_name":"Government Lower Primary School"},"geometry":{"type":"Point","coordinates":[76.3830948,13.3119926]}},{"type":"Feature","properties":{"state":"Karnataka","district":18,"district_n":"TUMKUR","pc":19,"pc_name":"Tumkur","ac":129,"ac_name":"Tiptur","booth":11,"booth_name":"Government Model Higher Primary School (north Wing)"},"geometry":{"type":"Point","coordinates":[76.35891,13.3268671]}},{"type":"Feature","properties":{"state":"Karnataka","district":18,"district_n":"TUMKUR","pc":19,"pc_name":"Tumkur","ac":129,"ac_name":"Tiptur","booth":12,"booth_name":"Government Model Higher Primary School (south Side)"},"geometry":{"type":"Point","coordinates":[76.38908,13.3268671]}},{"type":"Feature","properties":{"state":"Karnataka","district":18,"district_n":"TUMKUR","pc":19,"pc_name":"Tumkur","ac":129,"ac_name":"Tiptur","booth":14,"booth_name":"Government P U U College (north Side)"},"geometry":{"type":"Point","coordinates":[76.38908,13.3268671]}},{"type":"Feature","properties":{"state":"Karnataka","district":18,"district_n":"TUMKUR","pc":19,"pc_name":"Tumkur","ac":129,"ac_name":"Tiptur","booth":15,"booth_name":"Gramapanchayat Office Building"},"geometry":{"type":"Point","coordinates":[76.3920746,13.3398581]}},{"type":"Feature","properties":{"state":"Karnataka","district":18,"district_n":"TUMKUR","pc":19,"pc_name":"Tumkur","ac":129,"ac_name":"Tiptur","booth":26,"booth_name":"Government Higher Primary School"},"geometry":{"type":"Point","coordinates":[76.36841,13.2744007]}},{"type":"Feature","properties":{"state":"Karnataka","district":18,"district_n":"TUMKUR","pc":19,"pc_name":"Tumkur","ac":129,"ac_name":"Tiptur","booth":29,"booth_name":"Government Model Higher Primary School ( North Side )"},"geometry":{"type":"Point","coordinates":[76.47705,13.3461065]}},{"type":"Feature","properties":{"state":"Karnataka","district":18,"district_n":"TUMKUR","pc":19,"pc_name":"Tumkur","ac":129,"ac_name":"Tiptur","booth":32,"booth_name":"Government Higher Primary School"},"geometry":{"type":"Point","coordinates":[76.4191055,13.3535337]}},{"type":"Feature","properties":{"state":"Karnataka","district":18,"district_n":"TUMKUR","pc":19,"pc_name":"Tumkur","ac":129,"ac_name":"Tiptur","booth":89,"booth_name":"Akkamahadevi ( inside the park ) Gadhingara"},"geometry":{"type":"Point","coordinates":[76.47141,13.2559824]}},{"type":"Feature","properties":{"state":"Karnataka","district":18,"district_n":"TUMKUR","pc":19,"pc_name":"Tumkur","ac":129,"ac_name":"Tiptur","booth":94,"booth_name":"Udaya Bharati Women First Grade College New Building Gandhinagara (west Wing)"},"geometry":{"type":"Point","coordinates":[76.47141,13.2559824]}},{"type":"Feature","properties":{"state":"Karnataka","district":18,"district_n":"TUMKUR","pc":19,"pc_name":"Tumkur","ac":129,"ac_name":"Tiptur","booth":101,"booth_name":"Governmentkannada Model Higher Primary School (west Side) Gandhinagara"},"geometry":{"type":"Point","coordinates":[76.47141,13.2559824]}},{"type":"Feature","properties":{"state":"Karnataka","district":18,"district_n":"TUMKUR","pc":19,"pc_name":"Tumkur","ac":129,"ac_name":"Tiptur","booth":103,"booth_name":"Government Urdu Model Higher Primary School ( South Side) New Building Gandhinagar"},"geometry":{"type":"Point","coordinates":[76.47141,13.2559824]}},{"type":"Feature","properties":{"state":"Karnataka","district":18,"district_n":"TUMKUR","pc":19,"pc_name":"Tumkur","ac":129,"ac_name":"Tiptur","booth":104,"booth_name":"Government Urdu Model Higher Primary School Gandhinagara New Building (north Wing)"},"geometry":{"type":"Point","coordinates":[76.47141,13.2559824]}},{"type":"Feature","properties":{"state":"Karnataka","district":18,"district_n":"TUMKUR","pc":19,"pc_name":"Tumkur","ac":129,"ac_name":"Tiptur","booth":109,"booth_name":"Allameena Urdu Nursary School Chamundeshwari Extaition (left Side)"},"geometry":{"type":"Point","coordinates":[76.47397,13.2517948]}},{"type":"Feature","properties":{"state":"Karnataka","district":18,"district_n":"TUMKUR","pc":19,"pc_name":"Tumkur","ac":129,"ac_name":"Tiptur","booth":112,"booth_name":"Baif Office Building"},"geometry":{"type":"Point","coordinates":[76.45565,13.2648668]}},{"type":"Feature","properties":{"state":"Karnataka","district":18,"district_n":"TUMKUR","pc":19,"pc_name":"Tumkur","ac":129,"ac_name":"Tiptur","booth":120,"booth_name":"Gramapanchayat Office Building"},"geometry":{"type":"Point","coordinates":[76.5082,13.2698917]}},{"type":"Feature","properties":{"state":"Karnataka","district":18,"district_n":"TUMKUR","pc":19,"pc_name":"Tumkur","ac":129,"ac_name":"Tiptur","booth":121,"booth_name":"Government Lower Primary School"},"geometry":{"type":"Point","coordinates":[76.5032043,13.2760363]}},{"type":"Feature","properties":{"state":"Karnataka","district":18,"district_n":"TUMKUR","pc":19,"pc_name":"Tumkur","ac":129,"ac_name":"Tiptur","booth":43,"booth_name":"Government Higher Primary School"},"geometry":{"type":"Point","coordinates":[76.45712,13.2653294]}},{"type":"Feature","properties":{"state":"Karnataka","district":18,"district_n":"TUMKUR","pc":19,"pc_name":"Tumkur","ac":129,"ac_name":"Tiptur","booth":46,"booth_name":"Government Higher Primary School"},"geometry":{"type":"Point","coordinates":[76.39636,13.2631826]}},{"type":"Feature","properties":{"state":"Karnataka","district":18,"district_n":"TUMKUR","pc":19,"pc_name":"Tumkur","ac":129,"ac_name":"Tiptur","booth":49,"booth_name":"Government Lower Primary School"},"geometry":{"type":"Point","coordinates":[76.38861,13.2685]}},{"type":"Feature","properties":{"state":"Karnataka","district":18,"district_n":"TUMKUR","pc":19,"pc_name":"Tumkur","ac":129,"ac_name":"Tiptur","booth":60,"booth_name":"Government lower Primary School"},"geometry":{"type":"Point","coordinates":[76.49462,13.3121538]}},{"type":"Feature","properties":{"state":"Karnataka","district":18,"district_n":"TUMKUR","pc":19,"pc_name":"Tumkur","ac":129,"ac_name":"Tiptur","booth":61,"booth_name":"Government Lower Primary School"},"geometry":{"type":"Point","coordinates":[76.5121841,13.2781839]}},{"type":"Feature","properties":{"state":"Karnataka","district":18,"district_n":"TUMKUR","pc":19,"pc_name":"Tumkur","ac":129,"ac_name":"Tiptur","booth":63,"booth_name":"Government Lower Primary School"},"geometry":{"type":"Point","coordinates":[76.41401,13.23208]}},{"type":"Feature","properties":{"state":"Karnataka","district":18,"district_n":"TUMKUR","pc":19,"pc_name":"Tumkur","ac":129,"ac_name":"Tiptur","booth":72,"booth_name":"Government High School New Building"},"geometry":{"type":"Point","coordinates":[76.45879,13.265337]}},{"type":"Feature","properties":{"state":"Karnataka","district":18,"district_n":"TUMKUR","pc":19,"pc_name":"Tumkur","ac":129,"ac_name":"Tiptur","booth":74,"booth_name":"Govt Higher Primary School naer Arlikatte Halepalya"},"geometry":{"type":"Point","coordinates":[76.46589,13.2999516]}},{"type":"Feature","properties":{"state":"Karnataka","district":18,"district_n":"TUMKUR","pc":19,"pc_name":"Tumkur","ac":129,"ac_name":"Tiptur","booth":75,"booth_name":"Government Lower Primary School"},"geometry":{"type":"Point","coordinates":[76.47427,13.2611418]}},{"type":"Feature","properties":{"state":"Karnataka","district":18,"district_n":"TUMKUR","pc":19,"pc_name":"Tumkur","ac":129,"ac_name":"Tiptur","booth":77,"booth_name":"Government Lower Primary School Kote North Side"},"geometry":{"type":"Point","coordinates":[76.48599,13.2580652]}},{"type":"Feature","properties":{"state":"Karnataka","district":18,"district_n":"TUMKUR","pc":19,"pc_name":"Tumkur","ac":129,"ac_name":"Tiptur","booth":86,"booth_name":"Government Boy's P U College R C C Building South Side"},"geometry":{"type":"Point","coordinates":[76.465126,13.2621651]}},{"type":"Feature","properties":{"state":"Karnataka","district":18,"district_n":"TUMKUR","pc":19,"pc_name":"Tumkur","ac":129,"ac_name":"Tiptur","booth":95,"booth_name":"Udaya Bharati P U College Gandhinagar (middle Side)"},"geometry":{"type":"Point","coordinates":[76.47141,13.2559824]}},{"type":"Feature","properties":{"state":"Karnataka","district":18,"district_n":"TUMKUR","pc":19,"pc_name":"Tumkur","ac":129,"ac_name":"Tiptur","booth":97,"booth_name":"Government First Grade College East Side ( K R Extatation)"},"geometry":{"type":"Point","coordinates":[76.46526,13.2615662]}},{"type":"Feature","properties":{"state":"Karnataka","district":18,"district_n":"TUMKUR","pc":19,"pc_name":"Tumkur","ac":129,"ac_name":"Tiptur","booth":98,"booth_name":"Government First Grade College ( West Side ) K R Extension"},"geometry":{"type":"Point","coordinates":[76.46526,13.2615662]}},{"type":"Feature","properties":{"state":"Karnataka","district":18,"district_n":"TUMKUR","pc":19,"pc_name":"Tumkur","ac":129,"ac_name":"Tiptur","booth":100,"booth_name":"Governmentkannada Model Higher Primary School East Side Gandhinagar"},"geometry":{"type":"Point","coordinates":[76.47141,13.2559824]}},{"type":"Feature","properties":{"state":"Karnataka","district":18,"district_n":"TUMKUR","pc":19,"pc_name":"Tumkur","ac":129,"ac_name":"Tiptur","booth":106,"booth_name":"Government higher Primary School Bhovi Colony West Wing"},"geometry":{"type":"Point","coordinates":[76.47141,13.2559824]}},{"type":"Feature","properties":{"state":"Karnataka","district":18,"district_n":"TUMKUR","pc":19,"pc_name":"Tumkur","ac":129,"ac_name":"Tiptur","booth":115,"booth_name":"Government Lower Primary School New Building"},"geometry":{"type":"Point","coordinates":[76.4862442,13.2688322]}},{"type":"Feature","properties":{"state":"Karnataka","district":18,"district_n":"TUMKUR","pc":19,"pc_name":"Tumkur","ac":129,"ac_name":"Tiptur","booth":117,"booth_name":"Government Higher Primary School"},"geometry":{"type":"Point","coordinates":[76.51708,13.29669]}},{"type":"Feature","properties":{"state":"Karnataka","district":18,"district_n":"TUMKUR","pc":19,"pc_name":"Tumkur","ac":129,"ac_name":"Tiptur","booth":118,"booth_name":"Government Higher Primary School"},"geometry":{"type":"Point","coordinates":[76.53739,13.32729]}},{"type":"Feature","properties":{"state":"Karnataka","district":18,"district_n":"TUMKUR","pc":19,"pc_name":"Tumkur","ac":129,"ac_name":"Tiptur","booth":126,"booth_name":"Government Higher Primary School"},"geometry":{"type":"Point","coordinates":[76.43176,13.1932774]}},{"type":"Feature","properties":{"state":"Karnataka","district":18,"district_n":"TUMKUR","pc":19,"pc_name":"Tumkur","ac":129,"ac_name":"Tiptur","booth":129,"booth_name":"Government Higher Primary School"},"geometry":{"type":"Point","coordinates":[76.4696045,13.226016]}},{"type":"Feature","properties":{"state":"Karnataka","district":18,"district_n":"TUMKUR","pc":19,"pc_name":"Tumkur","ac":129,"ac_name":"Tiptur","booth":135,"booth_name":"Government Higher Primary School (left Side)"},"geometry":{"type":"Point","coordinates":[76.6156845,13.3143864]}},{"type":"Feature","properties":{"state":"Karnataka","district":18,"district_n":"TUMKUR","pc":19,"pc_name":"Tumkur","ac":129,"ac_name":"Tiptur","booth":137,"booth_name":"Government Higher Primary School"},"geometry":{"type":"Point","coordinates":[76.53774,13.2916393]}},{"type":"Feature","properties":{"state":"Karnataka","district":18,"district_n":"TUMKUR","pc":19,"pc_name":"Tumkur","ac":129,"ac_name":"Tiptur","booth":138,"booth_name":"Government Lower Primary School"},"geometry":{"type":"Point","coordinates":[76.53511,13.2686853]}},{"type":"Feature","properties":{"state":"Karnataka","district":18,"district_n":"TUMKUR","pc":19,"pc_name":"Tumkur","ac":129,"ac_name":"Tiptur","booth":149,"booth_name":"Government Lower Primary School"},"geometry":{"type":"Point","coordinates":[76.48594,13.2586222]}},{"type":"Feature","properties":{"state":"Karnataka","district":18,"district_n":"TUMKUR","pc":19,"pc_name":"Tumkur","ac":129,"ac_name":"Tiptur","booth":157,"booth_name":"Government Lower Primary School"},"geometry":{"type":"Point","coordinates":[76.56722,13.2812643]}},{"type":"Feature","properties":{"state":"Karnataka","district":18,"district_n":"TUMKUR","pc":19,"pc_name":"Tumkur","ac":129,"ac_name":"Tiptur","booth":158,"booth_name":"Government Higher Primary School"},"geometry":{"type":"Point","coordinates":[76.6515961,13.3185549]}},{"type":"Feature","properties":{"state":"Karnataka","district":18,"district_n":"TUMKUR","pc":19,"pc_name":"Tumkur","ac":129,"ac_name":"Tiptur","booth":161,"booth_name":"Government Model Higher Primary School (west Wing)"},"geometry":{"type":"Point","coordinates":[76.6281738,13.3055439]}},{"type":"Feature","properties":{"state":"Karnataka","district":18,"district_n":"TUMKUR","pc":19,"pc_name":"Tumkur","ac":129,"ac_name":"Tiptur","booth":163,"booth_name":"Government Higher Primary School"},"geometry":{"type":"Point","coordinates":[76.5609,13.2361174]}},{"type":"Feature","properties":{"state":"Karnataka","district":18,"district_n":"TUMKUR","pc":19,"pc_name":"Tumkur","ac":129,"ac_name":"Tiptur","booth":164,"booth_name":"Government Lower Primary School"},"geometry":{"type":"Point","coordinates":[76.5090942,13.22408]}},{"type":"Feature","properties":{"state":"Karnataka","district":18,"district_n":"TUMKUR","pc":19,"pc_name":"Tumkur","ac":129,"ac_name":"Tiptur","booth":166,"booth_name":"Government Lower Primary School"},"geometry":{"type":"Point","coordinates":[76.4854,13.1920147]}},{"type":"Feature","properties":{"state":"Karnataka","district":18,"district_n":"TUMKUR","pc":19,"pc_name":"Tumkur","ac":129,"ac_name":"Tiptur","booth":175,"booth_name":"Government Lower Primary School"},"geometry":{"type":"Point","coordinates":[76.5948639,13.2504663]}},{"type":"Feature","properties":{"state":"Karnataka","district":18,"district_n":"TUMKUR","pc":19,"pc_name":"Tumkur","ac":129,"ac_name":"Tiptur","booth":177,"booth_name":"Government Higher Primary School"},"geometry":{"type":"Point","coordinates":[76.58231,13.2401752]}},{"type":"Feature","properties":{"state":"Karnataka","district":18,"district_n":"TUMKUR","pc":19,"pc_name":"Tumkur","ac":129,"ac_name":"Tiptur","booth":178,"booth_name":"Government Higher Primary School left wing"},"geometry":{"type":"Point","coordinates":[76.61682,13.2538195]}},{"type":"Feature","properties":{"state":"Karnataka","district":18,"district_n":"TUMKUR","pc":19,"pc_name":"Tumkur","ac":129,"ac_name":"Tiptur","booth":186,"booth_name":"Government Lower Primary School"},"geometry":{"type":"Point","coordinates":[76.66558,13.3129816]}},{"type":"Feature","properties":{"state":"Karnataka","district":18,"district_n":"TUMKUR","pc":19,"pc_name":"Tumkur","ac":129,"ac_name":"Tiptur","booth":187,"booth_name":"Government Lower Primary School"},"geometry":{"type":"Point","coordinates":[76.65706,13.2838116]}},{"type":"Feature","properties":{"state":"Karnataka","district":18,"district_n":"TUMKUR","pc":19,"pc_name":"Tumkur","ac":129,"ac_name":"Tiptur","booth":189,"booth_name":"Government Higher Primary School"},"geometry":{"type":"Point","coordinates":[76.65922,13.2124557]}},{"type":"Feature","properties":{"state":"Karnataka","district":18,"district_n":"TUMKUR","pc":19,"pc_name":"Tumkur","ac":129,"ac_name":"Tiptur","booth":192,"booth_name":"Government Lower Primary School"},"geometry":{"type":"Point","coordinates":[76.50059,13.12157]}},{"type":"Feature","properties":{"state":"Karnataka","district":18,"district_n":"TUMKUR","pc":19,"pc_name":"Tumkur","ac":129,"ac_name":"Tiptur","booth":17,"booth_name":"Government Higher Primary School"},"geometry":{"type":"Point","coordinates":[76.4191055,13.3535337]}},{"type":"Feature","properties":{"state":"Karnataka","district":18,"district_n":"TUMKUR","pc":19,"pc_name":"Tumkur","ac":129,"ac_name":"Tiptur","booth":18,"booth_name":"Government Higher Primary School"},"geometry":{"type":"Point","coordinates":[76.46725,13.4094267]}},{"type":"Feature","properties":{"state":"Karnataka","district":18,"district_n":"TUMKUR","pc":19,"pc_name":"Tumkur","ac":129,"ac_name":"Tiptur","booth":20,"booth_name":"Government Higher Primary School"},"geometry":{"type":"Point","coordinates":[76.4452057,13.3477926]}},{"type":"Feature","properties":{"state":"Karnataka","district":18,"district_n":"TUMKUR","pc":19,"pc_name":"Tumkur","ac":129,"ac_name":"Tiptur","booth":23,"booth_name":"Government Lower Primary School"},"geometry":{"type":"Point","coordinates":[76.41903,13.3535337]}},{"type":"Feature","properties":{"state":"Karnataka","district":18,"district_n":"TUMKUR","pc":19,"pc_name":"Tumkur","ac":129,"ac_name":"Tiptur","booth":52,"booth_name":"Government Higher Primary School"},"geometry":{"type":"Point","coordinates":[76.41842,13.25469]}},{"type":"Feature","properties":{"state":"Karnataka","district":18,"district_n":"TUMKUR","pc":19,"pc_name":"Tumkur","ac":129,"ac_name":"Tiptur","booth":54,"booth_name":"Government Higher Primary School (west Wing)"},"geometry":{"type":"Point","coordinates":[76.4455,13.2682228]}},{"type":"Feature","properties":{"state":"Karnataka","district":18,"district_n":"TUMKUR","pc":19,"pc_name":"Tumkur","ac":129,"ac_name":"Tiptur","booth":55,"booth_name":"Government Higher Primary School"},"geometry":{"type":"Point","coordinates":[76.47706,13.3461237]}},{"type":"Feature","properties":{"state":"Karnataka","district":18,"district_n":"TUMKUR","pc":19,"pc_name":"Tumkur","ac":129,"ac_name":"Tiptur","booth":57,"booth_name":"Government Lower Primary School"},"geometry":{"type":"Point","coordinates":[76.5121841,13.2781839]}},{"type":"Feature","properties":{"state":"Karnataka","district":18,"district_n":"TUMKUR","pc":19,"pc_name":"Tumkur","ac":129,"ac_name":"Tiptur","booth":58,"booth_name":"Government Higher Primary School"},"geometry":{"type":"Point","coordinates":[76.47706,13.3761234]}},{"type":"Feature","properties":{"state":"Karnataka","district":18,"district_n":"TUMKUR","pc":19,"pc_name":"Tumkur","ac":129,"ac_name":"Tiptur","booth":160,"booth_name":"Government Model Higher Primary School (east Wing)"},"geometry":{"type":"Point","coordinates":[76.62804,13.3055391]}},{"type":"Feature","properties":{"state":"Karnataka","district":18,"district_n":"TUMKUR","pc":19,"pc_name":"Tumkur","ac":129,"ac_name":"Tiptur","booth":123,"booth_name":"Government Higher Primary School"},"geometry":{"type":"Point","coordinates":[76.4569244,13.2302933]}},{"type":"Feature","properties":{"state":"Karnataka","district":18,"district_n":"TUMKUR","pc":19,"pc_name":"Tumkur","ac":129,"ac_name":"Tiptur","booth":124,"booth_name":"Government Higher Primary School"},"geometry":{"type":"Point","coordinates":[76.42752,13.21846]}},{"type":"Feature","properties":{"state":"Karnataka","district":18,"district_n":"TUMKUR","pc":19,"pc_name":"Tumkur","ac":129,"ac_name":"Tiptur","booth":102,"booth_name":"Primary Co operative Agricultural & Rural development Bank"},"geometry":{"type":"Point","coordinates":[76.48599,13.2580652]}},{"type":"Feature","properties":{"state":"Karnataka","district":18,"district_n":"TUMKUR","pc":19,"pc_name":"Tumkur","ac":129,"ac_name":"Tiptur","booth":114,"booth_name":"Government Higher Primary School West Side"},"geometry":{"type":"Point","coordinates":[76.48599,13.2580652]}},{"type":"Feature","properties":{"state":"Karnataka","district":18,"district_n":"TUMKUR","pc":19,"pc_name":"Tumkur","ac":129,"ac_name":"Tiptur","booth":108,"booth_name":"Allameen Urdu Nursary School Chamundeshwari Extaition Right Side"},"geometry":{"type":"Point","coordinates":[76.47397,13.2517948]}},{"type":"Feature","properties":{"state":"Karnataka","district":18,"district_n":"TUMKUR","pc":19,"pc_name":"Tumkur","ac":129,"ac_name":"Tiptur","booth":111,"booth_name":"Anganawadi Kendra (maranagere)"},"geometry":{"type":"Point","coordinates":[76.46704,13.2595119]}},{"type":"Feature","properties":{"state":"Karnataka","district":18,"district_n":"TUMKUR","pc":19,"pc_name":"Tumkur","ac":129,"ac_name":"Tiptur","booth":122,"booth_name":"Government Lower Primary School"},"geometry":{"type":"Point","coordinates":[76.49304,13.2848835]}},{"type":"Feature","properties":{"state":"Karnataka","district":18,"district_n":"TUMKUR","pc":19,"pc_name":"Tumkur","ac":129,"ac_name":"Tiptur","booth":93,"booth_name":"Udaya Bharati Women First Grade College New Building Gandhinagara (east Wing)"},"geometry":{"type":"Point","coordinates":[76.47141,13.2559824]}},{"type":"Feature","properties":{"state":"Karnataka","district":18,"district_n":"TUMKUR","pc":19,"pc_name":"Tumkur","ac":129,"ac_name":"Tiptur","booth":110,"booth_name":"Government Lower Primary School"},"geometry":{"type":"Point","coordinates":[76.46485,13.2612743]}},{"type":"Feature","properties":{"state":"Karnataka","district":18,"district_n":"TUMKUR","pc":19,"pc_name":"Tumkur","ac":129,"ac_name":"Tiptur","booth":113,"booth_name":"Government Higher Primary School East Side)"},"geometry":{"type":"Point","coordinates":[76.48599,13.2580652]}},{"type":"Feature","properties":{"state":"Karnataka","district":18,"district_n":"TUMKUR","pc":19,"pc_name":"Tumkur","ac":129,"ac_name":"Tiptur","booth":220,"booth_name":"Government Higher Primary School"},"geometry":{"type":"Point","coordinates":[76.4862,13.065733]}},{"type":"Feature","properties":{"state":"Karnataka","district":18,"district_n":"TUMKUR","pc":19,"pc_name":"Tumkur","ac":129,"ac_name":"Tiptur","booth":221,"booth_name":"Government Higher Primary School"},"geometry":{"type":"Point","coordinates":[76.4862,13.065733]}},{"type":"Feature","properties":{"state":"Karnataka","district":18,"district_n":"TUMKUR","pc":19,"pc_name":"Tumkur","ac":129,"ac_name":"Tiptur","booth":34,"booth_name":"Government Lower Primary School"},"geometry":{"type":"Point","coordinates":[76.37648,13.26963]}},{"type":"Feature","properties":{"state":"Karnataka","district":18,"district_n":"TUMKUR","pc":19,"pc_name":"Tumkur","ac":129,"ac_name":"Tiptur","booth":35,"booth_name":"Government Lower Primary School"},"geometry":{"type":"Point","coordinates":[76.41331,13.2936373]}},{"type":"Feature","properties":{"state":"Karnataka","district":18,"district_n":"TUMKUR","pc":19,"pc_name":"Tumkur","ac":129,"ac_name":"Tiptur","booth":37,"booth_name":"Government Higher Primary School"},"geometry":{"type":"Point","coordinates":[76.45712,13.2653294]}},{"type":"Feature","properties":{"state":"Karnataka","district":18,"district_n":"TUMKUR","pc":19,"pc_name":"Tumkur","ac":129,"ac_name":"Tiptur","booth":38,"booth_name":"Gramapanchayat Office Building"},"geometry":{"type":"Point","coordinates":[76.45712,13.2653294]}},{"type":"Feature","properties":{"state":"Karnataka","district":18,"district_n":"TUMKUR","pc":19,"pc_name":"Tumkur","ac":129,"ac_name":"Tiptur","booth":40,"booth_name":"Government Higher Primary School"},"geometry":{"type":"Point","coordinates":[76.4770355,13.3462811]}},{"type":"Feature","properties":{"state":"Karnataka","district":18,"district_n":"TUMKUR","pc":19,"pc_name":"Tumkur","ac":129,"ac_name":"Tiptur","booth":41,"booth_name":"Government Higher Primary School"},"geometry":{"type":"Point","coordinates":[76.47706,13.3461237]}},{"type":"Feature","properties":{"state":"Karnataka","district":18,"district_n":"TUMKUR","pc":19,"pc_name":"Tumkur","ac":129,"ac_name":"Tiptur","booth":39,"booth_name":"Government Higher Primary School"},"geometry":{"type":"Point","coordinates":[76.47706,13.3461237]}},{"type":"Feature","properties":{"state":"Karnataka","district":18,"district_n":"TUMKUR","pc":19,"pc_name":"Tumkur","ac":129,"ac_name":"Tiptur","booth":205,"booth_name":"Government Model Higher Primary School (east Side)"},"geometry":{"type":"Point","coordinates":[76.5518646,13.1785936]}},{"type":"Feature","properties":{"state":"Karnataka","district":18,"district_n":"TUMKUR","pc":19,"pc_name":"Tumkur","ac":129,"ac_name":"Tiptur","booth":169,"booth_name":"Government Higher Primary School ( East Side )"},"geometry":{"type":"Point","coordinates":[76.465004,13.1653585]}},{"type":"Feature","properties":{"state":"Karnataka","district":18,"district_n":"TUMKUR","pc":19,"pc_name":"Tumkur","ac":129,"ac_name":"Tiptur","booth":172,"booth_name":"Government Higher Primary School"},"geometry":{"type":"Point","coordinates":[76.4854,13.1920147]}},{"type":"Feature","properties":{"state":"Karnataka","district":18,"district_n":"TUMKUR","pc":19,"pc_name":"Tumkur","ac":129,"ac_name":"Tiptur","booth":180,"booth_name":"Grampanchayat Office Building"},"geometry":{"type":"Point","coordinates":[76.61333,13.2526789]}},{"type":"Feature","properties":{"state":"Karnataka","district":18,"district_n":"TUMKUR","pc":19,"pc_name":"Tumkur","ac":129,"ac_name":"Tiptur","booth":181,"booth_name":"Government Lower Primary School"},"geometry":{"type":"Point","coordinates":[76.58854,13.2410727]}},{"type":"Feature","properties":{"state":"Karnataka","district":18,"district_n":"TUMKUR","pc":19,"pc_name":"Tumkur","ac":129,"ac_name":"Tiptur","booth":183,"booth_name":"Government Lower Primary School"},"geometry":{"type":"Point","coordinates":[76.64287,13.3025646]}},{"type":"Feature","properties":{"state":"Karnataka","district":18,"district_n":"TUMKUR","pc":19,"pc_name":"Tumkur","ac":129,"ac_name":"Tiptur","booth":184,"booth_name":"Government Model Higher Primary School (right Side)"},"geometry":{"type":"Point","coordinates":[76.68523,13.3172541]}},{"type":"Feature","properties":{"state":"Karnataka","district":18,"district_n":"TUMKUR","pc":19,"pc_name":"Tumkur","ac":129,"ac_name":"Tiptur","booth":185,"booth_name":"Government Model Higher Primary School (left Side)"},"geometry":{"type":"Point","coordinates":[76.6852341,13.3173313]}},{"type":"Feature","properties":{"state":"Karnataka","district":18,"district_n":"TUMKUR","pc":19,"pc_name":"Tumkur","ac":129,"ac_name":"Tiptur","booth":8,"booth_name":"Government Lower Primary School"},"geometry":{"type":"Point","coordinates":[76.3830948,13.3119926]}},{"type":"Feature","properties":{"state":"Karnataka","district":18,"district_n":"TUMKUR","pc":19,"pc_name":"Tumkur","ac":129,"ac_name":"Tiptur","booth":16,"booth_name":"Government Lower Primary School"},"geometry":{"type":"Point","coordinates":[76.38908,13.3268671]}},{"type":"Feature","properties":{"state":"Karnataka","district":18,"district_n":"TUMKUR","pc":19,"pc_name":"Tumkur","ac":129,"ac_name":"Tiptur","booth":19,"booth_name":"Government Lower Primary School"},"geometry":{"type":"Point","coordinates":[76.46725,13.4094267]}},{"type":"Feature","properties":{"state":"Karnataka","district":18,"district_n":"TUMKUR","pc":19,"pc_name":"Tumkur","ac":129,"ac_name":"Tiptur","booth":66,"booth_name":"Government Lower Primary School"},"geometry":{"type":"Point","coordinates":[76.3835,13.2078218]}},{"type":"Feature","properties":{"state":"Karnataka","district":18,"district_n":"TUMKUR","pc":19,"pc_name":"Tumkur","ac":129,"ac_name":"Tiptur","booth":69,"booth_name":"Government Lower Primary School"},"geometry":{"type":"Point","coordinates":[76.43772,13.2447214]}},{"type":"Feature","properties":{"state":"Karnataka","district":18,"district_n":"TUMKUR","pc":19,"pc_name":"Tumkur","ac":129,"ac_name":"Tiptur","booth":78,"booth_name":"Government Higher Primary School ( West Side) Kote"},"geometry":{"type":"Point","coordinates":[76.48599,13.2580652]}},{"type":"Feature","properties":{"state":"Karnataka","district":18,"district_n":"TUMKUR","pc":19,"pc_name":"Tumkur","ac":129,"ac_name":"Tiptur","booth":80,"booth_name":"Government Girl's Model Higher Primary School Railway Station Road North Side"},"geometry":{"type":"Point","coordinates":[76.47367,13.2602644]}},{"type":"Feature","properties":{"state":"Karnataka","district":18,"district_n":"TUMKUR","pc":19,"pc_name":"Tumkur","ac":129,"ac_name":"Tiptur","booth":81,"booth_name":"Arya Bhalika Lower Primary School New Building"},"geometry":{"type":"Point","coordinates":[76.47427,13.2611418]}},{"type":"Feature","properties":{"state":"Karnataka","district":18,"district_n":"TUMKUR","pc":19,"pc_name":"Tumkur","ac":129,"ac_name":"Tiptur","booth":83,"booth_name":"Government P U College near bell room new building"},"geometry":{"type":"Point","coordinates":[76.47074,13.2613449]}},{"type":"Feature","properties":{"state":"Karnataka","district":18,"district_n":"TUMKUR","pc":19,"pc_name":"Tumkur","ac":129,"ac_name":"Tiptur","booth":132,"booth_name":"Government Higher Primary School"},"geometry":{"type":"Point","coordinates":[76.55563,13.2990541]}},{"type":"Feature","properties":{"state":"Karnataka","district":18,"district_n":"TUMKUR","pc":19,"pc_name":"Tumkur","ac":129,"ac_name":"Tiptur","booth":131,"booth_name":"Government Lower Primary School"},"geometry":{"type":"Point","coordinates":[76.5057,13.25104]}},{"type":"Feature","properties":{"state":"Karnataka","district":18,"district_n":"TUMKUR","pc":19,"pc_name":"Tumkur","ac":129,"ac_name":"Tiptur","booth":68,"booth_name":"Government Higher Primary School"},"geometry":{"type":"Point","coordinates":[76.43447,13.2345438]}},{"type":"Feature","properties":{"state":"Karnataka","district":18,"district_n":"TUMKUR","pc":19,"pc_name":"Tumkur","ac":129,"ac_name":"Tiptur","booth":79,"booth_name":"Government Urdu Girl's Higher Primary School Back side of Old Taluk Office East Side"},"geometry":{"type":"Point","coordinates":[76.47141,13.2559824]}},{"type":"Feature","properties":{"state":"Karnataka","district":18,"district_n":"TUMKUR","pc":19,"pc_name":"Tumkur","ac":129,"ac_name":"Tiptur","booth":195,"booth_name":"Gramapanchayat Office Building"},"geometry":{"type":"Point","coordinates":[76.53294,13.1704845]}},{"type":"Feature","properties":{"state":"Karnataka","district":18,"district_n":"TUMKUR","pc":19,"pc_name":"Tumkur","ac":129,"ac_name":"Tiptur","booth":198,"booth_name":"Government Lower Primary School"},"geometry":{"type":"Point","coordinates":[76.5518646,13.1785936]}},{"type":"Feature","properties":{"state":"Karnataka","district":18,"district_n":"TUMKUR","pc":19,"pc_name":"Tumkur","ac":129,"ac_name":"Tiptur","booth":140,"booth_name":"Government Model Higher Primary School (left Side)"},"geometry":{"type":"Point","coordinates":[76.52084,13.2762308]}},{"type":"Feature","properties":{"state":"Karnataka","district":18,"district_n":"TUMKUR","pc":19,"pc_name":"Tumkur","ac":129,"ac_name":"Tiptur","booth":141,"booth_name":"Government Higher Primary School"},"geometry":{"type":"Point","coordinates":[76.51307,13.2609911]}},{"type":"Feature","properties":{"state":"Karnataka","district":18,"district_n":"TUMKUR","pc":19,"pc_name":"Tumkur","ac":129,"ac_name":"Tiptur","booth":143,"booth_name":"Government Lower Primary School"},"geometry":{"type":"Point","coordinates":[76.48164,13.2214794]}},{"type":"Feature","properties":{"state":"Karnataka","district":18,"district_n":"TUMKUR","pc":19,"pc_name":"Tumkur","ac":129,"ac_name":"Tiptur","booth":144,"booth_name":"Government Higher Primary School"},"geometry":{"type":"Point","coordinates":[76.46254,13.2083826]}},{"type":"Feature","properties":{"state":"Karnataka","district":18,"district_n":"TUMKUR","pc":19,"pc_name":"Tumkur","ac":129,"ac_name":"Tiptur","booth":146,"booth_name":"Government Higher Primary School"},"geometry":{"type":"Point","coordinates":[76.47871,13.1956091]}},{"type":"Feature","properties":{"state":"Karnataka","district":18,"district_n":"TUMKUR","pc":19,"pc_name":"Tumkur","ac":129,"ac_name":"Tiptur","booth":152,"booth_name":"Government Higher Primary School North Side"},"geometry":{"type":"Point","coordinates":[76.52216,13.2380962]}},{"type":"Feature","properties":{"state":"Karnataka","district":18,"district_n":"TUMKUR","pc":19,"pc_name":"Tumkur","ac":129,"ac_name":"Tiptur","booth":155,"booth_name":"Government Lower Primary School"},"geometry":{"type":"Point","coordinates":[76.55635,13.2437248]}},{"type":"Feature","properties":{"state":"Karnataka","district":18,"district_n":"TUMKUR","pc":19,"pc_name":"Tumkur","ac":129,"ac_name":"Tiptur","booth":142,"booth_name":"Government Lower Primary School"},"geometry":{"type":"Point","coordinates":[76.52528,13.2530546]}},{"type":"Feature","properties":{"state":"Karnataka","district":18,"district_n":"TUMKUR","pc":19,"pc_name":"Tumkur","ac":129,"ac_name":"Tiptur","booth":125,"booth_name":"Government Higher Primary School"},"geometry":{"type":"Point","coordinates":[76.4153,13.2056923]}},{"type":"Feature","properties":{"state":"Karnataka","district":18,"district_n":"TUMKUR","pc":19,"pc_name":"Tumkur","ac":129,"ac_name":"Tiptur","booth":128,"booth_name":"Government Higher Primary School"},"geometry":{"type":"Point","coordinates":[76.45034,13.2134151]}},{"type":"Feature","properties":{"state":"Karnataka","district":18,"district_n":"TUMKUR","pc":19,"pc_name":"Tumkur","ac":129,"ac_name":"Tiptur","booth":162,"booth_name":"Government Model Higher Primary School"},"geometry":{"type":"Point","coordinates":[76.57318,13.2680979]}},{"type":"Feature","properties":{"state":"Karnataka","district":18,"district_n":"TUMKUR","pc":19,"pc_name":"Tumkur","ac":129,"ac_name":"Tiptur","booth":165,"booth_name":"Government Higher Primary School"},"geometry":{"type":"Point","coordinates":[76.50905,13.2241268]}},{"type":"Feature","properties":{"state":"Karnataka","district":18,"district_n":"TUMKUR","pc":19,"pc_name":"Tumkur","ac":129,"ac_name":"Tiptur","booth":85,"booth_name":"Government Higher Primary School K R Layout West Side"},"geometry":{"type":"Point","coordinates":[76.465126,13.2621651]}},{"type":"Feature","properties":{"state":"Karnataka","district":18,"district_n":"TUMKUR","pc":19,"pc_name":"Tumkur","ac":129,"ac_name":"Tiptur","booth":148,"booth_name":"Government Higher Primary School"},"geometry":{"type":"Point","coordinates":[76.45601,13.1780643]}},{"type":"Feature","properties":{"state":"Karnataka","district":18,"district_n":"TUMKUR","pc":19,"pc_name":"Tumkur","ac":129,"ac_name":"Tiptur","booth":151,"booth_name":"Government Model Higher Primary School West wing"},"geometry":{"type":"Point","coordinates":[76.5223846,13.2380829]}},{"type":"Feature","properties":{"state":"Karnataka","district":18,"district_n":"TUMKUR","pc":19,"pc_name":"Tumkur","ac":129,"ac_name":"Tiptur","booth":188,"booth_name":"Government Higher Primary School"},"geometry":{"type":"Point","coordinates":[76.50059,13.12157]}},{"type":"Feature","properties":{"state":"Karnataka","district":18,"district_n":"TUMKUR","pc":19,"pc_name":"Tumkur","ac":129,"ac_name":"Tiptur","booth":191,"booth_name":"Government Lower Primary School"},"geometry":{"type":"Point","coordinates":[76.53294,13.1704845]}},{"type":"Feature","properties":{"state":"Karnataka","district":18,"district_n":"TUMKUR","pc":19,"pc_name":"Tumkur","ac":129,"ac_name":"Tiptur","booth":2,"booth_name":"Government Lower Primary School Rudhrapura"},"geometry":{"type":"Point","coordinates":[76.46725,13.4094267]}},{"type":"Feature","properties":{"state":"Karnataka","district":18,"district_n":"TUMKUR","pc":19,"pc_name":"Tumkur","ac":129,"ac_name":"Tiptur","booth":5,"booth_name":"Goverment Composite High School (south Side)"},"geometry":{"type":"Point","coordinates":[76.4460449,13.4015427]}},{"type":"Feature","properties":{"state":"Karnataka","district":18,"district_n":"TUMKUR","pc":19,"pc_name":"Tumkur","ac":129,"ac_name":"Tiptur","booth":25,"booth_name":"Government Lower Primary School"},"geometry":{"type":"Point","coordinates":[76.3511353,13.3028011]}},{"type":"Feature","properties":{"state":"Karnataka","district":18,"district_n":"TUMKUR","pc":19,"pc_name":"Tumkur","ac":129,"ac_name":"Tiptur","booth":28,"booth_name":"Government Lower Primary School"},"geometry":{"type":"Point","coordinates":[76.4452057,13.3477926]}},{"type":"Feature","properties":{"state":"Karnataka","district":18,"district_n":"TUMKUR","pc":19,"pc_name":"Tumkur","ac":129,"ac_name":"Tiptur","booth":31,"booth_name":"Government Higher Primary School"},"geometry":{"type":"Point","coordinates":[76.4452057,13.3477926]}},{"type":"Feature","properties":{"state":"Karnataka","district":18,"district_n":"TUMKUR","pc":19,"pc_name":"Tumkur","ac":129,"ac_name":"Tiptur","booth":48,"booth_name":"Government Lower Primary School"},"geometry":{"type":"Point","coordinates":[76.38567,13.2508945]}},{"type":"Feature","properties":{"state":"Karnataka","district":18,"district_n":"TUMKUR","pc":19,"pc_name":"Tumkur","ac":129,"ac_name":"Tiptur","booth":65,"booth_name":"Government Higher Primary School"},"geometry":{"type":"Point","coordinates":[76.38975,13.214365]}},{"type":"Feature","properties":{"state":"Karnataka","district":18,"district_n":"TUMKUR","pc":19,"pc_name":"Tumkur","ac":129,"ac_name":"Tiptur","booth":62,"booth_name":"Government Higher Primary School"},"geometry":{"type":"Point","coordinates":[76.46765,13.2828131]}},{"type":"Feature","properties":{"state":"Karnataka","district":18,"district_n":"TUMKUR","pc":19,"pc_name":"Tumkur","ac":129,"ac_name":"Tiptur","booth":88,"booth_name":"Government Girl's Model Higher Primary School Railway Station Road"},"geometry":{"type":"Point","coordinates":[76.465126,13.2621651]}},{"type":"Feature","properties":{"state":"Karnataka","district":18,"district_n":"TUMKUR","pc":19,"pc_name":"Tumkur","ac":129,"ac_name":"Tiptur","booth":105,"booth_name":"Government Higher Primary School Bhovi Colony (east Side)"},"geometry":{"type":"Point","coordinates":[76.47141,13.2559824]}},{"type":"Feature","properties":{"state":"Karnataka","district":18,"district_n":"TUMKUR","pc":19,"pc_name":"Tumkur","ac":129,"ac_name":"Tiptur","booth":22,"booth_name":"Government Higher Primary School"},"geometry":{"type":"Point","coordinates":[76.4248352,13.3936577]}},{"type":"Feature","properties":{"state":"Karnataka","district":18,"district_n":"TUMKUR","pc":19,"pc_name":"Tumkur","ac":129,"ac_name":"Tiptur","booth":51,"booth_name":"Government Higher Primary School"},"geometry":{"type":"Point","coordinates":[76.42022,13.2670574]}},{"type":"Feature","properties":{"state":"Karnataka","district":18,"district_n":"TUMKUR","pc":19,"pc_name":"Tumkur","ac":129,"ac_name":"Tiptur","booth":59,"booth_name":"Government Lower Primary School"},"geometry":{"type":"Point","coordinates":[76.56405,13.3598042]}},{"type":"Feature","properties":{"state":"Karnataka","district":18,"district_n":"TUMKUR","pc":19,"pc_name":"Tumkur","ac":129,"ac_name":"Tiptur","booth":171,"booth_name":"Government Higher Primary School"},"geometry":{"type":"Point","coordinates":[76.4854,13.1920147]}},{"type":"Feature","properties":{"state":"Karnataka","district":18,"district_n":"TUMKUR","pc":19,"pc_name":"Tumkur","ac":129,"ac_name":"Tiptur","booth":168,"booth_name":"Government Lower Primary School"},"geometry":{"type":"Point","coordinates":[76.467186,13.19482]}},{"type":"Feature","properties":{"state":"Karnataka","district":18,"district_n":"TUMKUR","pc":19,"pc_name":"Tumkur","ac":129,"ac_name":"Tiptur","booth":21,"booth_name":"Government Higher Primary School"},"geometry":{"type":"Point","coordinates":[76.4452057,13.4094267]}},{"type":"Feature","properties":{"state":"Karnataka","district":18,"district_n":"TUMKUR","pc":19,"pc_name":"Tumkur","ac":129,"ac_name":"Tiptur","booth":24,"booth_name":"Government Higher Primary School"},"geometry":{"type":"Point","coordinates":[76.3830948,13.3119926]}},{"type":"Feature","properties":{"state":"Karnataka","district":18,"district_n":"TUMKUR","pc":19,"pc_name":"Tumkur","ac":129,"ac_name":"Tiptur","booth":50,"booth_name":"Government Higher Primary School"},"geometry":{"type":"Point","coordinates":[76.38474,13.2426634]}},{"type":"Feature","properties":{"state":"Karnataka","district":18,"district_n":"TUMKUR","pc":19,"pc_name":"Tumkur","ac":129,"ac_name":"Tiptur","booth":53,"booth_name":"Government Higher Primary School (east Wing)"},"geometry":{"type":"Point","coordinates":[76.4455,13.2682228]}},{"type":"Feature","properties":{"state":"Karnataka","district":18,"district_n":"TUMKUR","pc":19,"pc_name":"Tumkur","ac":129,"ac_name":"Tiptur","booth":56,"booth_name":"Government Higher Primary School"},"geometry":{"type":"Point","coordinates":[76.5121841,13.2781839]}},{"type":"Feature","properties":{"state":"Karnataka","district":18,"district_n":"TUMKUR","pc":19,"pc_name":"Tumkur","ac":129,"ac_name":"Tiptur","booth":71,"booth_name":"Government Lower Primary School Left side"},"geometry":{"type":"Point","coordinates":[76.45879,13.265337]}},{"type":"Feature","properties":{"state":"Karnataka","district":18,"district_n":"TUMKUR","pc":19,"pc_name":"Tumkur","ac":129,"ac_name":"Tiptur","booth":82,"booth_name":"Government Girl's P U College R C C Building ( West Side)"},"geometry":{"type":"Point","coordinates":[76.47074,13.2613449]}},{"type":"Feature","properties":{"state":"Karnataka","district":18,"district_n":"TUMKUR","pc":19,"pc_name":"Tumkur","ac":129,"ac_name":"Tiptur","booth":67,"booth_name":"Government Lower Primary School"},"geometry":{"type":"Point","coordinates":[76.42293,13.222827]}},{"type":"Feature","properties":{"state":"Karnataka","district":18,"district_n":"TUMKUR","pc":19,"pc_name":"Tumkur","ac":129,"ac_name":"Tiptur","booth":70,"booth_name":"Government Lower Primary School Right Side"},"geometry":{"type":"Point","coordinates":[76.45879,13.265337]}},{"type":"Feature","properties":{"state":"Karnataka","district":18,"district_n":"TUMKUR","pc":19,"pc_name":"Tumkur","ac":129,"ac_name":"Tiptur","booth":208,"booth_name":"Government Higher Primary School"},"geometry":{"type":"Point","coordinates":[76.5512,13.1657152]}},{"type":"Feature","properties":{"state":"Karnataka","district":18,"district_n":"TUMKUR","pc":19,"pc_name":"Tumkur","ac":129,"ac_name":"Tiptur","booth":211,"booth_name":"Government Lower Primary School"},"geometry":{"type":"Point","coordinates":[76.66473,13.0736618]}},{"type":"Feature","properties":{"state":"Karnataka","district":18,"district_n":"TUMKUR","pc":19,"pc_name":"Tumkur","ac":129,"ac_name":"Tiptur","booth":214,"booth_name":"Government Lower Primary School"},"geometry":{"type":"Point","coordinates":[76.5512,13.1657152]}},{"type":"Feature","properties":{"state":"Karnataka","district":18,"district_n":"TUMKUR","pc":19,"pc_name":"Tumkur","ac":129,"ac_name":"Tiptur","booth":217,"booth_name":"Government High School (north Wing)"},"geometry":{"type":"Point","coordinates":[76.5799255,13.1694965]}},{"type":"Feature","properties":{"state":"Karnataka","district":18,"district_n":"TUMKUR","pc":19,"pc_name":"Tumkur","ac":129,"ac_name":"Tiptur","booth":42,"booth_name":"Government Lower Primary School"},"geometry":{"type":"Point","coordinates":[76.45712,13.2653294]}},{"type":"Feature","properties":{"state":"Karnataka","district":18,"district_n":"TUMKUR","pc":19,"pc_name":"Tumkur","ac":129,"ac_name":"Tiptur","booth":199,"booth_name":"Government Higher Primary School"},"geometry":{"type":"Point","coordinates":[76.6664658,13.2922945]}},{"type":"Feature","properties":{"state":"Karnataka","district":18,"district_n":"TUMKUR","pc":19,"pc_name":"Tumkur","ac":129,"ac_name":"Tiptur","booth":36,"booth_name":"Government Higher Primary School"},"geometry":{"type":"Point","coordinates":[76.41723,13.3045588]}},{"type":"Feature","properties":{"state":"Karnataka","district":18,"district_n":"TUMKUR","pc":19,"pc_name":"Tumkur","ac":129,"ac_name":"Tiptur","booth":202,"booth_name":"Government Lower Primary School"},"geometry":{"type":"Point","coordinates":[76.55489,13.20206]}},{"type":"Feature","properties":{"state":"Karnataka","district":18,"district_n":"TUMKUR","pc":19,"pc_name":"Tumkur","ac":129,"ac_name":"Tiptur","booth":210,"booth_name":"Government Higher Primary School"},"geometry":{"type":"Point","coordinates":[76.4862,13.065733]}},{"type":"Feature","properties":{"state":"Karnataka","district":18,"district_n":"TUMKUR","pc":19,"pc_name":"Tumkur","ac":129,"ac_name":"Tiptur","booth":213,"booth_name":"Government Higher Primary School"},"geometry":{"type":"Point","coordinates":[76.5512,13.1657152]}},{"type":"Feature","properties":{"state":"Karnataka","district":18,"district_n":"TUMKUR","pc":19,"pc_name":"Tumkur","ac":129,"ac_name":"Tiptur","booth":216,"booth_name":"Government Higher Primary School"},"geometry":{"type":"Point","coordinates":[76.5799255,13.1694965]}},{"type":"Feature","properties":{"state":"Karnataka","district":18,"district_n":"TUMKUR","pc":19,"pc_name":"Tumkur","ac":129,"ac_name":"Tiptur","booth":219,"booth_name":"Government Higher Primary School"},"geometry":{"type":"Point","coordinates":[76.54687,13.1128759]}},{"type":"Feature","properties":{"state":"Karnataka","district":18,"district_n":"TUMKUR","pc":19,"pc_name":"Tumkur","ac":129,"ac_name":"Tiptur","booth":173,"booth_name":"Government Higher Primary School"},"geometry":{"type":"Point","coordinates":[76.53294,13.1704845]}},{"type":"Feature","properties":{"state":"Karnataka","district":18,"district_n":"TUMKUR","pc":19,"pc_name":"Tumkur","ac":129,"ac_name":"Tiptur","booth":167,"booth_name":"Government Higher Primary School"},"geometry":{"type":"Point","coordinates":[76.4854,13.1920147]}},{"type":"Feature","properties":{"state":"Karnataka","district":18,"district_n":"TUMKUR","pc":19,"pc_name":"Tumkur","ac":129,"ac_name":"Tiptur","booth":170,"booth_name":"Government Higher Primary School ( West Side )"},"geometry":{"type":"Point","coordinates":[76.46154,13.1838818]}},{"type":"Feature","properties":{"state":"Karnataka","district":18,"district_n":"TUMKUR","pc":19,"pc_name":"Tumkur","ac":129,"ac_name":"Tiptur","booth":182,"booth_name":"Government Higher Primary School"},"geometry":{"type":"Point","coordinates":[76.64317,13.3089085]}},{"type":"Feature","properties":{"state":"Karnataka","district":18,"district_n":"TUMKUR","pc":19,"pc_name":"Tumkur","ac":129,"ac_name":"Tiptur","booth":134,"booth_name":"Government Higher Primary School (right Side)"},"geometry":{"type":"Point","coordinates":[76.6156845,13.3141136]}},{"type":"Feature","properties":{"state":"Karnataka","district":18,"district_n":"TUMKUR","pc":19,"pc_name":"Tumkur","ac":129,"ac_name":"Tiptur","booth":174,"booth_name":"Government Higher Primary School"},"geometry":{"type":"Point","coordinates":[76.5948639,13.2504663]}},{"type":"Feature","properties":{"state":"Karnataka","district":18,"district_n":"TUMKUR","pc":19,"pc_name":"Tumkur","ac":129,"ac_name":"Tiptur","booth":45,"booth_name":"Government Higher Primary School"},"geometry":{"type":"Point","coordinates":[76.44267,13.2659874]}},{"type":"Feature","properties":{"state":"Karnataka","district":18,"district_n":"TUMKUR","pc":19,"pc_name":"Tumkur","ac":129,"ac_name":"Tiptur","booth":99,"booth_name":"Nagarasabha Library Building Vetarnary Hosipital Road"},"geometry":{"type":"Point","coordinates":[76.486,13.2578306]}},{"type":"Feature","properties":{"state":"Karnataka","district":18,"district_n":"TUMKUR","pc":19,"pc_name":"Tumkur","ac":129,"ac_name":"Tiptur","booth":44,"booth_name":"Government Lower Primary School"},"geometry":{"type":"Point","coordinates":[76.45712,13.2653294]}},{"type":"Feature","properties":{"state":"Karnataka","district":18,"district_n":"TUMKUR","pc":19,"pc_name":"Tumkur","ac":129,"ac_name":"Tiptur","booth":127,"booth_name":"Government Urdu Lower Primary School"},"geometry":{"type":"Point","coordinates":[76.42585,13.184783]}},{"type":"Feature","properties":{"state":"Karnataka","district":18,"district_n":"TUMKUR","pc":19,"pc_name":"Tumkur","ac":129,"ac_name":"Tiptur","booth":130,"booth_name":"Government Lower Primary School"},"geometry":{"type":"Point","coordinates":[76.4836,13.2437038]}},{"type":"Feature","properties":{"state":"Karnataka","district":18,"district_n":"TUMKUR","pc":19,"pc_name":"Tumkur","ac":129,"ac_name":"Tiptur","booth":133,"booth_name":"Government Higher Primary School"},"geometry":{"type":"Point","coordinates":[76.54763,13.3100786]}},{"type":"Feature","properties":{"state":"Karnataka","district":18,"district_n":"TUMKUR","pc":19,"pc_name":"Tumkur","ac":129,"ac_name":"Tiptur","booth":156,"booth_name":"Government Higher Primary School"},"geometry":{"type":"Point","coordinates":[76.56898,13.2736568]}},{"type":"Feature","properties":{"state":"Karnataka","district":18,"district_n":"TUMKUR","pc":19,"pc_name":"Tumkur","ac":129,"ac_name":"Tiptur","booth":145,"booth_name":"Government Higher Primary School"},"geometry":{"type":"Point","coordinates":[76.50905,13.2241268]}},{"type":"Feature","properties":{"state":"Karnataka","district":18,"district_n":"TUMKUR","pc":19,"pc_name":"Tumkur","ac":129,"ac_name":"Tiptur","booth":154,"booth_name":"Government Higher Primary School"},"geometry":{"type":"Point","coordinates":[76.5557861,13.2579813]}},{"type":"Feature","properties":{"state":"Karnataka","district":18,"district_n":"TUMKUR","pc":19,"pc_name":"Tumkur","ac":129,"ac_name":"Tiptur","booth":194,"booth_name":"Government Model Higher Primary School"},"geometry":{"type":"Point","coordinates":[76.53294,13.1704845]}},{"type":"Feature","properties":{"state":"Karnataka","district":18,"district_n":"TUMKUR","pc":19,"pc_name":"Tumkur","ac":129,"ac_name":"Tiptur","booth":197,"booth_name":"Government Higher Primary School"},"geometry":{"type":"Point","coordinates":[76.5518646,13.1785936]}},{"type":"Feature","properties":{"state":"Karnataka","district":18,"district_n":"TUMKUR","pc":19,"pc_name":"Tumkur","ac":129,"ac_name":"Tiptur","booth":193,"booth_name":"Government Higher Primary School"},"geometry":{"type":"Point","coordinates":[76.50059,13.12157]}},{"type":"Feature","properties":{"state":"Karnataka","district":18,"district_n":"TUMKUR","pc":19,"pc_name":"Tumkur","ac":129,"ac_name":"Tiptur","booth":196,"booth_name":"Government Higher Primary School"},"geometry":{"type":"Point","coordinates":[76.65922,13.2124557]}},{"type":"Feature","properties":{"state":"Karnataka","district":18,"district_n":"TUMKUR","pc":19,"pc_name":"Tumkur","ac":129,"ac_name":"Tiptur","booth":153,"booth_name":"Anganavadi Centre"},"geometry":{"type":"Point","coordinates":[76.52232,13.2383175]}},{"type":"Feature","properties":{"state":"Karnataka","district":18,"district_n":"TUMKUR","pc":19,"pc_name":"Tumkur","ac":129,"ac_name":"Tiptur","booth":139,"booth_name":"Government Model Higher Primary School (right Side)"},"geometry":{"type":"Point","coordinates":[76.5209656,13.27679]}},{"type":"Feature","properties":{"state":"Karnataka","district":18,"district_n":"TUMKUR","pc":19,"pc_name":"Tumkur","ac":129,"ac_name":"Tiptur","booth":159,"booth_name":"Government Lower Primary School"},"geometry":{"type":"Point","coordinates":[76.65476,13.3124762]}},{"type":"Feature","properties":{"state":"Karnataka","district":18,"district_n":"TUMKUR","pc":19,"pc_name":"Tumkur","ac":129,"ac_name":"Tiptur","booth":179,"booth_name":"Government Government Higher Primary School Rightside"},"geometry":{"type":"Point","coordinates":[76.61685,13.2538061]}},{"type":"Feature","properties":{"state":"Karnataka","district":18,"district_n":"TUMKUR","pc":19,"pc_name":"Tumkur","ac":129,"ac_name":"Tiptur","booth":84,"booth_name":"Government Girl's P U College near Shikshakara Bhavana"},"geometry":{"type":"Point","coordinates":[76.4727859,13.2608261]}},{"type":"Feature","properties":{"state":"Karnataka","district":18,"district_n":"TUMKUR","pc":19,"pc_name":"Tumkur","ac":129,"ac_name":"Tiptur","booth":87,"booth_name":"Government Boys P U College South Side"},"geometry":{"type":"Point","coordinates":[76.465126,13.2621651]}},{"type":"Feature","properties":{"state":"Karnataka","district":18,"district_n":"TUMKUR","pc":19,"pc_name":"Tumkur","ac":129,"ac_name":"Tiptur","booth":147,"booth_name":"Government Higher Primary School"},"geometry":{"type":"Point","coordinates":[76.43872,13.180666]}},{"type":"Feature","properties":{"state":"Karnataka","district":18,"district_n":"TUMKUR","pc":19,"pc_name":"Tumkur","ac":129,"ac_name":"Tiptur","booth":150,"booth_name":"Government Higher Primary School"},"geometry":{"type":"Point","coordinates":[76.50905,13.2241268]}},{"type":"Feature","properties":{"state":"Karnataka","district":18,"district_n":"TUMKUR","pc":19,"pc_name":"Tumkur","ac":129,"ac_name":"Tiptur","booth":190,"booth_name":"Government Lower Primary School"},"geometry":{"type":"Point","coordinates":[76.5298538,13.234623]}},{"type":"Feature","properties":{"state":"Karnataka","district":18,"district_n":"TUMKUR","pc":19,"pc_name":"Tumkur","ac":129,"ac_name":"Tiptur","booth":1,"booth_name":"Government Higher Primary School ( South Side)"},"geometry":{"type":"Point","coordinates":[76.3655243,13.3902779]}},{"type":"Feature","properties":{"state":"Karnataka","district":18,"district_n":"TUMKUR","pc":19,"pc_name":"Tumkur","ac":129,"ac_name":"Tiptur","booth":4,"booth_name":"Goverment Composite High School (north Side)"},"geometry":{"type":"Point","coordinates":[76.4460449,13.4015427]}},{"type":"Feature","properties":{"state":"Karnataka","district":18,"district_n":"TUMKUR","pc":19,"pc_name":"Tumkur","ac":129,"ac_name":"Tiptur","booth":7,"booth_name":"Government Higher Primary School"},"geometry":{"type":"Point","coordinates":[76.35737,13.3678007]}},{"type":"Feature","properties":{"state":"Karnataka","district":18,"district_n":"TUMKUR","pc":19,"pc_name":"Tumkur","ac":129,"ac_name":"Tiptur","booth":10,"booth_name":"Government Higher Primary School"},"geometry":{"type":"Point","coordinates":[76.3830948,13.3119926]}},{"type":"Feature","properties":{"state":"Karnataka","district":18,"district_n":"TUMKUR","pc":19,"pc_name":"Tumkur","ac":129,"ac_name":"Tiptur","booth":27,"booth_name":"Government Lower Primary School"},"geometry":{"type":"Point","coordinates":[76.37766,13.3027172]}},{"type":"Feature","properties":{"state":"Karnataka","district":18,"district_n":"TUMKUR","pc":19,"pc_name":"Tumkur","ac":129,"ac_name":"Tiptur","booth":33,"booth_name":"Government Higher Primary School New Building Entrens"},"geometry":{"type":"Point","coordinates":[76.3859558,13.296813]}},{"type":"Feature","properties":{"state":"Karnataka","district":18,"district_n":"TUMKUR","pc":19,"pc_name":"Tumkur","ac":129,"ac_name":"Tiptur","booth":47,"booth_name":"Government Lower Primary School"},"geometry":{"type":"Point","coordinates":[76.40519,13.2619057]}},{"type":"Feature","properties":{"state":"Karnataka","district":18,"district_n":"TUMKUR","pc":19,"pc_name":"Tumkur","ac":129,"ac_name":"Tiptur","booth":13,"booth_name":"Government P U U College (south Wing)"},"geometry":{"type":"Point","coordinates":[76.38908,13.3268671]}},{"type":"Feature","properties":{"state":"Karnataka","district":18,"district_n":"TUMKUR","pc":19,"pc_name":"Tumkur","ac":129,"ac_name":"Tiptur","booth":64,"booth_name":"Government Higher Primary School"},"geometry":{"type":"Point","coordinates":[76.39727,13.2315645]}},{"type":"Feature","properties":{"state":"Karnataka","district":18,"district_n":"TUMKUR","pc":19,"pc_name":"Tumkur","ac":129,"ac_name":"Tiptur","booth":30,"booth_name":"Government Model Higher Primary School ( North Side )"},"geometry":{"type":"Point","coordinates":[76.47705,13.3461065]}},{"type":"Feature","properties":{"state":"Karnataka","district":18,"district_n":"TUMKUR","pc":19,"pc_name":"Tumkur","ac":129,"ac_name":"Tiptur","booth":73,"booth_name":"Government Model Higher Primary School near Arali Katte"},"geometry":{"type":"Point","coordinates":[76.45879,13.265337]}},{"type":"Feature","properties":{"state":"Karnataka","district":18,"district_n":"TUMKUR","pc":19,"pc_name":"Tumkur","ac":129,"ac_name":"Tiptur","booth":76,"booth_name":"Padma Higher Primary School B H Road"},"geometry":{"type":"Point","coordinates":[76.47427,13.2611418]}},{"type":"Feature","properties":{"state":"Karnataka","district":18,"district_n":"TUMKUR","pc":19,"pc_name":"Tumkur","ac":129,"ac_name":"Tiptur","booth":96,"booth_name":"Nagara Sabha Office Building"},"geometry":{"type":"Point","coordinates":[76.4756,13.2607021]}},{"type":"Feature","properties":{"state":"Karnataka","district":18,"district_n":"TUMKUR","pc":19,"pc_name":"Tumkur","ac":129,"ac_name":"Tiptur","booth":107,"booth_name":"Allameen Urdu High School Chamundeshwari Extaition Room No"},"geometry":{"type":"Point","coordinates":[76.47397,13.2517948]}},{"type":"Feature","properties":{"state":"Karnataka","district":18,"district_n":"TUMKUR","pc":19,"pc_name":"Tumkur","ac":129,"ac_name":"Tiptur","booth":116,"booth_name":"Government Lower Primary School"},"geometry":{"type":"Point","coordinates":[76.483345,13.2760067]}},{"type":"Feature","properties":{"state":"Karnataka","district":18,"district_n":"TUMKUR","pc":19,"pc_name":"Tumkur","ac":129,"ac_name":"Tiptur","booth":119,"booth_name":"Ashrama School"},"geometry":{"type":"Point","coordinates":[76.5082,13.2698917]}},{"type":"Feature","properties":{"state":"Karnataka","district":18,"district_n":"TUMKUR","pc":19,"pc_name":"Tumkur","ac":129,"ac_name":"Tiptur","booth":136,"booth_name":"Government Lower Primary School"},"geometry":{"type":"Point","coordinates":[76.55133,13.283742]}}]}