{"type":"FeatureCollection","features":[{"type":"Feature","properties":{"state":"Karnataka","district":19,"district_n":"CHIKKABALLAPUR","pc":28,"pc_name":"Kolar","ac":143,"ac_name":"Chintamani","booth":1,"booth_name":"Ankalamadugu"},"geometry":{"type":"Point","coordinates":[78.11809,13.65019]}},{"type":"Feature","properties":{"state":"Karnataka","district":19,"district_n":"CHIKKABALLAPUR","pc":28,"pc_name":"Kolar","ac":143,"ac_name":"Chintamani","booth":2,"booth_name":"Billandlahalli"},"geometry":{"type":"Point","coordinates":[78.13489,13.6413107]}},{"type":"Feature","properties":{"state":"Karnataka","district":19,"district_n":"CHIKKABALLAPUR","pc":28,"pc_name":"Kolar","ac":143,"ac_name":"Chintamani","booth":3,"booth_name":"Sunnapagutta"},"geometry":{"type":"Point","coordinates":[78.13855,13.6230717]}},{"type":"Feature","properties":{"state":"Karnataka","district":19,"district_n":"CHIKKABALLAPUR","pc":28,"pc_name":"Kolar","ac":143,"ac_name":"Chintamani","booth":4,"booth_name":"Kadadalamari"},"geometry":{"type":"Point","coordinates":[78.12379,13.6341791]}},{"type":"Feature","properties":{"state":"Karnataka","district":19,"district_n":"CHIKKABALLAPUR","pc":28,"pc_name":"Kolar","ac":143,"ac_name":"Chintamani","booth":5,"booth_name":"Hanumayyagarahalli"},"geometry":{"type":"Point","coordinates":[78.13719,13.6154308]}},{"type":"Feature","properties":{"state":"Karnataka","district":19,"district_n":"CHIKKABALLAPUR","pc":28,"pc_name":"Kolar","ac":143,"ac_name":"Chintamani","booth":6,"booth_name":"Yanamalapadi"},"geometry":{"type":"Point","coordinates":[78.1874161,13.6101217]}},{"type":"Feature","properties":{"state":"Karnataka","district":19,"district_n":"CHIKKABALLAPUR","pc":28,"pc_name":"Kolar","ac":143,"ac_name":"Chintamani","booth":7,"booth_name":"Yanamalapadi"},"geometry":{"type":"Point","coordinates":[78.18737,13.6102257]}},{"type":"Feature","properties":{"state":"Karnataka","district":19,"district_n":"CHIKKABALLAPUR","pc":28,"pc_name":"Kolar","ac":143,"ac_name":"Chintamani","booth":8,"booth_name":"Channarayanahalli"},"geometry":{"type":"Point","coordinates":[78.16929,13.6032276]}},{"type":"Feature","properties":{"state":"Karnataka","district":19,"district_n":"CHIKKABALLAPUR","pc":28,"pc_name":"Kolar","ac":143,"ac_name":"Chintamani","booth":9,"booth_name":"Kambalahali"},"geometry":{"type":"Point","coordinates":[78.18318,13.5985146]}},{"type":"Feature","properties":{"state":"Karnataka","district":19,"district_n":"CHIKKABALLAPUR","pc":28,"pc_name":"Kolar","ac":143,"ac_name":"Chintamani","booth":10,"booth_name":"Munganahali"},"geometry":{"type":"Point","coordinates":[78.1769943,13.5872583]}},{"type":"Feature","properties":{"state":"Karnataka","district":19,"district_n":"CHIKKABALLAPUR","pc":28,"pc_name":"Kolar","ac":143,"ac_name":"Chintamani","booth":11,"booth_name":"Batlahalli"},"geometry":{"type":"Point","coordinates":[78.1355,13.5829744]}},{"type":"Feature","properties":{"state":"Karnataka","district":19,"district_n":"CHIKKABALLAPUR","pc":28,"pc_name":"Kolar","ac":143,"ac_name":"Chintamani","booth":12,"booth_name":"Batlahalli"},"geometry":{"type":"Point","coordinates":[78.13618,13.5821724]}},{"type":"Feature","properties":{"state":"Karnataka","district":19,"district_n":"CHIKKABALLAPUR","pc":28,"pc_name":"Kolar","ac":143,"ac_name":"Chintamani","booth":13,"booth_name":"Kodigal"},"geometry":{"type":"Point","coordinates":[78.1201,13.6005192]}},{"type":"Feature","properties":{"state":"Karnataka","district":19,"district_n":"CHIKKABALLAPUR","pc":28,"pc_name":"Kolar","ac":143,"ac_name":"Chintamani","booth":14,"booth_name":"Mavukere"},"geometry":{"type":"Point","coordinates":[78.12268,13.5898752]}},{"type":"Feature","properties":{"state":"Karnataka","district":19,"district_n":"CHIKKABALLAPUR","pc":28,"pc_name":"Kolar","ac":143,"ac_name":"Chintamani","booth":15,"booth_name":"Yasagalahalli"},"geometry":{"type":"Point","coordinates":[78.11434,13.5736713]}},{"type":"Feature","properties":{"state":"Karnataka","district":19,"district_n":"CHIKKABALLAPUR","pc":28,"pc_name":"Kolar","ac":143,"ac_name":"Chintamani","booth":16,"booth_name":"Konappalli"},"geometry":{"type":"Point","coordinates":[78.10065,13.5843449]}},{"type":"Feature","properties":{"state":"Karnataka","district":19,"district_n":"CHIKKABALLAPUR","pc":28,"pc_name":"Kolar","ac":143,"ac_name":"Chintamani","booth":17,"booth_name":"Bramhanahalli"},"geometry":{"type":"Point","coordinates":[78.10897,13.558135]}},{"type":"Feature","properties":{"state":"Karnataka","district":19,"district_n":"CHIKKABALLAPUR","pc":28,"pc_name":"Kolar","ac":143,"ac_name":"Chintamani","booth":18,"booth_name":"Madamangala"},"geometry":{"type":"Point","coordinates":[78.1072845,13.57286]}},{"type":"Feature","properties":{"state":"Karnataka","district":19,"district_n":"CHIKKABALLAPUR","pc":28,"pc_name":"Kolar","ac":143,"ac_name":"Chintamani","booth":19,"booth_name":"Raguttahalli 1"},"geometry":{"type":"Point","coordinates":[78.12553,13.5621376]}},{"type":"Feature","properties":{"state":"Karnataka","district":19,"district_n":"CHIKKABALLAPUR","pc":28,"pc_name":"Kolar","ac":143,"ac_name":"Chintamani","booth":20,"booth_name":"Raguttahalli 2"},"geometry":{"type":"Point","coordinates":[78.1255951,13.5622082]}},{"type":"Feature","properties":{"state":"Karnataka","district":19,"district_n":"CHIKKABALLAPUR","pc":28,"pc_name":"Kolar","ac":143,"ac_name":"Chintamani","booth":21,"booth_name":"Venkatarayanakote"},"geometry":{"type":"Point","coordinates":[78.16149,13.5363178]}},{"type":"Feature","properties":{"state":"Karnataka","district":19,"district_n":"CHIKKABALLAPUR","pc":28,"pc_name":"Kolar","ac":143,"ac_name":"Chintamani","booth":22,"booth_name":"Devappalli"},"geometry":{"type":"Point","coordinates":[78.17916,13.5683765]}},{"type":"Feature","properties":{"state":"Karnataka","district":19,"district_n":"CHIKKABALLAPUR","pc":28,"pc_name":"Kolar","ac":143,"ac_name":"Chintamani","booth":23,"booth_name":"Kondliganahalli"},"geometry":{"type":"Point","coordinates":[78.1796646,13.553031]}},{"type":"Feature","properties":{"state":"Karnataka","district":19,"district_n":"CHIKKABALLAPUR","pc":28,"pc_name":"Kolar","ac":143,"ac_name":"Chintamani","booth":24,"booth_name":"Guttapalya"},"geometry":{"type":"Point","coordinates":[78.19964,13.3294306]}},{"type":"Feature","properties":{"state":"Karnataka","district":19,"district_n":"CHIKKABALLAPUR","pc":28,"pc_name":"Kolar","ac":143,"ac_name":"Chintamani","booth":25,"booth_name":"Nagarajahalli"},"geometry":{"type":"Point","coordinates":[78.1775742,13.520298]}},{"type":"Feature","properties":{"state":"Karnataka","district":19,"district_n":"CHIKKABALLAPUR","pc":28,"pc_name":"Kolar","ac":143,"ac_name":"Chintamani","booth":26,"booth_name":"Mudalagollahalli"},"geometry":{"type":"Point","coordinates":[78.17007,13.5534363]}},{"type":"Feature","properties":{"state":"Karnataka","district":19,"district_n":"CHIKKABALLAPUR","pc":28,"pc_name":"Kolar","ac":143,"ac_name":"Chintamani","booth":27,"booth_name":"Iragampalli 1"},"geometry":{"type":"Point","coordinates":[78.1313858,13.5375023]}},{"type":"Feature","properties":{"state":"Karnataka","district":19,"district_n":"CHIKKABALLAPUR","pc":28,"pc_name":"Kolar","ac":143,"ac_name":"Chintamani","booth":28,"booth_name":"Iragampalli 2"},"geometry":{"type":"Point","coordinates":[78.13112,13.5372028]}},{"type":"Feature","properties":{"state":"Karnataka","district":19,"district_n":"CHIKKABALLAPUR","pc":28,"pc_name":"Kolar","ac":143,"ac_name":"Chintamani","booth":29,"booth_name":"Iragampalli 3"},"geometry":{"type":"Point","coordinates":[78.13017,13.53404]}},{"type":"Feature","properties":{"state":"Karnataka","district":19,"district_n":"CHIKKABALLAPUR","pc":28,"pc_name":"Kolar","ac":143,"ac_name":"Chintamani","booth":30,"booth_name":"Seetaramapaura"},"geometry":{"type":"Point","coordinates":[78.11514,13.5436974]}},{"type":"Feature","properties":{"state":"Karnataka","district":19,"district_n":"CHIKKABALLAPUR","pc":28,"pc_name":"Kolar","ac":143,"ac_name":"Chintamani","booth":31,"booth_name":"Mindigal"},"geometry":{"type":"Point","coordinates":[78.09509,13.5233507]}},{"type":"Feature","properties":{"state":"Karnataka","district":19,"district_n":"CHIKKABALLAPUR","pc":28,"pc_name":"Kolar","ac":143,"ac_name":"Chintamani","booth":32,"booth_name":"Nallarallahalli"},"geometry":{"type":"Point","coordinates":[78.09378,13.5120163]}},{"type":"Feature","properties":{"state":"Karnataka","district":19,"district_n":"CHIKKABALLAPUR","pc":28,"pc_name":"Kolar","ac":143,"ac_name":"Chintamani","booth":33,"booth_name":"Gutturu"},"geometry":{"type":"Point","coordinates":[78.08361,13.5232821]}},{"type":"Feature","properties":{"state":"Karnataka","district":19,"district_n":"CHIKKABALLAPUR","pc":28,"pc_name":"Kolar","ac":143,"ac_name":"Chintamani","booth":34,"booth_name":"Battalahalli"},"geometry":{"type":"Point","coordinates":[78.10255,13.3093348]}},{"type":"Feature","properties":{"state":"Karnataka","district":19,"district_n":"CHIKKABALLAPUR","pc":28,"pc_name":"Kolar","ac":143,"ac_name":"Chintamani","booth":35,"booth_name":"Junjanahalli"},"geometry":{"type":"Point","coordinates":[78.1327744,13.3140192]}},{"type":"Feature","properties":{"state":"Karnataka","district":19,"district_n":"CHIKKABALLAPUR","pc":28,"pc_name":"Kolar","ac":143,"ac_name":"Chintamani","booth":36,"booth_name":"Naravamakalahalli"},"geometry":{"type":"Point","coordinates":[78.13192,13.5086269]}},{"type":"Feature","properties":{"state":"Karnataka","district":19,"district_n":"CHIKKABALLAPUR","pc":28,"pc_name":"Kolar","ac":143,"ac_name":"Chintamani","booth":37,"booth_name":"Kondavenukapalli"},"geometry":{"type":"Point","coordinates":[78.14081,13.4947739]}},{"type":"Feature","properties":{"state":"Karnataka","district":19,"district_n":"CHIKKABALLAPUR","pc":28,"pc_name":"Kolar","ac":143,"ac_name":"Chintamani","booth":38,"booth_name":"Yarrayyagaripalli"},"geometry":{"type":"Point","coordinates":[78.15597,13.49035]}}]}