{"type":"FeatureCollection","features":[{"type":"Feature","properties":{"state":"Karnataka","district":31,"district_n":"B.B.M.P(CENTRAL)","pc":23,"pc_name":"Bangalore Rural","ac":154,"ac_name":"Rajarajeshwarinagar","booth":268,"booth_name":"Govt Govt Higher Primary School,bangarappa Nagar , Hosakerehalli, Room No 3"},"geometry":{"type":"Point","coordinates":[77.5279846,12.9252357]}},{"type":"Feature","properties":{"state":"Karnataka","district":31,"district_n":"B.B.M.P(CENTRAL)","pc":23,"pc_name":"Bangalore Rural","ac":154,"ac_name":"Rajarajeshwarinagar","booth":269,"booth_name":"Govt Govt Higher Primary School,bangarappa Nagar , Hosakerehalli, Room No 4"},"geometry":{"type":"Point","coordinates":[77.52794,12.9251595]}},{"type":"Feature","properties":{"state":"Karnataka","district":31,"district_n":"B.B.M.P(CENTRAL)","pc":23,"pc_name":"Bangalore Rural","ac":154,"ac_name":"Rajarajeshwarinagar","booth":270,"booth_name":"Bet Convent, Beml Layout, 3rd Stage,room No 1"},"geometry":{"type":"Point","coordinates":[77.52814,12.9250574]}},{"type":"Feature","properties":{"state":"Karnataka","district":31,"district_n":"B.B.M.P(CENTRAL)","pc":23,"pc_name":"Bangalore Rural","ac":154,"ac_name":"Rajarajeshwarinagar","booth":271,"booth_name":"Bet Convent, Beml Layout, 3rd Stage,room No 3"},"geometry":{"type":"Point","coordinates":[77.52149,12.9076385]}},{"type":"Feature","properties":{"state":"Karnataka","district":31,"district_n":"B.B.M.P(CENTRAL)","pc":23,"pc_name":"Bangalore Rural","ac":154,"ac_name":"Rajarajeshwarinagar","booth":272,"booth_name":"B E T T Convent Beml Layout, Room No 5"},"geometry":{"type":"Point","coordinates":[77.52156,12.9092464]}},{"type":"Feature","properties":{"state":"Karnataka","district":31,"district_n":"B.B.M.P(CENTRAL)","pc":23,"pc_name":"Bangalore Rural","ac":154,"ac_name":"Rajarajeshwarinagar","booth":273,"booth_name":"B E T T Convent,beml Layout,room No 7"},"geometry":{"type":"Point","coordinates":[77.5215454,12.9209576]}},{"type":"Feature","properties":{"state":"Karnataka","district":31,"district_n":"B.B.M.P(CENTRAL)","pc":23,"pc_name":"Bangalore Rural","ac":154,"ac_name":"Rajarajeshwarinagar","booth":274,"booth_name":"B E T T Convent,beml Layout,room No 8"},"geometry":{"type":"Point","coordinates":[77.52147,12.92099]}},{"type":"Feature","properties":{"state":"Karnataka","district":31,"district_n":"B.B.M.P(CENTRAL)","pc":23,"pc_name":"Bangalore Rural","ac":154,"ac_name":"Rajarajeshwarinagar","booth":275,"booth_name":"New Horizon Public School, Beml Layout, 5th Stage, Rajarajeshwarinagar, Bangalore, Room No 1"},"geometry":{"type":"Point","coordinates":[77.52149,12.9210234]}},{"type":"Feature","properties":{"state":"Karnataka","district":31,"district_n":"B.B.M.P(CENTRAL)","pc":23,"pc_name":"Bangalore Rural","ac":154,"ac_name":"Rajarajeshwarinagar","booth":276,"booth_name":"New Horizon Public School, Beml Layout, 5th Stage, Rajarajeshwarinagar, Bangalore, Room No 3"},"geometry":{"type":"Point","coordinates":[77.52146,12.9210138]}},{"type":"Feature","properties":{"state":"Karnataka","district":31,"district_n":"B.B.M.P(CENTRAL)","pc":23,"pc_name":"Bangalore Rural","ac":154,"ac_name":"Rajarajeshwarinagar","booth":277,"booth_name":"New Horizon Public School, Beml Layout, 5th Stage, Rajarajeshwarinagar, Bangalore, Room No 5"},"geometry":{"type":"Point","coordinates":[77.52138,12.9211226]}},{"type":"Feature","properties":{"state":"Karnataka","district":31,"district_n":"B.B.M.P(CENTRAL)","pc":23,"pc_name":"Bangalore Rural","ac":154,"ac_name":"Rajarajeshwarinagar","booth":278,"booth_name":"New Horizon Public School, Beml Layout, 5th Stage Rajarajeshwarinagar, room No 6"},"geometry":{"type":"Point","coordinates":[77.5212,12.9212446]}},{"type":"Feature","properties":{"state":"Karnataka","district":31,"district_n":"B.B.M.P(CENTRAL)","pc":23,"pc_name":"Bangalore Rural","ac":154,"ac_name":"Rajarajeshwarinagar","booth":279,"booth_name":"New Horizon Public School, Beml Layout, 5th Stage Rajarajeshwarinagar, Room No 7"},"geometry":{"type":"Point","coordinates":[77.52117,12.920969]}},{"type":"Feature","properties":{"state":"Karnataka","district":31,"district_n":"B.B.M.P(CENTRAL)","pc":23,"pc_name":"Bangalore Rural","ac":154,"ac_name":"Rajarajeshwarinagar","booth":280,"booth_name":"Govt Govt Higher Primary School, Halagevaderahalli,a, Room No 1"},"geometry":{"type":"Point","coordinates":[77.5211639,12.9209232]}},{"type":"Feature","properties":{"state":"Karnataka","district":31,"district_n":"B.B.M.P(CENTRAL)","pc":23,"pc_name":"Bangalore Rural","ac":154,"ac_name":"Rajarajeshwarinagar","booth":281,"booth_name":"Govt Govt Higher Primary School, Halagevaderahalli,a, Room No 3"},"geometry":{"type":"Point","coordinates":[77.51444,12.9188137]}},{"type":"Feature","properties":{"state":"Karnataka","district":31,"district_n":"B.B.M.P(CENTRAL)","pc":23,"pc_name":"Bangalore Rural","ac":154,"ac_name":"Rajarajeshwarinagar","booth":282,"booth_name":"Govt Govt Higher Primary School, Halagevaderahalli,a, Room No 4"},"geometry":{"type":"Point","coordinates":[77.51453,12.9188967]}},{"type":"Feature","properties":{"state":"Karnataka","district":31,"district_n":"B.B.M.P(CENTRAL)","pc":23,"pc_name":"Bangalore Rural","ac":154,"ac_name":"Rajarajeshwarinagar","booth":283,"booth_name":"Govt Govt Higher Primary School, Channasandra, Room No 1"},"geometry":{"type":"Point","coordinates":[77.51453,12.9188128]}},{"type":"Feature","properties":{"state":"Karnataka","district":31,"district_n":"B.B.M.P(CENTRAL)","pc":23,"pc_name":"Bangalore Rural","ac":154,"ac_name":"Rajarajeshwarinagar","booth":284,"booth_name":"Govt Govt Higher Higher Primary School, Channasandra, Room No 2"},"geometry":{"type":"Point","coordinates":[77.52189,12.9023619]}},{"type":"Feature","properties":{"state":"Karnataka","district":31,"district_n":"B.B.M.P(CENTRAL)","pc":23,"pc_name":"Bangalore Rural","ac":154,"ac_name":"Rajarajeshwarinagar","booth":285,"booth_name":"Govt Govt Higher Primary School, Channasandra, Room No 3"},"geometry":{"type":"Point","coordinates":[77.52156,12.902298]}},{"type":"Feature","properties":{"state":"Karnataka","district":31,"district_n":"B.B.M.P(CENTRAL)","pc":23,"pc_name":"Bangalore Rural","ac":154,"ac_name":"Rajarajeshwarinagar","booth":286,"booth_name":"Govt Govt Higher Primary School, Channasandra, Room No 4"},"geometry":{"type":"Point","coordinates":[77.52189,12.90226]}},{"type":"Feature","properties":{"state":"Karnataka","district":31,"district_n":"B.B.M.P(CENTRAL)","pc":23,"pc_name":"Bangalore Rural","ac":154,"ac_name":"Rajarajeshwarinagar","booth":88,"booth_name":"Vinoda English School, 2nd Cross, 2nd Block, Goragunte Palya, Room No 1"},"geometry":{"type":"Point","coordinates":[77.537384,13.0274525]}},{"type":"Feature","properties":{"state":"Karnataka","district":31,"district_n":"B.B.M.P(CENTRAL)","pc":23,"pc_name":"Bangalore Rural","ac":154,"ac_name":"Rajarajeshwarinagar","booth":89,"booth_name":"Sathvik Vidya Mandira, 2nd Main Road, 2nd Block, Goragunte Palya, Room No 1"},"geometry":{"type":"Point","coordinates":[77.53821,13.0265093]}},{"type":"Feature","properties":{"state":"Karnataka","district":31,"district_n":"B.B.M.P(CENTRAL)","pc":23,"pc_name":"Bangalore Rural","ac":154,"ac_name":"Rajarajeshwarinagar","booth":90,"booth_name":"Sathvik Vidya Mandira,2nd Main Road, 2nd Block, Goragunte Palya, Palya, Room No 2"},"geometry":{"type":"Point","coordinates":[77.5382,13.0265074]}},{"type":"Feature","properties":{"state":"Karnataka","district":31,"district_n":"B.B.M.P(CENTRAL)","pc":23,"pc_name":"Bangalore Rural","ac":154,"ac_name":"Rajarajeshwarinagar","booth":91,"booth_name":"B B M P Ward Office, Sathyanarayana Temple, Goragunte Palya"},"geometry":{"type":"Point","coordinates":[77.53669,13.0239649]}},{"type":"Feature","properties":{"state":"Karnataka","district":31,"district_n":"B.B.M.P(CENTRAL)","pc":23,"pc_name":"Bangalore Rural","ac":154,"ac_name":"Rajarajeshwarinagar","booth":92,"booth_name":"Govt Primary School, School, Sanjaya Gandhi Nagara, Laggere, Room No 1"},"geometry":{"type":"Point","coordinates":[77.52682,13.0206861]}},{"type":"Feature","properties":{"state":"Karnataka","district":31,"district_n":"B.B.M.P(CENTRAL)","pc":23,"pc_name":"Bangalore Rural","ac":154,"ac_name":"Rajarajeshwarinagar","booth":93,"booth_name":"Govt Govt Primary School , Sanjaya Gandi Nagra, Laggere, Room No 2"},"geometry":{"type":"Point","coordinates":[77.52681,13.0207043]}},{"type":"Feature","properties":{"state":"Karnataka","district":31,"district_n":"B.B.M.P(CENTRAL)","pc":23,"pc_name":"Bangalore Rural","ac":154,"ac_name":"Rajarajeshwarinagar","booth":94,"booth_name":"Veena Vidya Samsthe, Laxmi Devi Nagara, Laggere, Room No 1"},"geometry":{"type":"Point","coordinates":[77.5263748,13.0186291]}},{"type":"Feature","properties":{"state":"Karnataka","district":31,"district_n":"B.B.M.P(CENTRAL)","pc":23,"pc_name":"Bangalore Rural","ac":154,"ac_name":"Rajarajeshwarinagar","booth":95,"booth_name":"Veena Vidya Samsthe, Laxmi Devi Nagara, Laggere, Laggere, Room No 3"},"geometry":{"type":"Point","coordinates":[77.52638,13.0186167]}},{"type":"Feature","properties":{"state":"Karnataka","district":31,"district_n":"B.B.M.P(CENTRAL)","pc":23,"pc_name":"Bangalore Rural","ac":154,"ac_name":"Rajarajeshwarinagar","booth":96,"booth_name":"Veena Vidya Samsthe, Laxmi Devi Nagara, Laggere, Laggere, Room No 4"},"geometry":{"type":"Point","coordinates":[77.5264053,13.0186434]}},{"type":"Feature","properties":{"state":"Karnataka","district":31,"district_n":"B.B.M.P(CENTRAL)","pc":23,"pc_name":"Bangalore Rural","ac":154,"ac_name":"Rajarajeshwarinagar","booth":97,"booth_name":"Gnanavahini Gnanavahini Public School, 6th Main, 3rd Block, Nandini Layout, Room No 1"},"geometry":{"type":"Point","coordinates":[77.5309448,13.0177145]}},{"type":"Feature","properties":{"state":"Karnataka","district":31,"district_n":"B.B.M.P(CENTRAL)","pc":23,"pc_name":"Bangalore Rural","ac":154,"ac_name":"Rajarajeshwarinagar","booth":98,"booth_name":"Gnanavahini Gnanavahini Public School, 6th Main, 3rd Block, Nandini Layout, Layout, Room No 2"},"geometry":{"type":"Point","coordinates":[77.53088,13.0176754]}},{"type":"Feature","properties":{"state":"Karnataka","district":31,"district_n":"B.B.M.P(CENTRAL)","pc":23,"pc_name":"Bangalore Rural","ac":154,"ac_name":"Rajarajeshwarinagar","booth":99,"booth_name":"Raghuram Kannada School, 3rd Block, 4th Cross, Nandini Layout, Room No 1"},"geometry":{"type":"Point","coordinates":[77.53018,13.0161924]}},{"type":"Feature","properties":{"state":"Karnataka","district":31,"district_n":"B.B.M.P(CENTRAL)","pc":23,"pc_name":"Bangalore Rural","ac":154,"ac_name":"Rajarajeshwarinagar","booth":100,"booth_name":"Raghuram Kannada School, 3rd Block, 4th Cross, Nandini Layout, Room No 2"},"geometry":{"type":"Point","coordinates":[77.5302353,13.0161924]}},{"type":"Feature","properties":{"state":"Karnataka","district":31,"district_n":"B.B.M.P(CENTRAL)","pc":23,"pc_name":"Bangalore Rural","ac":154,"ac_name":"Rajarajeshwarinagar","booth":101,"booth_name":"Childerns School, L I C Colony, Room No 4"},"geometry":{"type":"Point","coordinates":[77.55305,13.0308971]}},{"type":"Feature","properties":{"state":"Karnataka","district":31,"district_n":"B.B.M.P(CENTRAL)","pc":23,"pc_name":"Bangalore Rural","ac":154,"ac_name":"Rajarajeshwarinagar","booth":102,"booth_name":"Govt Higher Primary School, Vyayama Shale, Anjanaya Temple Stree, yeshwanthpura, Room No No 1"},"geometry":{"type":"Point","coordinates":[77.5538559,13.0212212]}},{"type":"Feature","properties":{"state":"Karnataka","district":31,"district_n":"B.B.M.P(CENTRAL)","pc":23,"pc_name":"Bangalore Rural","ac":154,"ac_name":"Rajarajeshwarinagar","booth":103,"booth_name":"Govt Higher primary School, Vyayama Shale, Anjanaya Temple Street, Yeshwanthpur Room No No 3"},"geometry":{"type":"Point","coordinates":[77.5538,13.0212536]}},{"type":"Feature","properties":{"state":"Karnataka","district":31,"district_n":"B.B.M.P(CENTRAL)","pc":23,"pc_name":"Bangalore Rural","ac":154,"ac_name":"Rajarajeshwarinagar","booth":104,"booth_name":"L C R R English Nursery & Primary School, 11th Cross, Gokula, 1st Stage, 1st Phase, Room No 1"},"geometry":{"type":"Point","coordinates":[77.5564957,13.0277672]}},{"type":"Feature","properties":{"state":"Karnataka","district":31,"district_n":"B.B.M.P(CENTRAL)","pc":23,"pc_name":"Bangalore Rural","ac":154,"ac_name":"Rajarajeshwarinagar","booth":105,"booth_name":"L C R English Nursery & Primary School, 11th Cross, Gokula, 1st Stage, 1st Phase, Room No 2"},"geometry":{"type":"Point","coordinates":[77.55651,13.0277605]}},{"type":"Feature","properties":{"state":"Karnataka","district":31,"district_n":"B.B.M.P(CENTRAL)","pc":23,"pc_name":"Bangalore Rural","ac":154,"ac_name":"Rajarajeshwarinagar","booth":184,"booth_name":"Bbmp Tailoring Center, 1st A Main Road, Pipe Line Road, Premanagara, Laggere, Bangalore Bangalore 58, Room No No 1"},"geometry":{"type":"Point","coordinates":[77.52116,12.9991665]}},{"type":"Feature","properties":{"state":"Karnataka","district":31,"district_n":"B.B.M.P(CENTRAL)","pc":23,"pc_name":"Bangalore Rural","ac":154,"ac_name":"Rajarajeshwarinagar","booth":185,"booth_name":"Temparary Shed, at adjacent to Bbmp Tailoring Centre 1st A main Road, pipe Line, Premanagara, Laggere, Bangalore Bangalore 58, Room No 2"},"geometry":{"type":"Point","coordinates":[77.5268555,13.0018625]}},{"type":"Feature","properties":{"state":"Karnataka","district":31,"district_n":"B.B.M.P(CENTRAL)","pc":23,"pc_name":"Bangalore Rural","ac":154,"ac_name":"Rajarajeshwarinagar","booth":186,"booth_name":"Doddanna Vidya Samsthe Magadi Main Road Srigandhada Kavalu Sunkada katte Room No 1"},"geometry":{"type":"Point","coordinates":[77.52677,13.00181]}},{"type":"Feature","properties":{"state":"Karnataka","district":31,"district_n":"B.B.M.P(CENTRAL)","pc":23,"pc_name":"Bangalore Rural","ac":154,"ac_name":"Rajarajeshwarinagar","booth":187,"booth_name":"Vidyaniketan English School, Srigandhada Kavalu Sunkada katte, Room No 1"},"geometry":{"type":"Point","coordinates":[77.5058746,12.9953823]}},{"type":"Feature","properties":{"state":"Karnataka","district":31,"district_n":"B.B.M.P(CENTRAL)","pc":23,"pc_name":"Bangalore Rural","ac":154,"ac_name":"Rajarajeshwarinagar","booth":188,"booth_name":"Vidyaniketan English School, Srigandhada Kavalu Sunkada katte, Room No 2"},"geometry":{"type":"Point","coordinates":[77.50573,12.9954185]}},{"type":"Feature","properties":{"state":"Karnataka","district":31,"district_n":"B.B.M.P(CENTRAL)","pc":23,"pc_name":"Bangalore Rural","ac":154,"ac_name":"Rajarajeshwarinagar","booth":189,"booth_name":"Govt Govt Higher Primay School, Srigandhada Kavalu Sunkada katte, Near Sollapuradamma Temple,room No 1"},"geometry":{"type":"Point","coordinates":[77.5058,12.9953356]}},{"type":"Feature","properties":{"state":"Karnataka","district":31,"district_n":"B.B.M.P(CENTRAL)","pc":23,"pc_name":"Bangalore Rural","ac":154,"ac_name":"Rajarajeshwarinagar","booth":190,"booth_name":"Govt Govt Higher Primay School, Srigandhada Kavalu Sunkada katte, Near Sollapuradamma Temple,room No 2"},"geometry":{"type":"Point","coordinates":[77.50465,12.9944592]}},{"type":"Feature","properties":{"state":"Karnataka","district":31,"district_n":"B.B.M.P(CENTRAL)","pc":23,"pc_name":"Bangalore Rural","ac":154,"ac_name":"Rajarajeshwarinagar","booth":191,"booth_name":"Doddanna Vidya Samsthe,magadi Main Road,srigandhada Kavalu,sunkada katte,room No 3"},"geometry":{"type":"Point","coordinates":[77.50459,12.9944315]}},{"type":"Feature","properties":{"state":"Karnataka","district":31,"district_n":"B.B.M.P(CENTRAL)","pc":23,"pc_name":"Bangalore Rural","ac":154,"ac_name":"Rajarajeshwarinagar","booth":192,"booth_name":"Doddanna Vidya Samsthe,magadi Main Road,srigandhada Kavalu,sunkada katte,room No 5"},"geometry":{"type":"Point","coordinates":[77.5060043,12.9901991]}},{"type":"Feature","properties":{"state":"Karnataka","district":31,"district_n":"B.B.M.P(CENTRAL)","pc":23,"pc_name":"Bangalore Rural","ac":154,"ac_name":"Rajarajeshwarinagar","booth":193,"booth_name":"Doddanna Vidya Samsthe,magadi Main Road,srigandhada Kavalu,sunkada katte,room No 7"},"geometry":{"type":"Point","coordinates":[77.50599,12.9902487]}},{"type":"Feature","properties":{"state":"Karnataka","district":31,"district_n":"B.B.M.P(CENTRAL)","pc":23,"pc_name":"Bangalore Rural","ac":154,"ac_name":"Rajarajeshwarinagar","booth":194,"booth_name":"Doddanna Vidya Samsthe,magadi Main Road,srigandhada Kavalu,sunkada katte,room No 8"},"geometry":{"type":"Point","coordinates":[77.50602,12.9902039]}},{"type":"Feature","properties":{"state":"Karnataka","district":31,"district_n":"B.B.M.P(CENTRAL)","pc":23,"pc_name":"Bangalore Rural","ac":154,"ac_name":"Rajarajeshwarinagar","booth":195,"booth_name":"Doddanna Vidya Samsthe,magadi Main Road,srigandhada Kavalu,sunkada katte,room No 9"},"geometry":{"type":"Point","coordinates":[77.50607,12.9901791]}},{"type":"Feature","properties":{"state":"Karnataka","district":31,"district_n":"B.B.M.P(CENTRAL)","pc":23,"pc_name":"Bangalore Rural","ac":154,"ac_name":"Rajarajeshwarinagar","booth":196,"booth_name":"Aro Office Sajjepalya, Room No No 1"},"geometry":{"type":"Point","coordinates":[77.50607,12.9902287]}},{"type":"Feature","properties":{"state":"Karnataka","district":31,"district_n":"B.B.M.P(CENTRAL)","pc":23,"pc_name":"Bangalore Rural","ac":154,"ac_name":"Rajarajeshwarinagar","booth":197,"booth_name":"Govt Govt Primary School, 1st A Main Road, Kottigepalya, Room No No 1"},"geometry":{"type":"Point","coordinates":[77.5175858,12.986165]}},{"type":"Feature","properties":{"state":"Karnataka","district":31,"district_n":"B.B.M.P(CENTRAL)","pc":23,"pc_name":"Bangalore Rural","ac":154,"ac_name":"Rajarajeshwarinagar","booth":198,"booth_name":"Nobel High School, 1st Main Road, Kottigepalya, Room 1"},"geometry":{"type":"Point","coordinates":[77.5175552,12.9861431]}},{"type":"Feature","properties":{"state":"Karnataka","district":31,"district_n":"B.B.M.P(CENTRAL)","pc":23,"pc_name":"Bangalore Rural","ac":154,"ac_name":"Rajarajeshwarinagar","booth":199,"booth_name":"S V Public School, 4th Main, 1st Cross, Kottigepalya, Room No No 1"},"geometry":{"type":"Point","coordinates":[77.51773,12.9860287]}},{"type":"Feature","properties":{"state":"Karnataka","district":31,"district_n":"B.B.M.P(CENTRAL)","pc":23,"pc_name":"Bangalore Rural","ac":154,"ac_name":"Rajarajeshwarinagar","booth":200,"booth_name":"S V Public School, 4th Main, 1st Cross, Kottigepalya, Room No No 2"},"geometry":{"type":"Point","coordinates":[77.5111542,12.9858589]}},{"type":"Feature","properties":{"state":"Karnataka","district":31,"district_n":"B.B.M.P(CENTRAL)","pc":23,"pc_name":"Bangalore Rural","ac":154,"ac_name":"Rajarajeshwarinagar","booth":201,"booth_name":"Govt Govt Primary School, 1st A Main Road, Kottigepalya, Room No No 2"},"geometry":{"type":"Point","coordinates":[77.51114,12.9857454]}},{"type":"Feature","properties":{"state":"Karnataka","district":31,"district_n":"B.B.M.P(CENTRAL)","pc":23,"pc_name":"Bangalore Rural","ac":154,"ac_name":"Rajarajeshwarinagar","booth":70,"booth_name":"Childrens Childrens School, Yeshwantha Pura Pura Pura Room No 3"},"geometry":{"type":"Point","coordinates":[77.5530548,13.0909014]}},{"type":"Feature","properties":{"state":"Karnataka","district":31,"district_n":"B.B.M.P(CENTRAL)","pc":23,"pc_name":"Bangalore Rural","ac":154,"ac_name":"Rajarajeshwarinagar","booth":71,"booth_name":"St St Pauls English High School, 3rd Cross, Mohankumar nagar Room No No 2"},"geometry":{"type":"Point","coordinates":[77.5510254,13.0304861]}},{"type":"Feature","properties":{"state":"Karnataka","district":31,"district_n":"B.B.M.P(CENTRAL)","pc":23,"pc_name":"Bangalore Rural","ac":154,"ac_name":"Rajarajeshwarinagar","booth":72,"booth_name":"St St Pauls English High School, 3rd Cross, Mohankumar nagar, Room No 3"},"geometry":{"type":"Point","coordinates":[77.55096,13.03047]}},{"type":"Feature","properties":{"state":"Karnataka","district":31,"district_n":"B.B.M.P(CENTRAL)","pc":23,"pc_name":"Bangalore Rural","ac":154,"ac_name":"Rajarajeshwarinagar","booth":73,"booth_name":"St St Pauls English High School, 3rd Cross, Mohankumar nagar, Room No 4"},"geometry":{"type":"Point","coordinates":[77.55097,13.0304632]}},{"type":"Feature","properties":{"state":"Karnataka","district":31,"district_n":"B.B.M.P(CENTRAL)","pc":23,"pc_name":"Bangalore Rural","ac":154,"ac_name":"Rajarajeshwarinagar","booth":74,"booth_name":"St St Pauls English High School, 3rd Cross, Mohankumar nagar Room No No 5"},"geometry":{"type":"Point","coordinates":[77.55104,13.0304279]}},{"type":"Feature","properties":{"state":"Karnataka","district":31,"district_n":"B.B.M.P(CENTRAL)","pc":23,"pc_name":"Bangalore Rural","ac":154,"ac_name":"Rajarajeshwarinagar","booth":75,"booth_name":"Bbmp Revenue Tax Collection Help Centre, Chowdeshwari Bus Stop, J P Park Park Room No 2"},"geometry":{"type":"Point","coordinates":[77.553566,13.0322933]}},{"type":"Feature","properties":{"state":"Karnataka","district":31,"district_n":"B.B.M.P(CENTRAL)","pc":23,"pc_name":"Bangalore Rural","ac":154,"ac_name":"Rajarajeshwarinagar","booth":76,"booth_name":"Anganawadi Kendra, muneshwara nagar Slum, Thaneranahalli, Tumkur Road,"},"geometry":{"type":"Point","coordinates":[77.54532,13.0306339]}},{"type":"Feature","properties":{"state":"Karnataka","district":31,"district_n":"B.B.M.P(CENTRAL)","pc":23,"pc_name":"Bangalore Rural","ac":154,"ac_name":"Rajarajeshwarinagar","booth":77,"booth_name":"Anganawadi Kendra, Kendra, Sanjay Gandhi Nagara Slum, Pipe Line Road"},"geometry":{"type":"Point","coordinates":[77.54687,13.0281906]}},{"type":"Feature","properties":{"state":"Karnataka","district":31,"district_n":"B.B.M.P(CENTRAL)","pc":23,"pc_name":"Bangalore Rural","ac":154,"ac_name":"Rajarajeshwarinagar","booth":78,"booth_name":"Satwik Vidya Mandir, 2nd Main Road, 2nd Block, Goraguntepalya"},"geometry":{"type":"Point","coordinates":[77.5404358,13.0271835]}},{"type":"Feature","properties":{"state":"Karnataka","district":31,"district_n":"B.B.M.P(CENTRAL)","pc":23,"pc_name":"Bangalore Rural","ac":154,"ac_name":"Rajarajeshwarinagar","booth":79,"booth_name":"Satwik Vidya Mandir, 2nd Main Road, 2nd Block, Goraguntepalya"},"geometry":{"type":"Point","coordinates":[77.54035,13.0271864]}},{"type":"Feature","properties":{"state":"Karnataka","district":31,"district_n":"B.B.M.P(CENTRAL)","pc":23,"pc_name":"Bangalore Rural","ac":154,"ac_name":"Rajarajeshwarinagar","booth":80,"booth_name":"Govt Govt High School, 2nd Cross, Goraguntepalya"},"geometry":{"type":"Point","coordinates":[77.54,13.0265036]}},{"type":"Feature","properties":{"state":"Karnataka","district":31,"district_n":"B.B.M.P(CENTRAL)","pc":23,"pc_name":"Bangalore Rural","ac":154,"ac_name":"Rajarajeshwarinagar","booth":81,"booth_name":"Govt Govt High School, 2nd Cross, Goraguntepalya"},"geometry":{"type":"Point","coordinates":[77.53993,13.0264339]}},{"type":"Feature","properties":{"state":"Karnataka","district":31,"district_n":"B.B.M.P(CENTRAL)","pc":23,"pc_name":"Bangalore Rural","ac":154,"ac_name":"Rajarajeshwarinagar","booth":82,"booth_name":"Vinod English School, 2nd Cross, 2nd Block Block Goraguntepalya, Room No 1"},"geometry":{"type":"Point","coordinates":[77.5375,13.0275946]}},{"type":"Feature","properties":{"state":"Karnataka","district":31,"district_n":"B.B.M.P(CENTRAL)","pc":23,"pc_name":"Bangalore Rural","ac":154,"ac_name":"Rajarajeshwarinagar","booth":83,"booth_name":"Vinod English School, 2nd Cross, 2nd Main, Goragunte Palya, Room No 2"},"geometry":{"type":"Point","coordinates":[77.5373,13.0273523]}},{"type":"Feature","properties":{"state":"Karnataka","district":31,"district_n":"B.B.M.P(CENTRAL)","pc":23,"pc_name":"Bangalore Rural","ac":154,"ac_name":"Rajarajeshwarinagar","booth":84,"booth_name":"Govt Primary School, 1st Main Road, Goragunte Palya, Room No 1"},"geometry":{"type":"Point","coordinates":[77.5390854,13.0263338]}},{"type":"Feature","properties":{"state":"Karnataka","district":31,"district_n":"B.B.M.P(CENTRAL)","pc":23,"pc_name":"Bangalore Rural","ac":154,"ac_name":"Rajarajeshwarinagar","booth":85,"booth_name":"Govt Primary School, 1st Main Road, Goragunte Palya, Room No 2"},"geometry":{"type":"Point","coordinates":[77.53906,13.0263386]}},{"type":"Feature","properties":{"state":"Karnataka","district":31,"district_n":"B.B.M.P(CENTRAL)","pc":23,"pc_name":"Bangalore Rural","ac":154,"ac_name":"Rajarajeshwarinagar","booth":86,"booth_name":"Svn Nursery, Higher Primary School and Svs Panduranga High School, 3rd Main Road, 1st Block, Goraguntepalya"},"geometry":{"type":"Point","coordinates":[77.538414,13.0266562]}},{"type":"Feature","properties":{"state":"Karnataka","district":31,"district_n":"B.B.M.P(CENTRAL)","pc":23,"pc_name":"Bangalore Rural","ac":154,"ac_name":"Rajarajeshwarinagar","booth":87,"booth_name":"Svn Nursery, Higher Primary School and Svs Panduranga High School, 3rd Main Road, 1st Block, Goraguntepalya"},"geometry":{"type":"Point","coordinates":[77.5385056,13.0265789]}},{"type":"Feature","properties":{"state":"Karnataka","district":31,"district_n":"B.B.M.P(CENTRAL)","pc":23,"pc_name":"Bangalore Rural","ac":154,"ac_name":"Rajarajeshwarinagar","booth":106,"booth_name":"L C R English Nursery & Primary School, 11th Cross, Gokula, 1st Stage, 1st Phase, Room No 3"},"geometry":{"type":"Point","coordinates":[77.55648,13.0276747]}},{"type":"Feature","properties":{"state":"Karnataka","district":31,"district_n":"B.B.M.P(CENTRAL)","pc":23,"pc_name":"Bangalore Rural","ac":154,"ac_name":"Rajarajeshwarinagar","booth":107,"booth_name":"Rajarajeshwari English School, 5th Cross, Gokula 1st Stage, 3rd Phase, Room 1"},"geometry":{"type":"Point","coordinates":[77.55769,13.0266485]}},{"type":"Feature","properties":{"state":"Karnataka","district":31,"district_n":"B.B.M.P(CENTRAL)","pc":23,"pc_name":"Bangalore Rural","ac":154,"ac_name":"Rajarajeshwarinagar","booth":108,"booth_name":"Rajarajeshwari English School, 5th Cross, Gokula 1st Stage, 3rd Phase, Room 2"},"geometry":{"type":"Point","coordinates":[77.55768,13.0266409]}},{"type":"Feature","properties":{"state":"Karnataka","district":31,"district_n":"B.B.M.P(CENTRAL)","pc":23,"pc_name":"Bangalore Rural","ac":154,"ac_name":"Rajarajeshwarinagar","booth":109,"booth_name":"Vidya Vaibhav Public School, Hmt Main Road, Gokula, 1st Stage, 1st Phase"},"geometry":{"type":"Point","coordinates":[77.55881,13.0322409]}},{"type":"Feature","properties":{"state":"Karnataka","district":31,"district_n":"B.B.M.P(CENTRAL)","pc":23,"pc_name":"Bangalore Rural","ac":154,"ac_name":"Rajarajeshwarinagar","booth":110,"booth_name":"Sri Ananda Social Education Society, 1st Main Road, B K Nagar, Room No 1"},"geometry":{"type":"Point","coordinates":[77.5539246,13.0247679]}},{"type":"Feature","properties":{"state":"Karnataka","district":31,"district_n":"B.B.M.P(CENTRAL)","pc":23,"pc_name":"Bangalore Rural","ac":154,"ac_name":"Rajarajeshwarinagar","booth":111,"booth_name":"Sri Ananda Social Education Society, 1st Main Road, B K Nagar, Room No 3"},"geometry":{"type":"Point","coordinates":[77.5538559,13.0267324]}},{"type":"Feature","properties":{"state":"Karnataka","district":31,"district_n":"B.B.M.P(CENTRAL)","pc":23,"pc_name":"Bangalore Rural","ac":154,"ac_name":"Rajarajeshwarinagar","booth":112,"booth_name":"Sri Ananda Social Education Society, 1st Main Road, B K Nagar, Room No 5"},"geometry":{"type":"Point","coordinates":[77.5539,13.0267735]}},{"type":"Feature","properties":{"state":"Karnataka","district":31,"district_n":"B.B.M.P(CENTRAL)","pc":23,"pc_name":"Bangalore Rural","ac":154,"ac_name":"Rajarajeshwarinagar","booth":113,"booth_name":"Sri Ananda Social Education Society, 1st Main Road, B K Nagar, Room No 6"},"geometry":{"type":"Point","coordinates":[77.55389,13.0268431]}},{"type":"Feature","properties":{"state":"Karnataka","district":31,"district_n":"B.B.M.P(CENTRAL)","pc":23,"pc_name":"Bangalore Rural","ac":154,"ac_name":"Rajarajeshwarinagar","booth":114,"booth_name":"Bbmp Community Hall, B K Nagar, 1st main, Yeshwanthpur, Room No No 1"},"geometry":{"type":"Point","coordinates":[77.55383,13.0268679]}},{"type":"Feature","properties":{"state":"Karnataka","district":31,"district_n":"B.B.M.P(CENTRAL)","pc":23,"pc_name":"Bangalore Rural","ac":154,"ac_name":"Rajarajeshwarinagar","booth":115,"booth_name":"Bbmp Community Hall, B K Nagar, 1st main, Yeshwanthpur, Room No No 2"},"geometry":{"type":"Point","coordinates":[77.5538,13.0266752]}},{"type":"Feature","properties":{"state":"Karnataka","district":31,"district_n":"B.B.M.P(CENTRAL)","pc":23,"pc_name":"Bangalore Rural","ac":154,"ac_name":"Rajarajeshwarinagar","booth":116,"booth_name":"Bbmp Community Hall, B K Nagar, 1st main, Yeshwanthpur, Room No No 3"},"geometry":{"type":"Point","coordinates":[77.5538254,13.026638]}},{"type":"Feature","properties":{"state":"Karnataka","district":31,"district_n":"B.B.M.P(CENTRAL)","pc":23,"pc_name":"Bangalore Rural","ac":154,"ac_name":"Rajarajeshwarinagar","booth":117,"booth_name":"Govt Higher Primary School, Vyayama Shale, Anjanaya Temple Stree, yeshwanthpura, Room No No 4"},"geometry":{"type":"Point","coordinates":[77.55381,13.021245]}},{"type":"Feature","properties":{"state":"Karnataka","district":31,"district_n":"B.B.M.P(CENTRAL)","pc":23,"pc_name":"Bangalore Rural","ac":154,"ac_name":"Rajarajeshwarinagar","booth":118,"booth_name":"Devine English School, 1st Main Road, Road, Gokula 1st Stage, 4th Phase, Yeshawanthapura, Room No 1"},"geometry":{"type":"Point","coordinates":[77.5562057,13.0216618]}},{"type":"Feature","properties":{"state":"Karnataka","district":31,"district_n":"B.B.M.P(CENTRAL)","pc":23,"pc_name":"Bangalore Rural","ac":154,"ac_name":"Rajarajeshwarinagar","booth":136,"booth_name":"K N Geetha Kannada Primary School, Lakshmidevinagar, Laggere, Room No 1"},"geometry":{"type":"Point","coordinates":[77.52753,13.0177956]}},{"type":"Feature","properties":{"state":"Karnataka","district":31,"district_n":"B.B.M.P(CENTRAL)","pc":23,"pc_name":"Bangalore Rural","ac":154,"ac_name":"Rajarajeshwarinagar","booth":137,"booth_name":"K N Geetha Kannada Kannada Primary School, Lakshmidevinagar, Laggere, Room No 3"},"geometry":{"type":"Point","coordinates":[77.52624,13.016778]}},{"type":"Feature","properties":{"state":"Karnataka","district":31,"district_n":"B.B.M.P(CENTRAL)","pc":23,"pc_name":"Bangalore Rural","ac":154,"ac_name":"Rajarajeshwarinagar","booth":138,"booth_name":"Manasa Primary High School, Preethinagara, Laggere, Bangalore Bangalore 58 Room No No 1"},"geometry":{"type":"Point","coordinates":[77.5262146,13.0167589]}},{"type":"Feature","properties":{"state":"Karnataka","district":31,"district_n":"B.B.M.P(CENTRAL)","pc":23,"pc_name":"Bangalore Rural","ac":154,"ac_name":"Rajarajeshwarinagar","booth":139,"booth_name":"Manasa Primary High School, Preethinagara, Laggere, Bangalore Bangalore 58 Room No No 2"},"geometry":{"type":"Point","coordinates":[77.52604,13.0167685]}},{"type":"Feature","properties":{"state":"Karnataka","district":31,"district_n":"B.B.M.P(CENTRAL)","pc":23,"pc_name":"Bangalore Rural","ac":154,"ac_name":"Rajarajeshwarinagar","booth":140,"booth_name":"Govt, Lower Primary School, Lakshmidevinagar, Room No 1"},"geometry":{"type":"Point","coordinates":[77.5201,13.0167351]}},{"type":"Feature","properties":{"state":"Karnataka","district":31,"district_n":"B.B.M.P(CENTRAL)","pc":23,"pc_name":"Bangalore Rural","ac":154,"ac_name":"Rajarajeshwarinagar","booth":141,"booth_name":"Govt, Lower Primary School, Lakshmidevinagar, Room No 2"},"geometry":{"type":"Point","coordinates":[77.5270844,13.0151939]}},{"type":"Feature","properties":{"state":"Karnataka","district":31,"district_n":"B.B.M.P(CENTRAL)","pc":23,"pc_name":"Bangalore Rural","ac":154,"ac_name":"Rajarajeshwarinagar","booth":142,"booth_name":"R V S Kannada & English Primary School, Lakshmidevinagar, Room No 1"},"geometry":{"type":"Point","coordinates":[77.52714,13.01518]}},{"type":"Feature","properties":{"state":"Karnataka","district":31,"district_n":"B.B.M.P(CENTRAL)","pc":23,"pc_name":"Bangalore Rural","ac":154,"ac_name":"Rajarajeshwarinagar","booth":143,"booth_name":"R V S Kannada & English Primary School, Lakshmidevinagar, Room No 2"},"geometry":{"type":"Point","coordinates":[77.52762,13.017807]}},{"type":"Feature","properties":{"state":"Karnataka","district":31,"district_n":"B.B.M.P(CENTRAL)","pc":23,"pc_name":"Bangalore Rural","ac":154,"ac_name":"Rajarajeshwarinagar","booth":144,"booth_name":"Holy Mother English School, 2nd Main, Nandini Layout, Room No 1"},"geometry":{"type":"Point","coordinates":[77.52772,13.0177965]}},{"type":"Feature","properties":{"state":"Karnataka","district":31,"district_n":"B.B.M.P(CENTRAL)","pc":23,"pc_name":"Bangalore Rural","ac":154,"ac_name":"Rajarajeshwarinagar","booth":145,"booth_name":"Holy Mother English School, 2nd Main, Nandini Layout, Room No 2"},"geometry":{"type":"Point","coordinates":[77.5303,13.0195093]}},{"type":"Feature","properties":{"state":"Karnataka","district":31,"district_n":"B.B.M.P(CENTRAL)","pc":23,"pc_name":"Bangalore Rural","ac":154,"ac_name":"Rajarajeshwarinagar","booth":146,"booth_name":"Maruthi Vidyalaya, 9th Cross, 2nd Block Nandini Layout"},"geometry":{"type":"Point","coordinates":[77.530365,13.019536]}},{"type":"Feature","properties":{"state":"Karnataka","district":31,"district_n":"B.B.M.P(CENTRAL)","pc":23,"pc_name":"Bangalore Rural","ac":154,"ac_name":"Rajarajeshwarinagar","booth":147,"booth_name":"Govt Govt Primary School, Jai Bhuvaneshwari Nagar, Room No 1"},"geometry":{"type":"Point","coordinates":[77.52865,13.0182247]}},{"type":"Feature","properties":{"state":"Karnataka","district":31,"district_n":"B.B.M.P(CENTRAL)","pc":23,"pc_name":"Bangalore Rural","ac":154,"ac_name":"Rajarajeshwarinagar","booth":167,"booth_name":"Nammura Shale,govt Shale,govt Higher Primary & High School, Rajivegandhi Nagar, Chowdeshwarinagar Main Road, Laggere, Room No 1"},"geometry":{"type":"Point","coordinates":[77.52349,13.0097094]}},{"type":"Feature","properties":{"state":"Karnataka","district":31,"district_n":"B.B.M.P(CENTRAL)","pc":23,"pc_name":"Bangalore Rural","ac":154,"ac_name":"Rajarajeshwarinagar","booth":168,"booth_name":"Nammura Shale,govt Shale,govt Higher Primary & High School, Rajivegandhi Nagar, Chowdeshwarinagar Main Road, Laggere, Room No 3"},"geometry":{"type":"Point","coordinates":[77.524,13.0039968]}},{"type":"Feature","properties":{"state":"Karnataka","district":31,"district_n":"B.B.M.P(CENTRAL)","pc":23,"pc_name":"Bangalore Rural","ac":154,"ac_name":"Rajarajeshwarinagar","booth":169,"booth_name":"Saraswathi Education Society, Kempegowda Layout, Ring Road, Laggere, Room No 1"},"geometry":{"type":"Point","coordinates":[77.5239,13.004035]}},{"type":"Feature","properties":{"state":"Karnataka","district":31,"district_n":"B.B.M.P(CENTRAL)","pc":23,"pc_name":"Bangalore Rural","ac":154,"ac_name":"Rajarajeshwarinagar","booth":69,"booth_name":"Childrens School, Yeshwanthapura, Room No 2"},"geometry":{"type":"Point","coordinates":[77.55293,13.0309067]}},{"type":"Feature","properties":{"state":"Karnataka","district":31,"district_n":"B.B.M.P(CENTRAL)","pc":23,"pc_name":"Bangalore Rural","ac":154,"ac_name":"Rajarajeshwarinagar","booth":133,"booth_name":"B B M P Nursery & Primary School, Anjaneya Temple Street, Yeshawanthapura, Room No 2"},"geometry":{"type":"Point","coordinates":[77.55384,13.0213137]}},{"type":"Feature","properties":{"state":"Karnataka","district":31,"district_n":"B.B.M.P(CENTRAL)","pc":23,"pc_name":"Bangalore Rural","ac":154,"ac_name":"Rajarajeshwarinagar","booth":148,"booth_name":"Govt Govt Primary School, Jai Bhuvaneshwari Nagar, Room No 2"},"geometry":{"type":"Point","coordinates":[77.52931,13.01385]}},{"type":"Feature","properties":{"state":"Karnataka","district":31,"district_n":"B.B.M.P(CENTRAL)","pc":23,"pc_name":"Bangalore Rural","ac":154,"ac_name":"Rajarajeshwarinagar","booth":149,"booth_name":"Govt Govt Primary School, Jai Bhuvaneshwari Nagar, Room No 3"},"geometry":{"type":"Point","coordinates":[77.52929,13.0138884]}},{"type":"Feature","properties":{"state":"Karnataka","district":31,"district_n":"B.B.M.P(CENTRAL)","pc":23,"pc_name":"Bangalore Rural","ac":154,"ac_name":"Rajarajeshwarinagar","booth":150,"booth_name":"Govt Govt Primary School, Jai Bhuvaneshwari Nagar, Room No 4"},"geometry":{"type":"Point","coordinates":[77.52919,13.0137777]}},{"type":"Feature","properties":{"state":"Karnataka","district":31,"district_n":"B.B.M.P(CENTRAL)","pc":23,"pc_name":"Bangalore Rural","ac":154,"ac_name":"Rajarajeshwarinagar","booth":151,"booth_name":"Govt Govt Primary School, Jai Bhuvaneshwari Nagar, Room No 5"},"geometry":{"type":"Point","coordinates":[77.52923,13.0138073]}},{"type":"Feature","properties":{"state":"Karnataka","district":31,"district_n":"B.B.M.P(CENTRAL)","pc":23,"pc_name":"Bangalore Rural","ac":154,"ac_name":"Rajarajeshwarinagar","booth":152,"booth_name":"Govt Govt Primary School, Jai Bhuvaneshwari Nagar, Room No 6"},"geometry":{"type":"Point","coordinates":[77.52929,13.0138369]}},{"type":"Feature","properties":{"state":"Karnataka","district":31,"district_n":"B.B.M.P(CENTRAL)","pc":23,"pc_name":"Bangalore Rural","ac":154,"ac_name":"Rajarajeshwarinagar","booth":153,"booth_name":"Govt, Lower Primary School, Lakshmidevinagar, Room No 3"},"geometry":{"type":"Point","coordinates":[77.52929,13.0138283]}},{"type":"Feature","properties":{"state":"Karnataka","district":31,"district_n":"B.B.M.P(CENTRAL)","pc":23,"pc_name":"Bangalore Rural","ac":154,"ac_name":"Rajarajeshwarinagar","booth":154,"booth_name":"Sharada Higher Primary School, L G Ramanna Layout, Laggere, Room No 1"},"geometry":{"type":"Point","coordinates":[77.52706,13.0151892]}},{"type":"Feature","properties":{"state":"Karnataka","district":31,"district_n":"B.B.M.P(CENTRAL)","pc":23,"pc_name":"Bangalore Rural","ac":154,"ac_name":"Rajarajeshwarinagar","booth":155,"booth_name":"Sharada Higher Primary School, L G Ramanna Layout, Laggere, Room No 2"},"geometry":{"type":"Point","coordinates":[77.52023,13.0095]}},{"type":"Feature","properties":{"state":"Karnataka","district":31,"district_n":"B.B.M.P(CENTRAL)","pc":23,"pc_name":"Bangalore Rural","ac":154,"ac_name":"Rajarajeshwarinagar","booth":170,"booth_name":"Saraswathi Education Society, Kempegowda Layout, Ring Road, Laggere, Room No 2"},"geometry":{"type":"Point","coordinates":[77.52679,13.00176]}},{"type":"Feature","properties":{"state":"Karnataka","district":31,"district_n":"B.B.M.P(CENTRAL)","pc":23,"pc_name":"Bangalore Rural","ac":154,"ac_name":"Rajarajeshwarinagar","booth":171,"booth_name":"Saraswathi Education Society, Kempegowda Layout, Ring Road, Laggere, Room No 3"},"geometry":{"type":"Point","coordinates":[77.52678,13.0016651]}},{"type":"Feature","properties":{"state":"Karnataka","district":31,"district_n":"B.B.M.P(CENTRAL)","pc":23,"pc_name":"Bangalore Rural","ac":154,"ac_name":"Rajarajeshwarinagar","booth":172,"booth_name":"Saraswathi Education Society, Kempegowda Layout, Ring Road, Laggere, Room No 5"},"geometry":{"type":"Point","coordinates":[77.52685,13.001708]}},{"type":"Feature","properties":{"state":"Karnataka","district":31,"district_n":"B.B.M.P(CENTRAL)","pc":23,"pc_name":"Bangalore Rural","ac":154,"ac_name":"Rajarajeshwarinagar","booth":173,"booth_name":"Rajivgandhi Public School, Rajiv Gandhi Nagar, Bangalore Bangalore 58, Room No 1"},"geometry":{"type":"Point","coordinates":[77.526886,13.0017681]}},{"type":"Feature","properties":{"state":"Karnataka","district":31,"district_n":"B.B.M.P(CENTRAL)","pc":23,"pc_name":"Bangalore Rural","ac":154,"ac_name":"Rajarajeshwarinagar","booth":174,"booth_name":"Rajivgandhi Public School, Rajiv Gandhi Nagar, Bangalore Bangalore 58, Room No 2"},"geometry":{"type":"Point","coordinates":[77.52045,13.0028877]}},{"type":"Feature","properties":{"state":"Karnataka","district":31,"district_n":"B.B.M.P(CENTRAL)","pc":23,"pc_name":"Bangalore Rural","ac":154,"ac_name":"Rajarajeshwarinagar","booth":175,"booth_name":"Rajivgandhi Public School, Rajiv Gandhi Nagar, Bangalore Bangalore 58, Room No 3"},"geometry":{"type":"Point","coordinates":[77.5204,13.0028839]}},{"type":"Feature","properties":{"state":"Karnataka","district":31,"district_n":"B.B.M.P(CENTRAL)","pc":23,"pc_name":"Bangalore Rural","ac":154,"ac_name":"Rajarajeshwarinagar","booth":176,"booth_name":"Vidyapriya Kannada Primary School, Chowdeshwarinagar, Laggere, Room No 1"},"geometry":{"type":"Point","coordinates":[77.52043,13.0028439]}},{"type":"Feature","properties":{"state":"Karnataka","district":31,"district_n":"B.B.M.P(CENTRAL)","pc":23,"pc_name":"Bangalore Rural","ac":154,"ac_name":"Rajarajeshwarinagar","booth":177,"booth_name":"Vidyapriya Kannada Primary School, Chowdeshwarinagar, Laggere, Room No 3"},"geometry":{"type":"Point","coordinates":[77.5217361,13.0011044]}},{"type":"Feature","properties":{"state":"Karnataka","district":31,"district_n":"B.B.M.P(CENTRAL)","pc":23,"pc_name":"Bangalore Rural","ac":154,"ac_name":"Rajarajeshwarinagar","booth":178,"booth_name":"Govt Govt Higher Primary & High School, Rajivegandhi Nagar, Chowdeshwarinagar Main Road, Laggere, Room No 4"},"geometry":{"type":"Point","coordinates":[77.52171,13.0010653]}},{"type":"Feature","properties":{"state":"Karnataka","district":31,"district_n":"B.B.M.P(CENTRAL)","pc":23,"pc_name":"Bangalore Rural","ac":154,"ac_name":"Rajarajeshwarinagar","booth":156,"booth_name":"Anikhethana Kishora Kendra, Muneshwara Layout, Laggere Main Road, Laggere, Bangalore Bangalore 58, Room No No No 1"},"geometry":{"type":"Point","coordinates":[77.5202942,13.0094528]}},{"type":"Feature","properties":{"state":"Karnataka","district":31,"district_n":"B.B.M.P(CENTRAL)","pc":23,"pc_name":"Bangalore Rural","ac":154,"ac_name":"Rajarajeshwarinagar","booth":157,"booth_name":"Anikhethana Kishora Kendra, Muneshwara Layout, Laggere Main Road, Laggere, Bangalore Bangalore 58, Room No No No 2"},"geometry":{"type":"Point","coordinates":[77.5223541,13.0099268]}},{"type":"Feature","properties":{"state":"Karnataka","district":31,"district_n":"B.B.M.P(CENTRAL)","pc":23,"pc_name":"Bangalore Rural","ac":154,"ac_name":"Rajarajeshwarinagar","booth":158,"booth_name":"Anikhethana Kishora Kendra, Muneshwara Layout, Laggere Main Road, Laggere, Bangalore Bangalore 58, Room No No No 4"},"geometry":{"type":"Point","coordinates":[77.52236,13.0099583]}},{"type":"Feature","properties":{"state":"Karnataka","district":31,"district_n":"B.B.M.P(CENTRAL)","pc":23,"pc_name":"Bangalore Rural","ac":154,"ac_name":"Rajarajeshwarinagar","booth":159,"booth_name":"Sharada High school,l G Ramanna Layout, Laggere, Room No 1"},"geometry":{"type":"Point","coordinates":[77.52241,13.00994]}},{"type":"Feature","properties":{"state":"Karnataka","district":31,"district_n":"B.B.M.P(CENTRAL)","pc":23,"pc_name":"Bangalore Rural","ac":154,"ac_name":"Rajarajeshwarinagar","booth":160,"booth_name":"Sharada High school,l G Ramanna Layout, Laggere, Room No 2"},"geometry":{"type":"Point","coordinates":[77.52037,13.0097113]}},{"type":"Feature","properties":{"state":"Karnataka","district":31,"district_n":"B.B.M.P(CENTRAL)","pc":23,"pc_name":"Bangalore Rural","ac":154,"ac_name":"Rajarajeshwarinagar","booth":161,"booth_name":"Govt Higher Primary School, New Building, Laggere, Bangalore 58, Room No 1"},"geometry":{"type":"Point","coordinates":[77.52038,13.0095921]}},{"type":"Feature","properties":{"state":"Karnataka","district":31,"district_n":"B.B.M.P(CENTRAL)","pc":23,"pc_name":"Bangalore Rural","ac":154,"ac_name":"Rajarajeshwarinagar","booth":162,"booth_name":"Govt Higher Primary School, New Building, Laggere, Bangalore 58, Room No 2"},"geometry":{"type":"Point","coordinates":[77.5233841,13.0097351]}},{"type":"Feature","properties":{"state":"Karnataka","district":31,"district_n":"B.B.M.P(CENTRAL)","pc":23,"pc_name":"Bangalore Rural","ac":154,"ac_name":"Rajarajeshwarinagar","booth":163,"booth_name":"Govt Higher Primary School, New Building, Laggere, Bangalore 58, Room No 3"},"geometry":{"type":"Point","coordinates":[77.52345,13.0096636]}},{"type":"Feature","properties":{"state":"Karnataka","district":31,"district_n":"B.B.M.P(CENTRAL)","pc":23,"pc_name":"Bangalore Rural","ac":154,"ac_name":"Rajarajeshwarinagar","booth":179,"booth_name":"Govt Govt Higher Primary & High School, Rajivegandhi Nagar, Chowdeshwarinagar Main Road, Laggere, Room No 5"},"geometry":{"type":"Point","coordinates":[77.52397,13.0039682]}},{"type":"Feature","properties":{"state":"Karnataka","district":31,"district_n":"B.B.M.P(CENTRAL)","pc":23,"pc_name":"Bangalore Rural","ac":154,"ac_name":"Rajarajeshwarinagar","booth":180,"booth_name":"Saraswathi Education Society, Chowdeshwarinagar,pipeline Road, Laggere, Room No 1"},"geometry":{"type":"Point","coordinates":[77.52398,13.0040178]}},{"type":"Feature","properties":{"state":"Karnataka","district":31,"district_n":"B.B.M.P(CENTRAL)","pc":23,"pc_name":"Bangalore Rural","ac":154,"ac_name":"Rajarajeshwarinagar","booth":181,"booth_name":"Saraswathi Education Society, Chowdeshwarinagar,pipeline Road, Laggere, Room No 2"},"geometry":{"type":"Point","coordinates":[77.52173,12.9979]}},{"type":"Feature","properties":{"state":"Karnataka","district":31,"district_n":"B.B.M.P(CENTRAL)","pc":23,"pc_name":"Bangalore Rural","ac":154,"ac_name":"Rajarajeshwarinagar","booth":182,"booth_name":"Saraswathi Education Society, Chowdeshwarinagar,pipeline Road, Laggere, Room No 3"},"geometry":{"type":"Point","coordinates":[77.52186,12.9976673]}},{"type":"Feature","properties":{"state":"Karnataka","district":31,"district_n":"B.B.M.P(CENTRAL)","pc":23,"pc_name":"Bangalore Rural","ac":154,"ac_name":"Rajarajeshwarinagar","booth":183,"booth_name":"Saraswathi Education Society, Chowdeshwarinagar,pipeline Road, Laggere, Room No 4"},"geometry":{"type":"Point","coordinates":[77.5221939,12.9979715]}},{"type":"Feature","properties":{"state":"Karnataka","district":31,"district_n":"B.B.M.P(CENTRAL)","pc":23,"pc_name":"Bangalore Rural","ac":154,"ac_name":"Rajarajeshwarinagar","booth":202,"booth_name":"Uro Kids Play Home, Kottigepalya, Bangalore Bangalore Bangalore 91 Room No No 1"},"geometry":{"type":"Point","coordinates":[77.51114,12.9857454]}},{"type":"Feature","properties":{"state":"Karnataka","district":31,"district_n":"B.B.M.P(CENTRAL)","pc":23,"pc_name":"Bangalore Rural","ac":154,"ac_name":"Rajarajeshwarinagar","booth":203,"booth_name":"Anganavadi School Sajjepalya, Room No No 1"},"geometry":{"type":"Point","coordinates":[77.5114746,12.9858246]}},{"type":"Feature","properties":{"state":"Karnataka","district":31,"district_n":"B.B.M.P(CENTRAL)","pc":23,"pc_name":"Bangalore Rural","ac":154,"ac_name":"Rajarajeshwarinagar","booth":204,"booth_name":"Anganavadi School Sajjepalya, Room No No 2"},"geometry":{"type":"Point","coordinates":[77.51251,12.9858332]}},{"type":"Feature","properties":{"state":"Karnataka","district":31,"district_n":"B.B.M.P(CENTRAL)","pc":23,"pc_name":"Bangalore Rural","ac":154,"ac_name":"Rajarajeshwarinagar","booth":205,"booth_name":"Govt Govt Primary School, Kebbehalli, Rajiv Gandhi Nagar"},"geometry":{"type":"Point","coordinates":[77.5121,12.9851046]}},{"type":"Feature","properties":{"state":"Karnataka","district":31,"district_n":"B.B.M.P(CENTRAL)","pc":23,"pc_name":"Bangalore Rural","ac":154,"ac_name":"Rajarajeshwarinagar","booth":206,"booth_name":"Govt Govt Primary School, Kebbehalli, Rajiv Gandhi Nagar"},"geometry":{"type":"Point","coordinates":[77.50535,12.9850683]}},{"type":"Feature","properties":{"state":"Karnataka","district":31,"district_n":"B.B.M.P(CENTRAL)","pc":23,"pc_name":"Bangalore Rural","ac":154,"ac_name":"Rajarajeshwarinagar","booth":207,"booth_name":"Govt Govt Primary School, Kebbehalli, Rajiv Gandhi Nagar"},"geometry":{"type":"Point","coordinates":[77.5053,12.9852324]}},{"type":"Feature","properties":{"state":"Karnataka","district":31,"district_n":"B.B.M.P(CENTRAL)","pc":23,"pc_name":"Bangalore Rural","ac":154,"ac_name":"Rajarajeshwarinagar","booth":208,"booth_name":"Govt Govt Primary School, School, Kebbehalla, Rajeevagandhinagar"},"geometry":{"type":"Point","coordinates":[77.5053,12.9850416]}},{"type":"Feature","properties":{"state":"Karnataka","district":31,"district_n":"B.B.M.P(CENTRAL)","pc":23,"pc_name":"Bangalore Rural","ac":154,"ac_name":"Rajarajeshwarinagar","booth":209,"booth_name":"Shanthidhama P U College Bhyraveshwaranagara Sunkadkatte Shrigandhakavallu,room No 1"},"geometry":{"type":"Point","coordinates":[77.5055847,12.98488]}},{"type":"Feature","properties":{"state":"Karnataka","district":31,"district_n":"B.B.M.P(CENTRAL)","pc":23,"pc_name":"Bangalore Rural","ac":154,"ac_name":"Rajarajeshwarinagar","booth":210,"booth_name":"Govt Lower Primary School,room No 1, Hanumantharayana Palya"},"geometry":{"type":"Point","coordinates":[77.50248,12.9894285]}},{"type":"Feature","properties":{"state":"Karnataka","district":31,"district_n":"B.B.M.P(CENTRAL)","pc":23,"pc_name":"Bangalore Rural","ac":154,"ac_name":"Rajarajeshwarinagar","booth":211,"booth_name":"Shanthidhama P U College Bhyraveshwaranagara Sunkadkatte Shrigandhakavallu, Room No 2"},"geometry":{"type":"Point","coordinates":[77.50245,12.989543]}},{"type":"Feature","properties":{"state":"Karnataka","district":31,"district_n":"B.B.M.P(CENTRAL)","pc":23,"pc_name":"Bangalore Rural","ac":154,"ac_name":"Rajarajeshwarinagar","booth":212,"booth_name":"St St Josephine Public School, Room No 1, Rajajinagar, Hbcs Layout, Annapurneshwari Nagar"},"geometry":{"type":"Point","coordinates":[77.5025253,12.9894867]}},{"type":"Feature","properties":{"state":"Karnataka","district":31,"district_n":"B.B.M.P(CENTRAL)","pc":23,"pc_name":"Bangalore Rural","ac":154,"ac_name":"Rajarajeshwarinagar","booth":213,"booth_name":"St St Josephine Public School, Rajajinagar, Hbcs Layout, Annapurneshwari Nagar, Nagar, Room No 3"},"geometry":{"type":"Point","coordinates":[77.5068359,12.9785652]}},{"type":"Feature","properties":{"state":"Karnataka","district":31,"district_n":"B.B.M.P(CENTRAL)","pc":23,"pc_name":"Bangalore Rural","ac":154,"ac_name":"Rajarajeshwarinagar","booth":227,"booth_name":"Nri Institute, Papareddy Palya, Room No 3"},"geometry":{"type":"Point","coordinates":[77.50795,12.9698715]}},{"type":"Feature","properties":{"state":"Karnataka","district":31,"district_n":"B.B.M.P(CENTRAL)","pc":23,"pc_name":"Bangalore Rural","ac":154,"ac_name":"Rajarajeshwarinagar","booth":228,"booth_name":"Nri Institute, Papareddy Palya, Room No 4"},"geometry":{"type":"Point","coordinates":[77.50797,12.9699259]}},{"type":"Feature","properties":{"state":"Karnataka","district":31,"district_n":"B.B.M.P(CENTRAL)","pc":23,"pc_name":"Bangalore Rural","ac":154,"ac_name":"Rajarajeshwarinagar","booth":229,"booth_name":"Primary Govt Govt School Papareddy Palya Room No No 1"},"geometry":{"type":"Point","coordinates":[77.5079651,12.969924]}},{"type":"Feature","properties":{"state":"Karnataka","district":31,"district_n":"B.B.M.P(CENTRAL)","pc":23,"pc_name":"Bangalore Rural","ac":154,"ac_name":"Rajarajeshwarinagar","booth":230,"booth_name":"Primary Govt Govt School Papareddy Palya Room No No 2"},"geometry":{"type":"Point","coordinates":[77.50839,12.9746885]}},{"type":"Feature","properties":{"state":"Karnataka","district":31,"district_n":"B.B.M.P(CENTRAL)","pc":23,"pc_name":"Bangalore Rural","ac":154,"ac_name":"Rajarajeshwarinagar","booth":231,"booth_name":"Primary Govt Govt School Papareddy Palya Room No No 3"},"geometry":{"type":"Point","coordinates":[77.50848,12.9748583]}},{"type":"Feature","properties":{"state":"Karnataka","district":31,"district_n":"B.B.M.P(CENTRAL)","pc":23,"pc_name":"Bangalore Rural","ac":154,"ac_name":"Rajarajeshwarinagar","booth":232,"booth_name":"Primary Govt Govt School Papareddy Palya Room No No 4"},"geometry":{"type":"Point","coordinates":[77.5081253,12.973278]}},{"type":"Feature","properties":{"state":"Karnataka","district":31,"district_n":"B.B.M.P(CENTRAL)","pc":23,"pc_name":"Bangalore Rural","ac":154,"ac_name":"Rajarajeshwarinagar","booth":233,"booth_name":"Kanya Kumari High School,mallathahalli,room No 1"},"geometry":{"type":"Point","coordinates":[77.50808,12.9733133]}},{"type":"Feature","properties":{"state":"Karnataka","district":31,"district_n":"B.B.M.P(CENTRAL)","pc":23,"pc_name":"Bangalore Rural","ac":154,"ac_name":"Rajarajeshwarinagar","booth":234,"booth_name":"Kanya Kumari High School,mallathahalli,room No 2"},"geometry":{"type":"Point","coordinates":[77.5032,12.959691]}},{"type":"Feature","properties":{"state":"Karnataka","district":31,"district_n":"B.B.M.P(CENTRAL)","pc":23,"pc_name":"Bangalore Rural","ac":154,"ac_name":"Rajarajeshwarinagar","booth":235,"booth_name":"Kanya Kumari High School, Room No 4, Mallathahalli,"},"geometry":{"type":"Point","coordinates":[77.5031,12.9596767]}},{"type":"Feature","properties":{"state":"Karnataka","district":31,"district_n":"B.B.M.P(CENTRAL)","pc":23,"pc_name":"Bangalore Rural","ac":154,"ac_name":"Rajarajeshwarinagar","booth":236,"booth_name":"Kanya Kumari High School, Room No 5, Mallathahalli,"},"geometry":{"type":"Point","coordinates":[77.50331,12.9597464]}},{"type":"Feature","properties":{"state":"Karnataka","district":31,"district_n":"B.B.M.P(CENTRAL)","pc":23,"pc_name":"Bangalore Rural","ac":154,"ac_name":"Rajarajeshwarinagar","booth":237,"booth_name":"Kanya Kumari High School, Room No No 6, Mallathahalli"},"geometry":{"type":"Point","coordinates":[77.50335,12.959918]}},{"type":"Feature","properties":{"state":"Karnataka","district":31,"district_n":"B.B.M.P(CENTRAL)","pc":23,"pc_name":"Bangalore Rural","ac":154,"ac_name":"Rajarajeshwarinagar","booth":238,"booth_name":"Govt Govt Higher Primary School, Mallathalli, Room No 1"},"geometry":{"type":"Point","coordinates":[77.5033646,12.9599991]}},{"type":"Feature","properties":{"state":"Karnataka","district":31,"district_n":"B.B.M.P(CENTRAL)","pc":23,"pc_name":"Bangalore Rural","ac":154,"ac_name":"Rajarajeshwarinagar","booth":239,"booth_name":"Govt Govt Higher Primary School, Mallathalli, Room No 2"},"geometry":{"type":"Point","coordinates":[77.50008,12.9591694]}},{"type":"Feature","properties":{"state":"Karnataka","district":31,"district_n":"B.B.M.P(CENTRAL)","pc":23,"pc_name":"Bangalore Rural","ac":154,"ac_name":"Rajarajeshwarinagar","booth":240,"booth_name":"Govt Higher Primary School, Mallathalli, Room No 3"},"geometry":{"type":"Point","coordinates":[77.49931,12.9593925]}},{"type":"Feature","properties":{"state":"Karnataka","district":31,"district_n":"B.B.M.P(CENTRAL)","pc":23,"pc_name":"Bangalore Rural","ac":154,"ac_name":"Rajarajeshwarinagar","booth":241,"booth_name":"Twinklers Vidyanikethan, Room No 1, N G E F Layout, Nagarabhavi 2nd Stage"},"geometry":{"type":"Point","coordinates":[77.4992752,12.9594078]}},{"type":"Feature","properties":{"state":"Karnataka","district":31,"district_n":"B.B.M.P(CENTRAL)","pc":23,"pc_name":"Bangalore Rural","ac":154,"ac_name":"Rajarajeshwarinagar","booth":242,"booth_name":"Twinklers Vidyanikethan, Room No 2, N G E F Layout, Nagarabhavi 2nd Stage"},"geometry":{"type":"Point","coordinates":[77.50995,12.9578371]}},{"type":"Feature","properties":{"state":"Karnataka","district":31,"district_n":"B.B.M.P(CENTRAL)","pc":23,"pc_name":"Bangalore Rural","ac":154,"ac_name":"Rajarajeshwarinagar","booth":243,"booth_name":"P V P High School, Room No 1, Gnana Ganga Nagar, Ring Road, Mallathahalli"},"geometry":{"type":"Point","coordinates":[77.5099945,12.9578056]}},{"type":"Feature","properties":{"state":"Karnataka","district":31,"district_n":"B.B.M.P(CENTRAL)","pc":23,"pc_name":"Bangalore Rural","ac":154,"ac_name":"Rajarajeshwarinagar","booth":244,"booth_name":"P V P High School, Room No 2, Gnana Ganga Nagar, Nagar, Ring Road, Mallathahalli"},"geometry":{"type":"Point","coordinates":[77.4979858,12.9488773]}},{"type":"Feature","properties":{"state":"Karnataka","district":31,"district_n":"B.B.M.P(CENTRAL)","pc":23,"pc_name":"Bangalore Rural","ac":154,"ac_name":"Rajarajeshwarinagar","booth":245,"booth_name":"P V P High School, Room No 4, Gnanaganga Nagar, Ring Road, Mallatha Halli"},"geometry":{"type":"Point","coordinates":[77.4981461,12.9489574]}},{"type":"Feature","properties":{"state":"Karnataka","district":31,"district_n":"B.B.M.P(CENTRAL)","pc":23,"pc_name":"Bangalore Rural","ac":154,"ac_name":"Rajarajeshwarinagar","booth":246,"booth_name":"Saroja Memorial School, Room No 1, Ullala Main Road, Gnana Jyothi Nagar"},"geometry":{"type":"Point","coordinates":[77.498085,12.948802]}},{"type":"Feature","properties":{"state":"Karnataka","district":31,"district_n":"B.B.M.P(CENTRAL)","pc":23,"pc_name":"Bangalore Rural","ac":154,"ac_name":"Rajarajeshwarinagar","booth":247,"booth_name":"Saroja Memorial School, Room No 2, Ullala Main Road, Gnana Jyothi Nagar"},"geometry":{"type":"Point","coordinates":[77.49428,12.95169]}},{"type":"Feature","properties":{"state":"Karnataka","district":31,"district_n":"B.B.M.P(CENTRAL)","pc":23,"pc_name":"Bangalore Rural","ac":154,"ac_name":"Rajarajeshwarinagar","booth":248,"booth_name":"Saroja Memorial School, Room No 3, Ullala Main Road, Gnana Jyothi Nagar"},"geometry":{"type":"Point","coordinates":[77.49436,12.9517536]}},{"type":"Feature","properties":{"state":"Karnataka","district":31,"district_n":"B.B.M.P(CENTRAL)","pc":23,"pc_name":"Bangalore Rural","ac":154,"ac_name":"Rajarajeshwarinagar","booth":249,"booth_name":"Holy Child Public School, Room No 1, Gnana Jyothi Nagar Mallathahalli"},"geometry":{"type":"Point","coordinates":[77.49963,12.9533844]}},{"type":"Feature","properties":{"state":"Karnataka","district":31,"district_n":"B.B.M.P(CENTRAL)","pc":23,"pc_name":"Bangalore Rural","ac":154,"ac_name":"Rajarajeshwarinagar","booth":250,"booth_name":"Holy Child Public School, Room No 2, Gnana Jyothi Nagar Mallathahalli"},"geometry":{"type":"Point","coordinates":[77.49959,12.9530964]}},{"type":"Feature","properties":{"state":"Karnataka","district":31,"district_n":"B.B.M.P(CENTRAL)","pc":23,"pc_name":"Bangalore Rural","ac":154,"ac_name":"Rajarajeshwarinagar","booth":251,"booth_name":"Govt Higher Primary School Room No 1, Panthara palya"},"geometry":{"type":"Point","coordinates":[77.49959,12.9532337]}},{"type":"Feature","properties":{"state":"Karnataka","district":31,"district_n":"B.B.M.P(CENTRAL)","pc":23,"pc_name":"Bangalore Rural","ac":154,"ac_name":"Rajarajeshwarinagar","booth":252,"booth_name":"B W S S B B Quatres Office,room No 1, Panthara Palya"},"geometry":{"type":"Point","coordinates":[77.52611,12.9426279]}},{"type":"Feature","properties":{"state":"Karnataka","district":31,"district_n":"B.B.M.P(CENTRAL)","pc":23,"pc_name":"Bangalore Rural","ac":154,"ac_name":"Rajarajeshwarinagar","booth":253,"booth_name":"B W S S B B Quatres Office,room No 2, Panthara Palya"},"geometry":{"type":"Point","coordinates":[77.52134,12.9360456]}},{"type":"Feature","properties":{"state":"Karnataka","district":31,"district_n":"B.B.M.P(CENTRAL)","pc":23,"pc_name":"Bangalore Rural","ac":154,"ac_name":"Rajarajeshwarinagar","booth":254,"booth_name":"Sri Sharadambha Vidya Niketan, Javregowda Nagar, Room No 1"},"geometry":{"type":"Point","coordinates":[77.52143,12.9360218]}},{"type":"Feature","properties":{"state":"Karnataka","district":31,"district_n":"B.B.M.P(CENTRAL)","pc":23,"pc_name":"Bangalore Rural","ac":154,"ac_name":"Rajarajeshwarinagar","booth":255,"booth_name":"Sri Sharadambha Vidya Niketan, Javregowda Nagar, Room No 2"},"geometry":{"type":"Point","coordinates":[77.53483,12.934824]}},{"type":"Feature","properties":{"state":"Karnataka","district":31,"district_n":"B.B.M.P(CENTRAL)","pc":23,"pc_name":"Bangalore Rural","ac":154,"ac_name":"Rajarajeshwarinagar","booth":256,"booth_name":"Sharadha Public School, Pushapagirinagar, Hosakerehalli"},"geometry":{"type":"Point","coordinates":[77.5348,12.9347963]}},{"type":"Feature","properties":{"state":"Karnataka","district":31,"district_n":"B.B.M.P(CENTRAL)","pc":23,"pc_name":"Bangalore Rural","ac":154,"ac_name":"Rajarajeshwarinagar","booth":257,"booth_name":"Sharadha Public School, Pushapagirinagar, Hosakerehalli"},"geometry":{"type":"Point","coordinates":[77.53501,12.9346571]}},{"type":"Feature","properties":{"state":"Karnataka","district":31,"district_n":"B.B.M.P(CENTRAL)","pc":23,"pc_name":"Bangalore Rural","ac":154,"ac_name":"Rajarajeshwarinagar","booth":258,"booth_name":"Rajarajeshwari Vidyasale, Kenchanahalli, Room No 1"},"geometry":{"type":"Point","coordinates":[77.53458,12.9344816]}},{"type":"Feature","properties":{"state":"Karnataka","district":31,"district_n":"B.B.M.P(CENTRAL)","pc":23,"pc_name":"Bangalore Rural","ac":154,"ac_name":"Rajarajeshwarinagar","booth":259,"booth_name":"Rajarajeshwari Vidyasale, Kenchanahalli, Room No 2"},"geometry":{"type":"Point","coordinates":[77.51361,12.9287987]}},{"type":"Feature","properties":{"state":"Karnataka","district":31,"district_n":"B.B.M.P(CENTRAL)","pc":23,"pc_name":"Bangalore Rural","ac":154,"ac_name":"Rajarajeshwarinagar","booth":260,"booth_name":"Govt Higher Primary School, Muttarayanagar, Room No 1"},"geometry":{"type":"Point","coordinates":[77.5136948,12.9288254]}},{"type":"Feature","properties":{"state":"Karnataka","district":31,"district_n":"B.B.M.P(CENTRAL)","pc":23,"pc_name":"Bangalore Rural","ac":154,"ac_name":"Rajarajeshwarinagar","booth":261,"booth_name":"Rajarajeshwari Vidyasala, Kenchanahalli, Room No 3"},"geometry":{"type":"Point","coordinates":[77.49959,12.9532337]}},{"type":"Feature","properties":{"state":"Karnataka","district":31,"district_n":"B.B.M.P(CENTRAL)","pc":23,"pc_name":"Bangalore Rural","ac":154,"ac_name":"Rajarajeshwarinagar","booth":262,"booth_name":"Rajarajeshwari Vidyasala, Kenchanahalli, Room No 4"},"geometry":{"type":"Point","coordinates":[77.5136948,12.9288254]}},{"type":"Feature","properties":{"state":"Karnataka","district":31,"district_n":"B.B.M.P(CENTRAL)","pc":23,"pc_name":"Bangalore Rural","ac":154,"ac_name":"Rajarajeshwarinagar","booth":263,"booth_name":"Mount Cormel English School, Halagevaderahalli, A, Room No 1"},"geometry":{"type":"Point","coordinates":[77.5135651,12.9285736]}},{"type":"Feature","properties":{"state":"Karnataka","district":31,"district_n":"B.B.M.P(CENTRAL)","pc":23,"pc_name":"Bangalore Rural","ac":154,"ac_name":"Rajarajeshwarinagar","booth":264,"booth_name":"Mount Cormel English School, Halagevaderahalli, A, Room No 2"},"geometry":{"type":"Point","coordinates":[77.5135345,12.9285612]}},{"type":"Feature","properties":{"state":"Karnataka","district":31,"district_n":"B.B.M.P(CENTRAL)","pc":23,"pc_name":"Bangalore Rural","ac":154,"ac_name":"Rajarajeshwarinagar","booth":265,"booth_name":"Mount Cormel English School, Halagevaderahalli, A, Room No 3"},"geometry":{"type":"Point","coordinates":[77.51881,12.92426]}},{"type":"Feature","properties":{"state":"Karnataka","district":31,"district_n":"B.B.M.P(CENTRAL)","pc":23,"pc_name":"Bangalore Rural","ac":154,"ac_name":"Rajarajeshwarinagar","booth":266,"booth_name":"Mount Cormel English School, Halagevaderahalli, A, Room No 4"},"geometry":{"type":"Point","coordinates":[77.51857,12.9240885]}},{"type":"Feature","properties":{"state":"Karnataka","district":31,"district_n":"B.B.M.P(CENTRAL)","pc":23,"pc_name":"Bangalore Rural","ac":154,"ac_name":"Rajarajeshwarinagar","booth":1,"booth_name":"Govt Tamil Primary School, Peenya Plantation, Siddarth Nagra, Hmt, Hmt, Room No 1"},"geometry":{"type":"Point","coordinates":[77.5284958,13.04659]}},{"type":"Feature","properties":{"state":"Karnataka","district":31,"district_n":"B.B.M.P(CENTRAL)","pc":23,"pc_name":"Bangalore Rural","ac":154,"ac_name":"Rajarajeshwarinagar","booth":2,"booth_name":"Govt Tamil Primary School, Peenya Plantation, Siddartha Nagara, Hmt, Hmt, Room No 2"},"geometry":{"type":"Point","coordinates":[77.5286,13.0464869]}},{"type":"Feature","properties":{"state":"Karnataka","district":31,"district_n":"B.B.M.P(CENTRAL)","pc":23,"pc_name":"Bangalore Rural","ac":154,"ac_name":"Rajarajeshwarinagar","booth":3,"booth_name":"Govt, Tamil Primary School, Peenya Plantation, Siddartha Ngara, Hmt, Hmt, Room No No 3"},"geometry":{"type":"Point","coordinates":[77.5286255,13.0464611]}},{"type":"Feature","properties":{"state":"Karnataka","district":31,"district_n":"B.B.M.P(CENTRAL)","pc":23,"pc_name":"Bangalore Rural","ac":154,"ac_name":"Rajarajeshwarinagar","booth":4,"booth_name":"Andra, Telugu Higher Primary School, Peenya Plantation, Siddartha Nagraa, Hmat, Hmat, Room No 1"},"geometry":{"type":"Point","coordinates":[77.52863,13.0464754]}},{"type":"Feature","properties":{"state":"Karnataka","district":31,"district_n":"B.B.M.P(CENTRAL)","pc":23,"pc_name":"Bangalore Rural","ac":154,"ac_name":"Rajarajeshwarinagar","booth":5,"booth_name":"Orchid International School, Hmt Colony, Jalahalli, Room No No 1"},"geometry":{"type":"Point","coordinates":[77.54465,13.0475655]}},{"type":"Feature","properties":{"state":"Karnataka","district":31,"district_n":"B.B.M.P(CENTRAL)","pc":23,"pc_name":"Bangalore Rural","ac":154,"ac_name":"Rajarajeshwarinagar","booth":6,"booth_name":"Orchid International School, Hmt Colony, Jalahalli, Room No No 2"},"geometry":{"type":"Point","coordinates":[77.54465,13.047575]}},{"type":"Feature","properties":{"state":"Karnataka","district":31,"district_n":"B.B.M.P(CENTRAL)","pc":23,"pc_name":"Bangalore Rural","ac":154,"ac_name":"Rajarajeshwarinagar","booth":7,"booth_name":"Government High School, Jalahalli Room No 1"},"geometry":{"type":"Point","coordinates":[77.55018,13.0456018]}},{"type":"Feature","properties":{"state":"Karnataka","district":31,"district_n":"B.B.M.P(CENTRAL)","pc":23,"pc_name":"Bangalore Rural","ac":154,"ac_name":"Rajarajeshwarinagar","booth":8,"booth_name":"Govt Govt High School School Jalahalli, Room No 2"},"geometry":{"type":"Point","coordinates":[77.55018,13.0456018]}},{"type":"Feature","properties":{"state":"Karnataka","district":31,"district_n":"B.B.M.P(CENTRAL)","pc":23,"pc_name":"Bangalore Rural","ac":154,"ac_name":"Rajarajeshwarinagar","booth":27,"booth_name":"H M T T High School, Hmt Colony Colony Room No 6"},"geometry":{"type":"Point","coordinates":[77.53853,13.043889]}},{"type":"Feature","properties":{"state":"Karnataka","district":31,"district_n":"B.B.M.P(CENTRAL)","pc":23,"pc_name":"Bangalore Rural","ac":154,"ac_name":"Rajarajeshwarinagar","booth":28,"booth_name":"B B M P P Ward Office, Ashwath Katte Road, Peenya , Bangalore 58, Room No 1"},"geometry":{"type":"Point","coordinates":[77.5272446,13.0334921]}},{"type":"Feature","properties":{"state":"Karnataka","district":31,"district_n":"B.B.M.P(CENTRAL)","pc":23,"pc_name":"Bangalore Rural","ac":154,"ac_name":"Rajarajeshwarinagar","booth":29,"booth_name":"B B M P P Ward Office, Ashwath Katte Road, Peenya , Bangalore 58, Room No 2"},"geometry":{"type":"Point","coordinates":[77.52728,13.0334358]}},{"type":"Feature","properties":{"state":"Karnataka","district":31,"district_n":"B.B.M.P(CENTRAL)","pc":23,"pc_name":"Bangalore Rural","ac":154,"ac_name":"Rajarajeshwarinagar","booth":30,"booth_name":"Govt Primary School, Peenya, Room No 1"},"geometry":{"type":"Point","coordinates":[77.5264053,13.0353765]}},{"type":"Feature","properties":{"state":"Karnataka","district":31,"district_n":"B.B.M.P(CENTRAL)","pc":23,"pc_name":"Bangalore Rural","ac":154,"ac_name":"Rajarajeshwarinagar","booth":31,"booth_name":"Govt Primary, Peenya, Peenya, School, Room No 2"},"geometry":{"type":"Point","coordinates":[77.5264053,13.0353832]}},{"type":"Feature","properties":{"state":"Karnataka","district":31,"district_n":"B.B.M.P(CENTRAL)","pc":23,"pc_name":"Bangalore Rural","ac":154,"ac_name":"Rajarajeshwarinagar","booth":32,"booth_name":"Sabari Higher Primary School, 2nd Cross, Shabari nagara, nagara, Room No 1"},"geometry":{"type":"Point","coordinates":[77.5231552,13.0446806]}},{"type":"Feature","properties":{"state":"Karnataka","district":31,"district_n":"B.B.M.P(CENTRAL)","pc":23,"pc_name":"Bangalore Rural","ac":154,"ac_name":"Rajarajeshwarinagar","booth":33,"booth_name":"Sabari Higher Primary School, 2nd Cross, Shabari nagara nagara Room No 2"},"geometry":{"type":"Point","coordinates":[77.52296,13.0446024]}},{"type":"Feature","properties":{"state":"Karnataka","district":31,"district_n":"B.B.M.P(CENTRAL)","pc":23,"pc_name":"Bangalore Rural","ac":154,"ac_name":"Rajarajeshwarinagar","booth":34,"booth_name":"Govt Govt P U U College, Peenya, Room No 1"},"geometry":{"type":"Point","coordinates":[77.5298157,13.0326414]}},{"type":"Feature","properties":{"state":"Karnataka","district":31,"district_n":"B.B.M.P(CENTRAL)","pc":23,"pc_name":"Bangalore Rural","ac":154,"ac_name":"Rajarajeshwarinagar","booth":35,"booth_name":"Govt Govt P U U College, Peenya, Room No 2"},"geometry":{"type":"Point","coordinates":[77.52971,13.0328035]}},{"type":"Feature","properties":{"state":"Karnataka","district":31,"district_n":"B.B.M.P(CENTRAL)","pc":23,"pc_name":"Bangalore Rural","ac":154,"ac_name":"Rajarajeshwarinagar","booth":36,"booth_name":"Govt Govt P U U College, Peenya, Room No 3"},"geometry":{"type":"Point","coordinates":[77.52972,13.0328465]}},{"type":"Feature","properties":{"state":"Karnataka","district":31,"district_n":"B.B.M.P(CENTRAL)","pc":23,"pc_name":"Bangalore Rural","ac":154,"ac_name":"Rajarajeshwarinagar","booth":37,"booth_name":"Govt Govt P U U College, Peenya, Room No 4"},"geometry":{"type":"Point","coordinates":[77.529686,13.03258]}},{"type":"Feature","properties":{"state":"Karnataka","district":31,"district_n":"B.B.M.P(CENTRAL)","pc":23,"pc_name":"Bangalore Rural","ac":154,"ac_name":"Rajarajeshwarinagar","booth":38,"booth_name":"Govt Govt P U U College, Peenya"},"geometry":{"type":"Point","coordinates":[77.52965,13.03283]}},{"type":"Feature","properties":{"state":"Karnataka","district":31,"district_n":"B.B.M.P(CENTRAL)","pc":23,"pc_name":"Bangalore Rural","ac":154,"ac_name":"Rajarajeshwarinagar","booth":267,"booth_name":"Govt Govt Higher Primary School,bangarappa Nagar , Hosakerehalli, Room No 1"},"geometry":{"type":"Point","coordinates":[77.5181656,12.9241056]}},{"type":"Feature","properties":{"state":"Karnataka","district":31,"district_n":"B.B.M.P(CENTRAL)","pc":23,"pc_name":"Bangalore Rural","ac":154,"ac_name":"Rajarajeshwarinagar","booth":52,"booth_name":"Humming Bird Nursery & Primary School, 4th Cross, Muthyalanagara, Room No 2"},"geometry":{"type":"Point","coordinates":[77.54989,13.040453]}},{"type":"Feature","properties":{"state":"Karnataka","district":31,"district_n":"B.B.M.P(CENTRAL)","pc":23,"pc_name":"Bangalore Rural","ac":154,"ac_name":"Rajarajeshwarinagar","booth":53,"booth_name":"Humming Bird Nursery & Primary School, 4th Cross, Muthyalanagara, Room No 3"},"geometry":{"type":"Point","coordinates":[77.55003,13.0402145]}},{"type":"Feature","properties":{"state":"Karnataka","district":31,"district_n":"B.B.M.P(CENTRAL)","pc":23,"pc_name":"Bangalore Rural","ac":154,"ac_name":"Rajarajeshwarinagar","booth":54,"booth_name":"C M M National Primary and and High School, 10th Main Road, Muthyalanagara, Muthyalanagara, Room No 2"},"geometry":{"type":"Point","coordinates":[77.5493,13.0395966]}},{"type":"Feature","properties":{"state":"Karnataka","district":31,"district_n":"B.B.M.P(CENTRAL)","pc":23,"pc_name":"Bangalore Rural","ac":154,"ac_name":"Rajarajeshwarinagar","booth":55,"booth_name":"C M M National Primary & High School, 10th Main Road, Muthyalanagara Muthyalanagara Room No 3"},"geometry":{"type":"Point","coordinates":[77.5492554,13.0395107]}},{"type":"Feature","properties":{"state":"Karnataka","district":31,"district_n":"B.B.M.P(CENTRAL)","pc":23,"pc_name":"Bangalore Rural","ac":154,"ac_name":"Rajarajeshwarinagar","booth":56,"booth_name":"C M M National Primary and High School, 10th Main Road , Muthyalanagara, Muthyalanagara, Muthyalanagara, Room No 4"},"geometry":{"type":"Point","coordinates":[77.54931,13.039587]}},{"type":"Feature","properties":{"state":"Karnataka","district":31,"district_n":"B.B.M.P(CENTRAL)","pc":23,"pc_name":"Bangalore Rural","ac":154,"ac_name":"Rajarajeshwarinagar","booth":57,"booth_name":"Open Air Theatre , Bbmp Park, Park, 3rd Cross, Sundara nagar, Room No 1"},"geometry":{"type":"Point","coordinates":[77.54989,13.040453]}},{"type":"Feature","properties":{"state":"Karnataka","district":31,"district_n":"B.B.M.P(CENTRAL)","pc":23,"pc_name":"Bangalore Rural","ac":154,"ac_name":"Rajarajeshwarinagar","booth":58,"booth_name":"Open Air Theatre , Bbmp Park, Park, 3rd Cross, Sundara nagar, nagar, Room No 2"},"geometry":{"type":"Point","coordinates":[77.54963,13.039587]}},{"type":"Feature","properties":{"state":"Karnataka","district":31,"district_n":"B.B.M.P(CENTRAL)","pc":23,"pc_name":"Bangalore Rural","ac":154,"ac_name":"Rajarajeshwarinagar","booth":59,"booth_name":"Bbmp Revenue Tax Collection Help Centre, near Chowdeswari Bus Stop, J P Park, Mohankumarnagar, Room No 1"},"geometry":{"type":"Point","coordinates":[77.55368,13.0324535]}},{"type":"Feature","properties":{"state":"Karnataka","district":31,"district_n":"B.B.M.P(CENTRAL)","pc":23,"pc_name":"Bangalore Rural","ac":154,"ac_name":"Rajarajeshwarinagar","booth":60,"booth_name":"B B M P P Engineering Ward Office, Near Chowdeswari Bus Stop, J P P Park Park Mohan kumar Nagra,"},"geometry":{"type":"Point","coordinates":[77.553566,13.0326]}},{"type":"Feature","properties":{"state":"Karnataka","district":31,"district_n":"B.B.M.P(CENTRAL)","pc":23,"pc_name":"Bangalore Rural","ac":154,"ac_name":"Rajarajeshwarinagar","booth":61,"booth_name":"St St Pauls English High School, School, 3rd Cross, Mohanakumara Nagara, Room No 1"},"geometry":{"type":"Point","coordinates":[77.5509949,13.0304308]}},{"type":"Feature","properties":{"state":"Karnataka","district":31,"district_n":"B.B.M.P(CENTRAL)","pc":23,"pc_name":"Bangalore Rural","ac":154,"ac_name":"Rajarajeshwarinagar","booth":62,"booth_name":"Dr Dr M C Modi School, Hmt Main Road, Rudra Layout, Room No No 1"},"geometry":{"type":"Point","coordinates":[77.55715,13.0350447]}},{"type":"Feature","properties":{"state":"Karnataka","district":31,"district_n":"B.B.M.P(CENTRAL)","pc":23,"pc_name":"Bangalore Rural","ac":154,"ac_name":"Rajarajeshwarinagar","booth":63,"booth_name":"Temparary Shed, at Bbmp Nursery School, Premises B Ramaiah Harijana Colony, Muthyalanagara"},"geometry":{"type":"Point","coordinates":[77.5531158,13.0380239]}},{"type":"Feature","properties":{"state":"Karnataka","district":31,"district_n":"B.B.M.P(CENTRAL)","pc":23,"pc_name":"Bangalore Rural","ac":154,"ac_name":"Rajarajeshwarinagar","booth":64,"booth_name":"Dr Dr M C Modi School, Hmt Main Road, Rudra Layout Layout Room No No No 3"},"geometry":{"type":"Point","coordinates":[77.55719,13.0350342]}},{"type":"Feature","properties":{"state":"Karnataka","district":31,"district_n":"B.B.M.P(CENTRAL)","pc":23,"pc_name":"Bangalore Rural","ac":154,"ac_name":"Rajarajeshwarinagar","booth":65,"booth_name":"Five 'h' English High School 3rd Main, 7th Cross Brindavananagara"},"geometry":{"type":"Point","coordinates":[77.5572052,13.0350294]}},{"type":"Feature","properties":{"state":"Karnataka","district":31,"district_n":"B.B.M.P(CENTRAL)","pc":23,"pc_name":"Bangalore Rural","ac":154,"ac_name":"Rajarajeshwarinagar","booth":66,"booth_name":"Five 'h' English High School 3rd Main, 7th Cross Brindavananagara"},"geometry":{"type":"Point","coordinates":[77.5571442,13.03499]}},{"type":"Feature","properties":{"state":"Karnataka","district":31,"district_n":"B.B.M.P(CENTRAL)","pc":23,"pc_name":"Bangalore Rural","ac":154,"ac_name":"Rajarajeshwarinagar","booth":67,"booth_name":"Five 'h' English High School 3rd Main, 7th Cross Brindavananagara"},"geometry":{"type":"Point","coordinates":[77.55715,13.0349922]}},{"type":"Feature","properties":{"state":"Karnataka","district":31,"district_n":"B.B.M.P(CENTRAL)","pc":23,"pc_name":"Bangalore Rural","ac":154,"ac_name":"Rajarajeshwarinagar","booth":68,"booth_name":"Childrens Childrens School, Yeshwanthapura, Yeshwanthapura, Room No 1"},"geometry":{"type":"Point","coordinates":[77.5528946,13.0307856]}},{"type":"Feature","properties":{"state":"Karnataka","district":31,"district_n":"B.B.M.P(CENTRAL)","pc":23,"pc_name":"Bangalore Rural","ac":154,"ac_name":"Rajarajeshwarinagar","booth":9,"booth_name":"Naviks Educational centre, No 21/1, M S Ramaiah Road, Gokula, Bangalore 54 54 Room 01"},"geometry":{"type":"Point","coordinates":[77.55488,13.0448608]}},{"type":"Feature","properties":{"state":"Karnataka","district":31,"district_n":"B.B.M.P(CENTRAL)","pc":23,"pc_name":"Bangalore Rural","ac":154,"ac_name":"Rajarajeshwarinagar","booth":10,"booth_name":"Naviks Educational centre, No 21/1, M S Ramaiah Raod, Gokula, Bangalore 54 54 Room 02"},"geometry":{"type":"Point","coordinates":[77.55556,13.0420475]}},{"type":"Feature","properties":{"state":"Karnataka","district":31,"district_n":"B.B.M.P(CENTRAL)","pc":23,"pc_name":"Bangalore Rural","ac":154,"ac_name":"Rajarajeshwarinagar","booth":11,"booth_name":"Study facility Centre for Sc/st, B E L Hmt Main Road, Jalahalli, Bangalore Bangalore 13, opp opp Sbi Sub stop Room No No No 1"},"geometry":{"type":"Point","coordinates":[77.55497,13.0449114]}},{"type":"Feature","properties":{"state":"Karnataka","district":31,"district_n":"B.B.M.P(CENTRAL)","pc":23,"pc_name":"Bangalore Rural","ac":154,"ac_name":"Rajarajeshwarinagar","booth":12,"booth_name":"Study facility Centre for Sc/st, B E L Hmt Main Road, Jalahalli, Bangalore Bangalore 13, opp opp Sbi Sub stop Room No No No 2"},"geometry":{"type":"Point","coordinates":[77.55491,13.0448751]}},{"type":"Feature","properties":{"state":"Karnataka","district":31,"district_n":"B.B.M.P(CENTRAL)","pc":23,"pc_name":"Bangalore Rural","ac":154,"ac_name":"Rajarajeshwarinagar","booth":13,"booth_name":"Mother Theresa English English Primary School, School, Mes Road, Bahubali Nagara, Room No 1"},"geometry":{"type":"Point","coordinates":[77.55136,13.0432081]}},{"type":"Feature","properties":{"state":"Karnataka","district":31,"district_n":"B.B.M.P(CENTRAL)","pc":23,"pc_name":"Bangalore Rural","ac":154,"ac_name":"Rajarajeshwarinagar","booth":14,"booth_name":"Mother Theresa English English Primary School, School, Mes Road, Bahubali Nagara, Room No 2"},"geometry":{"type":"Point","coordinates":[77.55135,13.0432262]}},{"type":"Feature","properties":{"state":"Karnataka","district":31,"district_n":"B.B.M.P(CENTRAL)","pc":23,"pc_name":"Bangalore Rural","ac":154,"ac_name":"Rajarajeshwarinagar","booth":15,"booth_name":"Mother Theresa English Primary High High School, Mes Road, Bahubali Nagara, Nagara, Room No 3"},"geometry":{"type":"Point","coordinates":[77.5512543,13.0430508]}},{"type":"Feature","properties":{"state":"Karnataka","district":31,"district_n":"B.B.M.P(CENTRAL)","pc":23,"pc_name":"Bangalore Rural","ac":154,"ac_name":"Rajarajeshwarinagar","booth":16,"booth_name":"Mother Theresa English English Primary High School, School, Mes Road, Bahubali Nagara, Room No 4"},"geometry":{"type":"Point","coordinates":[77.55119,13.043169]}},{"type":"Feature","properties":{"state":"Karnataka","district":31,"district_n":"B.B.M.P(CENTRAL)","pc":23,"pc_name":"Bangalore Rural","ac":154,"ac_name":"Rajarajeshwarinagar","booth":17,"booth_name":"Mother Theresa English English Primary & High High School, Mes Road, Bahubali Nagara Nagara Room No 5"},"geometry":{"type":"Point","coordinates":[77.5511856,13.0431623]}},{"type":"Feature","properties":{"state":"Karnataka","district":31,"district_n":"B.B.M.P(CENTRAL)","pc":23,"pc_name":"Bangalore Rural","ac":154,"ac_name":"Rajarajeshwarinagar","booth":18,"booth_name":"St Claret School, 5th Cross, Sharadamba Nagara, Jalahalli Jalahalli Room No 1"},"geometry":{"type":"Point","coordinates":[77.54493,13.0425444]}},{"type":"Feature","properties":{"state":"Karnataka","district":31,"district_n":"B.B.M.P(CENTRAL)","pc":23,"pc_name":"Bangalore Rural","ac":154,"ac_name":"Rajarajeshwarinagar","booth":19,"booth_name":"St St Claret School, 5th Cross, Sharadamba Nagara, Jalahalli, Room No 3"},"geometry":{"type":"Point","coordinates":[77.5449448,13.0426483]}},{"type":"Feature","properties":{"state":"Karnataka","district":31,"district_n":"B.B.M.P(CENTRAL)","pc":23,"pc_name":"Bangalore Rural","ac":154,"ac_name":"Rajarajeshwarinagar","booth":20,"booth_name":"St St Claret Claret School,5th Cross, Sharadamba Nagra, Jalahalli, Jalahalli, Room No 4"},"geometry":{"type":"Point","coordinates":[77.54488,13.0426779]}},{"type":"Feature","properties":{"state":"Karnataka","district":31,"district_n":"B.B.M.P(CENTRAL)","pc":23,"pc_name":"Bangalore Rural","ac":154,"ac_name":"Rajarajeshwarinagar","booth":21,"booth_name":"St St St Claret School, 5th Cross, Sharadamba Nagara, Jalahalli, Jalahalli, Room No 5"},"geometry":{"type":"Point","coordinates":[77.5449753,13.0427113]}},{"type":"Feature","properties":{"state":"Karnataka","district":31,"district_n":"B.B.M.P(CENTRAL)","pc":23,"pc_name":"Bangalore Rural","ac":154,"ac_name":"Rajarajeshwarinagar","booth":22,"booth_name":"St St Claret School, 5th Cross, Sharadamba Nagara, Jalahalli, Jalahalli, Room No 6"},"geometry":{"type":"Point","coordinates":[77.5449753,13.0427179]}},{"type":"Feature","properties":{"state":"Karnataka","district":31,"district_n":"B.B.M.P(CENTRAL)","pc":23,"pc_name":"Bangalore Rural","ac":154,"ac_name":"Rajarajeshwarinagar","booth":23,"booth_name":"H M T T High School, Hmt Colony, Room No 1"},"geometry":{"type":"Point","coordinates":[77.53877,13.0440531]}},{"type":"Feature","properties":{"state":"Karnataka","district":31,"district_n":"B.B.M.P(CENTRAL)","pc":23,"pc_name":"Bangalore Rural","ac":154,"ac_name":"Rajarajeshwarinagar","booth":24,"booth_name":"H M T T High School, Hmt Colony, Room No 3"},"geometry":{"type":"Point","coordinates":[77.538475,13.04388]}},{"type":"Feature","properties":{"state":"Karnataka","district":31,"district_n":"B.B.M.P(CENTRAL)","pc":23,"pc_name":"Bangalore Rural","ac":154,"ac_name":"Rajarajeshwarinagar","booth":25,"booth_name":"H M T T High School, Hmt Colony, Room No No 4"},"geometry":{"type":"Point","coordinates":[77.538475,13.0439129]}},{"type":"Feature","properties":{"state":"Karnataka","district":31,"district_n":"B.B.M.P(CENTRAL)","pc":23,"pc_name":"Bangalore Rural","ac":154,"ac_name":"Rajarajeshwarinagar","booth":26,"booth_name":"H M T T High School, Hmt Colony, Room No No 5"},"geometry":{"type":"Point","coordinates":[77.53847,13.0438747]}},{"type":"Feature","properties":{"state":"Karnataka","district":31,"district_n":"B.B.M.P(CENTRAL)","pc":23,"pc_name":"Bangalore Rural","ac":154,"ac_name":"Rajarajeshwarinagar","booth":44,"booth_name":"Sri Vidya Kendra Nursery & Primary School, 2nd Main Road, Peenya, Peenya, Room No 4"},"geometry":{"type":"Point","coordinates":[77.52895,13.0360727]}},{"type":"Feature","properties":{"state":"Karnataka","district":31,"district_n":"B.B.M.P(CENTRAL)","pc":23,"pc_name":"Bangalore Rural","ac":154,"ac_name":"Rajarajeshwarinagar","booth":45,"booth_name":"Govt Govt Junior College, Peenya"},"geometry":{"type":"Point","coordinates":[77.5287,13.0346479]}},{"type":"Feature","properties":{"state":"Karnataka","district":31,"district_n":"B.B.M.P(CENTRAL)","pc":23,"pc_name":"Bangalore Rural","ac":154,"ac_name":"Rajarajeshwarinagar","booth":46,"booth_name":"Green Valley English High School, No,275, 2nd Main Road, Muthyalanagara, Room No 1"},"geometry":{"type":"Point","coordinates":[77.55351,13.0418768]}},{"type":"Feature","properties":{"state":"Karnataka","district":31,"district_n":"B.B.M.P(CENTRAL)","pc":23,"pc_name":"Bangalore Rural","ac":154,"ac_name":"Rajarajeshwarinagar","booth":47,"booth_name":"Green Valley English High School, No No 275, 2nd Main road, Muthyalanagar, Room No No 2"},"geometry":{"type":"Point","coordinates":[77.55536,13.0417786]}},{"type":"Feature","properties":{"state":"Karnataka","district":31,"district_n":"B.B.M.P(CENTRAL)","pc":23,"pc_name":"Bangalore Rural","ac":154,"ac_name":"Rajarajeshwarinagar","booth":48,"booth_name":"B B M P P Nursery School, School, B B Ramaiah Colony, 19th Cross, Muthyalanagara, Room 01"},"geometry":{"type":"Point","coordinates":[77.5531845,13.0380459]}},{"type":"Feature","properties":{"state":"Karnataka","district":31,"district_n":"B.B.M.P(CENTRAL)","pc":23,"pc_name":"Bangalore Rural","ac":154,"ac_name":"Rajarajeshwarinagar","booth":49,"booth_name":"Green Valley English High School, No No 275, 2nd Main road, Muthyalanagar, Room No No 3"},"geometry":{"type":"Point","coordinates":[77.553566,13.04173]}},{"type":"Feature","properties":{"state":"Karnataka","district":31,"district_n":"B.B.M.P(CENTRAL)","pc":23,"pc_name":"Bangalore Rural","ac":154,"ac_name":"Rajarajeshwarinagar","booth":50,"booth_name":"C M M National National Primary & High School, 10th Mian Road, Muthyalanagara, Room No No 1"},"geometry":{"type":"Point","coordinates":[77.5535355,13.0418091]}},{"type":"Feature","properties":{"state":"Karnataka","district":31,"district_n":"B.B.M.P(CENTRAL)","pc":23,"pc_name":"Bangalore Rural","ac":154,"ac_name":"Rajarajeshwarinagar","booth":51,"booth_name":"Humming Bird Nursery & Primary School, 4th Cross, Muthyalanagara, Room No 1"},"geometry":{"type":"Point","coordinates":[77.5535355,13.0418091]}},{"type":"Feature","properties":{"state":"Karnataka","district":31,"district_n":"B.B.M.P(CENTRAL)","pc":23,"pc_name":"Bangalore Rural","ac":154,"ac_name":"Rajarajeshwarinagar","booth":119,"booth_name":"Devine English School, 1st Main Road, Gokula 1st Stage, 4th Phase, Yeshawanthapura, Room No 2"},"geometry":{"type":"Point","coordinates":[77.55613,13.021637]}},{"type":"Feature","properties":{"state":"Karnataka","district":31,"district_n":"B.B.M.P(CENTRAL)","pc":23,"pc_name":"Bangalore Rural","ac":154,"ac_name":"Rajarajeshwarinagar","booth":120,"booth_name":"Matha English Nursery & Primary School, 1st Main Road, Gokula 1st Stage, 4th Phase, Yeshawanthapura, Room No 1"},"geometry":{"type":"Point","coordinates":[77.55499,13.0218658]}},{"type":"Feature","properties":{"state":"Karnataka","district":31,"district_n":"B.B.M.P(CENTRAL)","pc":23,"pc_name":"Bangalore Rural","ac":154,"ac_name":"Rajarajeshwarinagar","booth":121,"booth_name":"Matha English Nursery & Primary School, 1st Main Road, Gokula 1st Stage, 4th Phase, Yeshawanthapura, Room No 2"},"geometry":{"type":"Point","coordinates":[77.5548553,13.021966]}},{"type":"Feature","properties":{"state":"Karnataka","district":31,"district_n":"B.B.M.P(CENTRAL)","pc":23,"pc_name":"Bangalore Rural","ac":154,"ac_name":"Rajarajeshwarinagar","booth":122,"booth_name":"Matha English Nursery & Primary School, 1st Main Road, Gokula 1st Stage, 4th Phase, Yeshawanthapura, Room No 3"},"geometry":{"type":"Point","coordinates":[77.55486,13.02201]}},{"type":"Feature","properties":{"state":"Karnataka","district":31,"district_n":"B.B.M.P(CENTRAL)","pc":23,"pc_name":"Bangalore Rural","ac":154,"ac_name":"Rajarajeshwarinagar","booth":123,"booth_name":"B B M P Ward Office, 2nd Cross, Yeshawanthapura, Room No 1"},"geometry":{"type":"Point","coordinates":[77.55519,13.0216846]}},{"type":"Feature","properties":{"state":"Karnataka","district":31,"district_n":"B.B.M.P(CENTRAL)","pc":23,"pc_name":"Bangalore Rural","ac":154,"ac_name":"Rajarajeshwarinagar","booth":125,"booth_name":"Govt Govt Nursery & Primary School, 6th Cross, Gokula 1st Stage, 1st Phase, Yeshawanthapura, Room No"},"geometry":{"type":"Point","coordinates":[77.5552,13.0216675]}},{"type":"Feature","properties":{"state":"Karnataka","district":31,"district_n":"B.B.M.P(CENTRAL)","pc":23,"pc_name":"Bangalore Rural","ac":154,"ac_name":"Rajarajeshwarinagar","booth":126,"booth_name":"Bbmp Girls High School & Junior College, 12th Main Road Gokula 1st Stage, 1st Phase Room No No 1"},"geometry":{"type":"Point","coordinates":[77.55867,13.0291052]}},{"type":"Feature","properties":{"state":"Karnataka","district":31,"district_n":"B.B.M.P(CENTRAL)","pc":23,"pc_name":"Bangalore Rural","ac":154,"ac_name":"Rajarajeshwarinagar","booth":127,"booth_name":"Bbmp Girls High School & Junior College, 12th Main Road Gokula 1st Stage, 1st Phase Room No No 2"},"geometry":{"type":"Point","coordinates":[77.5592,13.0302448]}},{"type":"Feature","properties":{"state":"Karnataka","district":31,"district_n":"B.B.M.P(CENTRAL)","pc":23,"pc_name":"Bangalore Rural","ac":154,"ac_name":"Rajarajeshwarinagar","booth":214,"booth_name":"Chandana Vidya Samsthe, Karnataka State Govt Govt D Group Employees Central Association Layout, Srigandhadakaval"},"geometry":{"type":"Point","coordinates":[77.50696,12.9784851]}},{"type":"Feature","properties":{"state":"Karnataka","district":31,"district_n":"B.B.M.P(CENTRAL)","pc":23,"pc_name":"Bangalore Rural","ac":154,"ac_name":"Rajarajeshwarinagar","booth":215,"booth_name":"Chandana Vidya Samsthe, Karnataka State Govt Govt D Group Employees Central Association Layout, Srigandhadakaval"},"geometry":{"type":"Point","coordinates":[77.4983444,12.9746866]}},{"type":"Feature","properties":{"state":"Karnataka","district":31,"district_n":"B.B.M.P(CENTRAL)","pc":23,"pc_name":"Bangalore Rural","ac":154,"ac_name":"Rajarajeshwarinagar","booth":216,"booth_name":"Little Lilly's School ( Vishnu Education Society), 6th Block, Nagarabhavi 2nd Stage, Ring Road"},"geometry":{"type":"Point","coordinates":[77.49826,12.9747868]}},{"type":"Feature","properties":{"state":"Karnataka","district":31,"district_n":"B.B.M.P(CENTRAL)","pc":23,"pc_name":"Bangalore Rural","ac":154,"ac_name":"Rajarajeshwarinagar","booth":217,"booth_name":"Little Lilly's School ( Vishnu Education Society), 6th Block, Nagarabhavi 2nd Stage, Ring Road"},"geometry":{"type":"Point","coordinates":[77.5104,12.9785137]}},{"type":"Feature","properties":{"state":"Karnataka","district":31,"district_n":"B.B.M.P(CENTRAL)","pc":23,"pc_name":"Bangalore Rural","ac":154,"ac_name":"Rajarajeshwarinagar","booth":218,"booth_name":"St St Joseph High School, Malagala Main Road, (sumanahalli Center) Room No No 1"},"geometry":{"type":"Point","coordinates":[77.51046,12.9787464]}},{"type":"Feature","properties":{"state":"Karnataka","district":31,"district_n":"B.B.M.P(CENTRAL)","pc":23,"pc_name":"Bangalore Rural","ac":154,"ac_name":"Rajarajeshwarinagar","booth":219,"booth_name":"St,joseph High School, Malagala Main Road ( Sumanahalli Centre) Room No 2"},"geometry":{"type":"Point","coordinates":[77.5079651,12.969924]}},{"type":"Feature","properties":{"state":"Karnataka","district":31,"district_n":"B.B.M.P(CENTRAL)","pc":23,"pc_name":"Bangalore Rural","ac":154,"ac_name":"Rajarajeshwarinagar","booth":220,"booth_name":"Govt Govt Lower Primary School, Malagalu, Room No 1"},"geometry":{"type":"Point","coordinates":[77.51529,12.9727621]}},{"type":"Feature","properties":{"state":"Karnataka","district":31,"district_n":"B.B.M.P(CENTRAL)","pc":23,"pc_name":"Bangalore Rural","ac":154,"ac_name":"Rajarajeshwarinagar","booth":221,"booth_name":"Anganavadi School, samudaya Bhavan, Malagalu, Room No 1"},"geometry":{"type":"Point","coordinates":[77.51519,12.972765]}},{"type":"Feature","properties":{"state":"Karnataka","district":31,"district_n":"B.B.M.P(CENTRAL)","pc":23,"pc_name":"Bangalore Rural","ac":154,"ac_name":"Rajarajeshwarinagar","booth":222,"booth_name":"Kle Institutions, Outer Ring Road, 3rd Block, 2nd Stage, Nagarabhavi, Bangalore Bangalore Bangalore 72, Room No 1"},"geometry":{"type":"Point","coordinates":[77.50795,12.9698715]}},{"type":"Feature","properties":{"state":"Karnataka","district":31,"district_n":"B.B.M.P(CENTRAL)","pc":23,"pc_name":"Bangalore Rural","ac":154,"ac_name":"Rajarajeshwarinagar","booth":39,"booth_name":"Anganavadi Kendra, 14th Cross, Harijana Colony, Peenya Village, Room No 1"},"geometry":{"type":"Point","coordinates":[77.5301743,13.0354242]}},{"type":"Feature","properties":{"state":"Karnataka","district":31,"district_n":"B.B.M.P(CENTRAL)","pc":23,"pc_name":"Bangalore Rural","ac":154,"ac_name":"Rajarajeshwarinagar","booth":40,"booth_name":"Anganavadi Kendra, 14th Cross, Harijana Colony, Peenya Village, Village, Room No 2"},"geometry":{"type":"Point","coordinates":[77.53017,13.03542]}},{"type":"Feature","properties":{"state":"Karnataka","district":31,"district_n":"B.B.M.P(CENTRAL)","pc":23,"pc_name":"Bangalore Rural","ac":154,"ac_name":"Rajarajeshwarinagar","booth":41,"booth_name":"Sri Vidya Kendra Nursery & Primary School, 2nd Main Road, Peenya Peenya Room No 1"},"geometry":{"type":"Point","coordinates":[77.52885,13.036]}},{"type":"Feature","properties":{"state":"Karnataka","district":31,"district_n":"B.B.M.P(CENTRAL)","pc":23,"pc_name":"Bangalore Rural","ac":154,"ac_name":"Rajarajeshwarinagar","booth":42,"booth_name":"Sri Vidya Kendra Nursery & & Primary School, 2nd Main Road, Peenya Peenya Peenya Room No 2"},"geometry":{"type":"Point","coordinates":[77.5289,13.0360031]}},{"type":"Feature","properties":{"state":"Karnataka","district":31,"district_n":"B.B.M.P(CENTRAL)","pc":23,"pc_name":"Bangalore Rural","ac":154,"ac_name":"Rajarajeshwarinagar","booth":43,"booth_name":"Sri Vidya Kendra Nursery & Primary School, School, 2nd Main Road, Peenya, Room No No 3"},"geometry":{"type":"Point","coordinates":[77.52896,13.0360222]}},{"type":"Feature","properties":{"state":"Karnataka","district":31,"district_n":"B.B.M.P(CENTRAL)","pc":23,"pc_name":"Bangalore Rural","ac":154,"ac_name":"Rajarajeshwarinagar","booth":164,"booth_name":"Govt Higher Primary School, New Building, Laggere, Bangalore 58, Room No 4"},"geometry":{"type":"Point","coordinates":[77.5234756,13.0096607]}},{"type":"Feature","properties":{"state":"Karnataka","district":31,"district_n":"B.B.M.P(CENTRAL)","pc":23,"pc_name":"Bangalore Rural","ac":154,"ac_name":"Rajarajeshwarinagar","booth":165,"booth_name":"Govt Higher Primary School, New Building, Laggere, Bangalore 58, Room No 5"},"geometry":{"type":"Point","coordinates":[77.5234756,13.0096073]}},{"type":"Feature","properties":{"state":"Karnataka","district":31,"district_n":"B.B.M.P(CENTRAL)","pc":23,"pc_name":"Bangalore Rural","ac":154,"ac_name":"Rajarajeshwarinagar","booth":166,"booth_name":"Govt Higher Primary School, New Building, Laggere, Bangalore 58, Room No 7"},"geometry":{"type":"Point","coordinates":[77.52349,13.0096626]}},{"type":"Feature","properties":{"state":"Karnataka","district":31,"district_n":"B.B.M.P(CENTRAL)","pc":23,"pc_name":"Bangalore Rural","ac":154,"ac_name":"Rajarajeshwarinagar","booth":223,"booth_name":"St John High School, Room No 1, Papareddy Palya, B 72"},"geometry":{"type":"Point","coordinates":[77.51567,12.972744]}},{"type":"Feature","properties":{"state":"Karnataka","district":31,"district_n":"B.B.M.P(CENTRAL)","pc":23,"pc_name":"Bangalore Rural","ac":154,"ac_name":"Rajarajeshwarinagar","booth":224,"booth_name":"Renuka National Public School, 81/82, 1st A Main Road, 1st Cross, Sapthagiri Layout, 9th Block, Nagarabhavi 2nd Stage, Bangalore Bangalore Bangalore 72, Room No 1"},"geometry":{"type":"Point","coordinates":[77.5077,12.9700127]}},{"type":"Feature","properties":{"state":"Karnataka","district":31,"district_n":"B.B.M.P(CENTRAL)","pc":23,"pc_name":"Bangalore Rural","ac":154,"ac_name":"Rajarajeshwarinagar","booth":225,"booth_name":"Renuka National Public School, 81/82, 1st A Main Road, 1st Cross, Sapthagiri Layout, 9th Block, Nagarabhavi 2nd Stage, Bangalore Bangalore Bangalore 72, Room No 3"},"geometry":{"type":"Point","coordinates":[77.5078,12.97008]}},{"type":"Feature","properties":{"state":"Karnataka","district":31,"district_n":"B.B.M.P(CENTRAL)","pc":23,"pc_name":"Bangalore Rural","ac":154,"ac_name":"Rajarajeshwarinagar","booth":226,"booth_name":"Nri Institute, Papareddy Palya, Room No 1"},"geometry":{"type":"Point","coordinates":[77.5078354,12.9699335]}},{"type":"Feature","properties":{"state":"Karnataka","district":31,"district_n":"B.B.M.P(CENTRAL)","pc":23,"pc_name":"Bangalore Rural","ac":154,"ac_name":"Rajarajeshwarinagar","booth":128,"booth_name":"Bbmp Girls High School and Junior College, 12th Main Road Gokula 1st Stage, 1st Phase Room No 3"},"geometry":{"type":"Point","coordinates":[77.55909,13.0302238]}},{"type":"Feature","properties":{"state":"Karnataka","district":31,"district_n":"B.B.M.P(CENTRAL)","pc":23,"pc_name":"Bangalore Rural","ac":154,"ac_name":"Rajarajeshwarinagar","booth":129,"booth_name":"Bbmp Girls High School and Junior College, 12th Main Road Gokula 1st Stage, 1st Phase Phase Room No 4"},"geometry":{"type":"Point","coordinates":[77.55909,13.0302143]}},{"type":"Feature","properties":{"state":"Karnataka","district":31,"district_n":"B.B.M.P(CENTRAL)","pc":23,"pc_name":"Bangalore Rural","ac":154,"ac_name":"Rajarajeshwarinagar","booth":130,"booth_name":"Bbmp Girls High School and Junior College, 12th Main Road Gokula 1st Stage, 1st Phase Room No 5"},"geometry":{"type":"Point","coordinates":[77.5590744,13.0302353]}},{"type":"Feature","properties":{"state":"Karnataka","district":31,"district_n":"B.B.M.P(CENTRAL)","pc":23,"pc_name":"Bangalore Rural","ac":154,"ac_name":"Rajarajeshwarinagar","booth":131,"booth_name":"Govt Nursery & Primary School, 12th Main Road, 6th Cross, Gokula 1st Stage, 1st Phase, Yeshawanthapura, Room No 2"},"geometry":{"type":"Point","coordinates":[77.55906,13.0302]}},{"type":"Feature","properties":{"state":"Karnataka","district":31,"district_n":"B.B.M.P(CENTRAL)","pc":23,"pc_name":"Bangalore Rural","ac":154,"ac_name":"Rajarajeshwarinagar","booth":132,"booth_name":"B M P Nursery & Primary School, Anjaneya Temple Street, Yeshawanthapura, Room No 1"},"geometry":{"type":"Point","coordinates":[77.5585251,13.0289669]}},{"type":"Feature","properties":{"state":"Karnataka","district":31,"district_n":"B.B.M.P(CENTRAL)","pc":23,"pc_name":"Bangalore Rural","ac":154,"ac_name":"Rajarajeshwarinagar","booth":134,"booth_name":"R V S Kannada & English Primary School, Lakshmidevinagar, Laggere, Room No 1"},"geometry":{"type":"Point","coordinates":[77.55388,13.0212946]}},{"type":"Feature","properties":{"state":"Karnataka","district":31,"district_n":"B.B.M.P(CENTRAL)","pc":23,"pc_name":"Bangalore Rural","ac":154,"ac_name":"Rajarajeshwarinagar","booth":135,"booth_name":"R V S Kannada & English Primary School, Lakshmidevinagar, Laggere, Room No 2"},"geometry":{"type":"Point","coordinates":[77.52762,13.0177736]}}]}