{"type":"FeatureCollection","features":[{"type":"Feature","properties":{"state":"Karnataka","district":31,"district_n":"B.B.M.P(CENTRAL)","pc":26,"pc_name":"Bangalore South","ac":169,"ac_name":"Chickpet","booth":33,"booth_name":"Corporation Montessary School, Room No 1"},"geometry":{"type":"Point","coordinates":[77.58452,12.9573069]}},{"type":"Feature","properties":{"state":"Karnataka","district":31,"district_n":"B.B.M.P(CENTRAL)","pc":26,"pc_name":"Bangalore South","ac":169,"ac_name":"Chickpet","booth":34,"booth_name":"Corporation Montessary School, Room No 2"},"geometry":{"type":"Point","coordinates":[77.58447,12.9597616]}},{"type":"Feature","properties":{"state":"Karnataka","district":31,"district_n":"B.B.M.P(CENTRAL)","pc":26,"pc_name":"Bangalore South","ac":169,"ac_name":"Chickpet","booth":35,"booth_name":"Mothinagar Muslim Montessary and Primary School, Room No 1 1st Cross, Kalasipalya layout"},"geometry":{"type":"Point","coordinates":[77.58009,12.9617958]}},{"type":"Feature","properties":{"state":"Karnataka","district":31,"district_n":"B.B.M.P(CENTRAL)","pc":26,"pc_name":"Bangalore South","ac":169,"ac_name":"Chickpet","booth":36,"booth_name":"Mothinagar Muslim Montessary and Primary School, Room No 2, 1st Cross, Kalasipalyam Layout"},"geometry":{"type":"Point","coordinates":[77.5802155,12.9618788]}},{"type":"Feature","properties":{"state":"Karnataka","district":31,"district_n":"B.B.M.P(CENTRAL)","pc":26,"pc_name":"Bangalore South","ac":169,"ac_name":"Chickpet","booth":38,"booth_name":"Vanivilas High School, Room No 1, K R Road"},"geometry":{"type":"Point","coordinates":[77.576004,12.9613838]}},{"type":"Feature","properties":{"state":"Karnataka","district":31,"district_n":"B.B.M.P(CENTRAL)","pc":26,"pc_name":"Bangalore South","ac":169,"ac_name":"Chickpet","booth":39,"booth_name":"Government Urdu Primary School, Room No 1, Lal Bagh Fort Road"},"geometry":{"type":"Point","coordinates":[77.57502,12.9522867]}},{"type":"Feature","properties":{"state":"Karnataka","district":31,"district_n":"B.B.M.P(CENTRAL)","pc":26,"pc_name":"Bangalore South","ac":169,"ac_name":"Chickpet","booth":40,"booth_name":"Government Urdu Primary School, Room No 2, Lalbagh Fort Road, Bangalore"},"geometry":{"type":"Point","coordinates":[77.7571259,12.9575138]}},{"type":"Feature","properties":{"state":"Karnataka","district":31,"district_n":"B.B.M.P(CENTRAL)","pc":26,"pc_name":"Bangalore South","ac":169,"ac_name":"Chickpet","booth":41,"booth_name":"Goverment Urdu Primary School, Room No 4, Lalbagh Fort Road, Bangalore"},"geometry":{"type":"Point","coordinates":[77.57528,12.9575787]}},{"type":"Feature","properties":{"state":"Karnataka","district":31,"district_n":"B.B.M.P(CENTRAL)","pc":26,"pc_name":"Bangalore South","ac":169,"ac_name":"Chickpet","booth":42,"booth_name":"Bharath Scout and Guides, Lalbagh Fort Road, Chamraraj Pet"},"geometry":{"type":"Point","coordinates":[77.57441,12.9574652]}},{"type":"Feature","properties":{"state":"Karnataka","district":31,"district_n":"B.B.M.P(CENTRAL)","pc":26,"pc_name":"Bangalore South","ac":169,"ac_name":"Chickpet","booth":43,"booth_name":"Government Urdu Primary School, Room No 1"},"geometry":{"type":"Point","coordinates":[77.57512,12.9573689]}},{"type":"Feature","properties":{"state":"Karnataka","district":31,"district_n":"B.B.M.P(CENTRAL)","pc":26,"pc_name":"Bangalore South","ac":169,"ac_name":"Chickpet","booth":98,"booth_name":"Asst Asst Executive Engineering Office, Room No 1, H Siddaiah Siddaiah Road, Hombegowda Nagar"},"geometry":{"type":"Point","coordinates":[77.59409,12.9520779]}},{"type":"Feature","properties":{"state":"Karnataka","district":31,"district_n":"B.B.M.P(CENTRAL)","pc":26,"pc_name":"Bangalore South","ac":169,"ac_name":"Chickpet","booth":102,"booth_name":"Ganapathi Vidyamandira Vidyamandira R R No 1, Venkatappa Lane, Mavalli 560004"},"geometry":{"type":"Point","coordinates":[77.58174,12.95231]}},{"type":"Feature","properties":{"state":"Karnataka","district":31,"district_n":"B.B.M.P(CENTRAL)","pc":26,"pc_name":"Bangalore South","ac":169,"ac_name":"Chickpet","booth":103,"booth_name":"Ganapathi Vidyamandira R R No 2, Venkatappa Lane, Mavalli 56004"},"geometry":{"type":"Point","coordinates":[77.58182,12.9521971]}},{"type":"Feature","properties":{"state":"Karnataka","district":31,"district_n":"B.B.M.P(CENTRAL)","pc":26,"pc_name":"Bangalore South","ac":169,"ac_name":"Chickpet","booth":104,"booth_name":"Bright Future School, Motton Stall Cross, Mavalli 560004"},"geometry":{"type":"Point","coordinates":[77.58112,12.953948]}},{"type":"Feature","properties":{"state":"Karnataka","district":31,"district_n":"B.B.M.P(CENTRAL)","pc":26,"pc_name":"Bangalore South","ac":169,"ac_name":"Chickpet","booth":108,"booth_name":"Ravindra School Room No 1, S K Lane, Mavalli 560004"},"geometry":{"type":"Point","coordinates":[77.58184,12.9507275]}},{"type":"Feature","properties":{"state":"Karnataka","district":31,"district_n":"B.B.M.P(CENTRAL)","pc":26,"pc_name":"Bangalore South","ac":169,"ac_name":"Chickpet","booth":111,"booth_name":"National High School"},"geometry":{"type":"Point","coordinates":[77.57324,12.9494867]}},{"type":"Feature","properties":{"state":"Karnataka","district":31,"district_n":"B.B.M.P(CENTRAL)","pc":26,"pc_name":"Bangalore South","ac":169,"ac_name":"Chickpet","booth":112,"booth_name":"Womens Peace Leasgue School"},"geometry":{"type":"Point","coordinates":[77.5700455,12.9490623]}},{"type":"Feature","properties":{"state":"Karnataka","district":31,"district_n":"B.B.M.P(CENTRAL)","pc":26,"pc_name":"Bangalore South","ac":169,"ac_name":"Chickpet","booth":113,"booth_name":"Government Girls Middle School"},"geometry":{"type":"Point","coordinates":[77.57004,12.9474621]}},{"type":"Feature","properties":{"state":"Karnataka","district":31,"district_n":"B.B.M.P(CENTRAL)","pc":26,"pc_name":"Bangalore South","ac":169,"ac_name":"Chickpet","booth":114,"booth_name":"Goverment Girls Middle School"},"geometry":{"type":"Point","coordinates":[77.57002,12.9473906]}},{"type":"Feature","properties":{"state":"Karnataka","district":31,"district_n":"B.B.M.P(CENTRAL)","pc":26,"pc_name":"Bangalore South","ac":169,"ac_name":"Chickpet","booth":115,"booth_name":"Niveditha School, Room No 1"},"geometry":{"type":"Point","coordinates":[77.5671844,12.9457293]}},{"type":"Feature","properties":{"state":"Karnataka","district":31,"district_n":"B.B.M.P(CENTRAL)","pc":26,"pc_name":"Bangalore South","ac":169,"ac_name":"Chickpet","booth":116,"booth_name":"Niveditha School, Room Room No 2"},"geometry":{"type":"Point","coordinates":[77.566925,12.9453487]}},{"type":"Feature","properties":{"state":"Karnataka","district":31,"district_n":"B.B.M.P(CENTRAL)","pc":26,"pc_name":"Bangalore South","ac":169,"ac_name":"Chickpet","booth":44,"booth_name":"Government Urdu Primary School, Room No No 5, Lalbagh Fort Road, Chamaraja Pet"},"geometry":{"type":"Point","coordinates":[77.57518,12.9574738]}},{"type":"Feature","properties":{"state":"Karnataka","district":31,"district_n":"B.B.M.P(CENTRAL)","pc":26,"pc_name":"Bangalore South","ac":169,"ac_name":"Chickpet","booth":45,"booth_name":"Intech Karnataka Heritage Projects Medical College, Room No 1, East Road, Kalasipalyam"},"geometry":{"type":"Point","coordinates":[77.57517,12.9576235]}},{"type":"Feature","properties":{"state":"Karnataka","district":31,"district_n":"B.B.M.P(CENTRAL)","pc":26,"pc_name":"Bangalore South","ac":169,"ac_name":"Chickpet","booth":46,"booth_name":"Nagara Sabha Shishuvihar Medical College, East Road, Kalasi Palyam"},"geometry":{"type":"Point","coordinates":[77.5750046,12.9578514]}},{"type":"Feature","properties":{"state":"Karnataka","district":31,"district_n":"B.B.M.P(CENTRAL)","pc":26,"pc_name":"Bangalore South","ac":169,"ac_name":"Chickpet","booth":48,"booth_name":"Karnataka State Savitha Samaja Junior Student Hostel, 3rd Cross, Journalist Colony"},"geometry":{"type":"Point","coordinates":[77.58114,12.9566193]}},{"type":"Feature","properties":{"state":"Karnataka","district":31,"district_n":"B.B.M.P(CENTRAL)","pc":26,"pc_name":"Bangalore South","ac":169,"ac_name":"Chickpet","booth":50,"booth_name":"S V Vidyalaya High School, My School, Room No 1"},"geometry":{"type":"Point","coordinates":[77.5916748,12.9588976]}},{"type":"Feature","properties":{"state":"Karnataka","district":31,"district_n":"B.B.M.P(CENTRAL)","pc":26,"pc_name":"Bangalore South","ac":169,"ac_name":"Chickpet","booth":51,"booth_name":"S V Vidyalaya High School, My School Room No 2"},"geometry":{"type":"Point","coordinates":[77.59201,12.959115]}},{"type":"Feature","properties":{"state":"Karnataka","district":31,"district_n":"B.B.M.P(CENTRAL)","pc":26,"pc_name":"Bangalore South","ac":169,"ac_name":"Chickpet","booth":52,"booth_name":"City Central Library"},"geometry":{"type":"Point","coordinates":[77.59254,12.9592056]}},{"type":"Feature","properties":{"state":"Karnataka","district":31,"district_n":"B.B.M.P(CENTRAL)","pc":26,"pc_name":"Bangalore South","ac":169,"ac_name":"Chickpet","booth":54,"booth_name":"Al Ameen Science and Arts College, Room No 6"},"geometry":{"type":"Point","coordinates":[77.58676,12.9545546]}},{"type":"Feature","properties":{"state":"Karnataka","district":31,"district_n":"B.B.M.P(CENTRAL)","pc":26,"pc_name":"Bangalore South","ac":169,"ac_name":"Chickpet","booth":55,"booth_name":"Government Pharmacy College, Room No 4, 'b' Block"},"geometry":{"type":"Point","coordinates":[77.59038,12.9614067]}},{"type":"Feature","properties":{"state":"Karnataka","district":31,"district_n":"B.B.M.P(CENTRAL)","pc":26,"pc_name":"Bangalore South","ac":169,"ac_name":"Chickpet","booth":56,"booth_name":"Al Ameen Science and Arts College, Room No 1 'b' Block"},"geometry":{"type":"Point","coordinates":[77.58678,12.9541187]}},{"type":"Feature","properties":{"state":"Karnataka","district":31,"district_n":"B.B.M.P(CENTRAL)","pc":26,"pc_name":"Bangalore South","ac":169,"ac_name":"Chickpet","booth":117,"booth_name":"Saraswathi Vidhya Mandir Room No"},"geometry":{"type":"Point","coordinates":[77.56502,12.9444447]}},{"type":"Feature","properties":{"state":"Karnataka","district":31,"district_n":"B.B.M.P(CENTRAL)","pc":26,"pc_name":"Bangalore South","ac":169,"ac_name":"Chickpet","booth":120,"booth_name":"B B M M S S College for Women, Room No 1"},"geometry":{"type":"Point","coordinates":[77.56938,12.9435406]}},{"type":"Feature","properties":{"state":"Karnataka","district":31,"district_n":"B.B.M.P(CENTRAL)","pc":26,"pc_name":"Bangalore South","ac":169,"ac_name":"Chickpet","booth":121,"booth_name":"B B M M S S College For Women , Room No 2"},"geometry":{"type":"Point","coordinates":[77.56939,12.9439468]}},{"type":"Feature","properties":{"state":"Karnataka","district":31,"district_n":"B.B.M.P(CENTRAL)","pc":26,"pc_name":"Bangalore South","ac":169,"ac_name":"Chickpet","booth":123,"booth_name":"Sri Vasavi Vidyanikethan Room No 2"},"geometry":{"type":"Point","coordinates":[77.57563,12.9484024]}},{"type":"Feature","properties":{"state":"Karnataka","district":31,"district_n":"B.B.M.P(CENTRAL)","pc":26,"pc_name":"Bangalore South","ac":169,"ac_name":"Chickpet","booth":124,"booth_name":"Sri Saraswathi Vidya Mandira, Room No 1"},"geometry":{"type":"Point","coordinates":[77.5782547,12.9482269]}},{"type":"Feature","properties":{"state":"Karnataka","district":31,"district_n":"B.B.M.P(CENTRAL)","pc":26,"pc_name":"Bangalore South","ac":169,"ac_name":"Chickpet","booth":127,"booth_name":"Sri Saraswathi Vidya Mandira Room No 4"},"geometry":{"type":"Point","coordinates":[77.57828,12.94828]}},{"type":"Feature","properties":{"state":"Karnataka","district":31,"district_n":"B.B.M.P(CENTRAL)","pc":26,"pc_name":"Bangalore South","ac":169,"ac_name":"Chickpet","booth":128,"booth_name":"Maruthi Vidyalaya Higher Primary School, R R No 2,, 9th Cross Road, Hombegowdangara"},"geometry":{"type":"Point","coordinates":[77.59786,12.9483185]}},{"type":"Feature","properties":{"state":"Karnataka","district":31,"district_n":"B.B.M.P(CENTRAL)","pc":26,"pc_name":"Bangalore South","ac":169,"ac_name":"Chickpet","booth":131,"booth_name":"S R S School R R No 2, 4th Main Road, Lakkasandra"},"geometry":{"type":"Point","coordinates":[77.59902,12.9481592]}},{"type":"Feature","properties":{"state":"Karnataka","district":31,"district_n":"B.B.M.P(CENTRAL)","pc":26,"pc_name":"Bangalore South","ac":169,"ac_name":"Chickpet","booth":57,"booth_name":"Al Ameen Science and Arts College, Room No,2"},"geometry":{"type":"Point","coordinates":[77.58669,12.9544439]}},{"type":"Feature","properties":{"state":"Karnataka","district":31,"district_n":"B.B.M.P(CENTRAL)","pc":26,"pc_name":"Bangalore South","ac":169,"ac_name":"Chickpet","booth":37,"booth_name":"Corporation Montessary and Govt Urdu Primary Boys Schl, Room No 1, Co Bldg Mothinagara, Kalasipalyam"},"geometry":{"type":"Point","coordinates":[77.57927,12.9614305]}},{"type":"Feature","properties":{"state":"Karnataka","district":31,"district_n":"B.B.M.P(CENTRAL)","pc":26,"pc_name":"Bangalore South","ac":169,"ac_name":"Chickpet","booth":58,"booth_name":"Anganavadi Kendra, Shishu Abiruddhi yojana, Vinobha Nagar, 1st Cross, Room No 1"},"geometry":{"type":"Point","coordinates":[77.58397,12.9570055]}},{"type":"Feature","properties":{"state":"Karnataka","district":31,"district_n":"B.B.M.P(CENTRAL)","pc":26,"pc_name":"Bangalore South","ac":169,"ac_name":"Chickpet","booth":60,"booth_name":"Government Kannada Primary School, Room No 2"},"geometry":{"type":"Point","coordinates":[77.582634,12.954875]}},{"type":"Feature","properties":{"state":"Karnataka","district":31,"district_n":"B.B.M.P(CENTRAL)","pc":26,"pc_name":"Bangalore South","ac":169,"ac_name":"Chickpet","booth":62,"booth_name":"Ashok Shishuvihara School"},"geometry":{"type":"Point","coordinates":[77.5686,12.9558554]}},{"type":"Feature","properties":{"state":"Karnataka","district":31,"district_n":"B.B.M.P(CENTRAL)","pc":26,"pc_name":"Bangalore South","ac":169,"ac_name":"Chickpet","booth":65,"booth_name":"Bangalore Mahanagara Palike Girls High school, Room No 3"},"geometry":{"type":"Point","coordinates":[77.5619659,12.9530153]}},{"type":"Feature","properties":{"state":"Karnataka","district":31,"district_n":"B.B.M.P(CENTRAL)","pc":26,"pc_name":"Bangalore South","ac":169,"ac_name":"Chickpet","booth":66,"booth_name":"Bangalore Mahanagara Palike Girls High school, school, Room 4"},"geometry":{"type":"Point","coordinates":[77.56182,12.9530869]}},{"type":"Feature","properties":{"state":"Karnataka","district":31,"district_n":"B.B.M.P(CENTRAL)","pc":26,"pc_name":"Bangalore South","ac":169,"ac_name":"Chickpet","booth":67,"booth_name":"Suman Convent"},"geometry":{"type":"Point","coordinates":[77.5602951,12.9516525]}},{"type":"Feature","properties":{"state":"Karnataka","district":31,"district_n":"B.B.M.P(CENTRAL)","pc":26,"pc_name":"Bangalore South","ac":169,"ac_name":"Chickpet","booth":68,"booth_name":"Bangalore Mahanagara Palike Boys High School School Room No 1"},"geometry":{"type":"Point","coordinates":[77.56369,12.9512978]}},{"type":"Feature","properties":{"state":"Karnataka","district":31,"district_n":"B.B.M.P(CENTRAL)","pc":26,"pc_name":"Bangalore South","ac":169,"ac_name":"Chickpet","booth":69,"booth_name":"Bangalore Mahanagara Palike Boys High School , Room No 1"},"geometry":{"type":"Point","coordinates":[77.5635757,12.9511633]}},{"type":"Feature","properties":{"state":"Karnataka","district":31,"district_n":"B.B.M.P(CENTRAL)","pc":26,"pc_name":"Bangalore South","ac":169,"ac_name":"Chickpet","booth":210,"booth_name":"Regional Vocational Training Institute For Women Room No 2, Hosur Main Road"},"geometry":{"type":"Point","coordinates":[77.5992,12.937397]}},{"type":"Feature","properties":{"state":"Karnataka","district":31,"district_n":"B.B.M.P(CENTRAL)","pc":26,"pc_name":"Bangalore South","ac":169,"ac_name":"Chickpet","booth":211,"booth_name":"Tilaknagar Association For Peoples Development, Room No 1 1st Cross, 8th Main , Byrasandra"},"geometry":{"type":"Point","coordinates":[77.59341,12.9291315]}},{"type":"Feature","properties":{"state":"Karnataka","district":31,"district_n":"B.B.M.P(CENTRAL)","pc":26,"pc_name":"Bangalore South","ac":169,"ac_name":"Chickpet","booth":212,"booth_name":"Tilaknagar Association For peoples Development, Room No 2, 1st Cross, 8th Main, Byrasandra"},"geometry":{"type":"Point","coordinates":[77.59336,12.9291525]}},{"type":"Feature","properties":{"state":"Karnataka","district":31,"district_n":"B.B.M.P(CENTRAL)","pc":26,"pc_name":"Bangalore South","ac":169,"ac_name":"Chickpet","booth":213,"booth_name":"Tilaknagarl Association For Peoples Development , Room No 3, 1st Cross, 8th Main , Byrasandra"},"geometry":{"type":"Point","coordinates":[77.59335,12.929225]}},{"type":"Feature","properties":{"state":"Karnataka","district":31,"district_n":"B.B.M.P(CENTRAL)","pc":26,"pc_name":"Bangalore South","ac":169,"ac_name":"Chickpet","booth":216,"booth_name":"Ces Nursery School, School, Room No 3, 2nd Cross, 8th Main, Byrasandra"},"geometry":{"type":"Point","coordinates":[77.59332,12.9297285]}},{"type":"Feature","properties":{"state":"Karnataka","district":31,"district_n":"B.B.M.P(CENTRAL)","pc":26,"pc_name":"Bangalore South","ac":169,"ac_name":"Chickpet","booth":99,"booth_name":"Maruthi Vidyalaya Higher Primary School R No, 9th Cross, Hombegowda Nagar"},"geometry":{"type":"Point","coordinates":[77.59945,12.9502411]}},{"type":"Feature","properties":{"state":"Karnataka","district":31,"district_n":"B.B.M.P(CENTRAL)","pc":26,"pc_name":"Bangalore South","ac":169,"ac_name":"Chickpet","booth":100,"booth_name":"Narmada Memorial School Ro No 1, 6th Cross, Hombegowda Nagar"},"geometry":{"type":"Point","coordinates":[77.59652,12.9508877]}},{"type":"Feature","properties":{"state":"Karnataka","district":31,"district_n":"B.B.M.P(CENTRAL)","pc":26,"pc_name":"Bangalore South","ac":169,"ac_name":"Chickpet","booth":101,"booth_name":"101 101 Ganapathi Vidyamandira, Venkatappa Road, Mavalli, Bangalore 04, Room No 3"},"geometry":{"type":"Point","coordinates":[77.58175,12.9421892]}},{"type":"Feature","properties":{"state":"Karnataka","district":31,"district_n":"B.B.M.P(CENTRAL)","pc":26,"pc_name":"Bangalore South","ac":169,"ac_name":"Chickpet","booth":217,"booth_name":"C C E E S S English Nursery School , Room No 4, 2nd Cross, 8th Main , Byrasandra"},"geometry":{"type":"Point","coordinates":[77.59322,12.9298992]}},{"type":"Feature","properties":{"state":"Karnataka","district":31,"district_n":"B.B.M.P(CENTRAL)","pc":26,"pc_name":"Bangalore South","ac":169,"ac_name":"Chickpet","booth":132,"booth_name":"L R cambridge School R R No 1, 4th Main , Lakkasandra"},"geometry":{"type":"Point","coordinates":[77.59931,12.94762]}},{"type":"Feature","properties":{"state":"Karnataka","district":31,"district_n":"B.B.M.P(CENTRAL)","pc":26,"pc_name":"Bangalore South","ac":169,"ac_name":"Chickpet","booth":133,"booth_name":"L R cambridge School R No 2, 4th Main , Lakkasandra"},"geometry":{"type":"Point","coordinates":[77.59948,12.947175]}},{"type":"Feature","properties":{"state":"Karnataka","district":31,"district_n":"B.B.M.P(CENTRAL)","pc":26,"pc_name":"Bangalore South","ac":169,"ac_name":"Chickpet","booth":134,"booth_name":"L R Cambridge School R R No 3, 4th 4th Main, Lakkasandra"},"geometry":{"type":"Point","coordinates":[77.59906,12.9477978]}},{"type":"Feature","properties":{"state":"Karnataka","district":31,"district_n":"B.B.M.P(CENTRAL)","pc":26,"pc_name":"Bangalore South","ac":169,"ac_name":"Chickpet","booth":135,"booth_name":"Govt Govt Kannada Primary school school R R No 10th Cross, Cross, Hombegowda Nagar"},"geometry":{"type":"Point","coordinates":[77.5969238,12.9484282]}},{"type":"Feature","properties":{"state":"Karnataka","district":31,"district_n":"B.B.M.P(CENTRAL)","pc":26,"pc_name":"Bangalore South","ac":169,"ac_name":"Chickpet","booth":136,"booth_name":"Govt Govt Higher Primary Primary School R R No 2, Lalbagh Siddapura, Bangalore 560011"},"geometry":{"type":"Point","coordinates":[77.59053,12.9471922]}},{"type":"Feature","properties":{"state":"Karnataka","district":31,"district_n":"B.B.M.P(CENTRAL)","pc":26,"pc_name":"Bangalore South","ac":169,"ac_name":"Chickpet","booth":138,"booth_name":"Govt Govt Higher Primary Primary School R R No 4, Lalbagh Siddapura, Siddapura, Bangalore 560011"},"geometry":{"type":"Point","coordinates":[77.58846,12.9452686]}},{"type":"Feature","properties":{"state":"Karnataka","district":31,"district_n":"B.B.M.P(CENTRAL)","pc":26,"pc_name":"Bangalore South","ac":169,"ac_name":"Chickpet","booth":140,"booth_name":"Govt Govt Higher Primary Primary School R R No No 6, Lalbagh Siddapura, Bangalore 560011"},"geometry":{"type":"Point","coordinates":[77.58851,12.9458208]}},{"type":"Feature","properties":{"state":"Karnataka","district":31,"district_n":"B.B.M.P(CENTRAL)","pc":26,"pc_name":"Bangalore South","ac":169,"ac_name":"Chickpet","booth":141,"booth_name":"Samathavadha Kannada, Tamil, Telegu, Urdu Primary & Nursery School R R No 1,"},"geometry":{"type":"Point","coordinates":[77.5911255,12.9468155]}},{"type":"Feature","properties":{"state":"Karnataka","district":31,"district_n":"B.B.M.P(CENTRAL)","pc":26,"pc_name":"Bangalore South","ac":169,"ac_name":"Chickpet","booth":142,"booth_name":"Samathavadha Kannada, Tamil, Telegu, Urdu Primary & Nursery School Room No No No 2"},"geometry":{"type":"Point","coordinates":[77.59107,12.9466829]}},{"type":"Feature","properties":{"state":"Karnataka","district":31,"district_n":"B.B.M.P(CENTRAL)","pc":26,"pc_name":"Bangalore South","ac":169,"ac_name":"Chickpet","booth":70,"booth_name":"Bangalore Mahanagara Palike Boys High School, Room No 3"},"geometry":{"type":"Point","coordinates":[77.5637,12.9512386]}},{"type":"Feature","properties":{"state":"Karnataka","district":31,"district_n":"B.B.M.P(CENTRAL)","pc":26,"pc_name":"Bangalore South","ac":169,"ac_name":"Chickpet","booth":71,"booth_name":"Bangalore Mahanagara Palike Boys High School School Room No 4"},"geometry":{"type":"Point","coordinates":[77.5637741,12.9511728]}},{"type":"Feature","properties":{"state":"Karnataka","district":31,"district_n":"B.B.M.P(CENTRAL)","pc":26,"pc_name":"Bangalore South","ac":169,"ac_name":"Chickpet","booth":64,"booth_name":"Bangalore Mahanagara Palike Girls High school, school, Room No 2"},"geometry":{"type":"Point","coordinates":[77.5167,12.953125]}},{"type":"Feature","properties":{"state":"Karnataka","district":31,"district_n":"B.B.M.P(CENTRAL)","pc":26,"pc_name":"Bangalore South","ac":169,"ac_name":"Chickpet","booth":59,"booth_name":"Government Kannada Primary School, Room No 1"},"geometry":{"type":"Point","coordinates":[77.5825043,12.9549017]}},{"type":"Feature","properties":{"state":"Karnataka","district":31,"district_n":"B.B.M.P(CENTRAL)","pc":26,"pc_name":"Bangalore South","ac":169,"ac_name":"Chickpet","booth":61,"booth_name":"Government Kannada Primary School, Room No 3"},"geometry":{"type":"Point","coordinates":[77.5824661,12.9550428]}},{"type":"Feature","properties":{"state":"Karnataka","district":31,"district_n":"B.B.M.P(CENTRAL)","pc":26,"pc_name":"Bangalore South","ac":169,"ac_name":"Chickpet","booth":73,"booth_name":"No 2 City Central Library, (north Side) Side) Room No"},"geometry":{"type":"Point","coordinates":[77.56372,12.9512663]}},{"type":"Feature","properties":{"state":"Karnataka","district":31,"district_n":"B.B.M.P(CENTRAL)","pc":26,"pc_name":"Bangalore South","ac":169,"ac_name":"Chickpet","booth":74,"booth_name":"Udaya Bhanu Kala Sangha (regd ) North Side"},"geometry":{"type":"Point","coordinates":[77.56421,12.9485693]}},{"type":"Feature","properties":{"state":"Karnataka","district":31,"district_n":"B.B.M.P(CENTRAL)","pc":26,"pc_name":"Bangalore South","ac":169,"ac_name":"Chickpet","booth":75,"booth_name":"Udaya Bhanu Kala Sangha (regd ) South Side"},"geometry":{"type":"Point","coordinates":[77.5642548,12.9485617]}},{"type":"Feature","properties":{"state":"Karnataka","district":31,"district_n":"B.B.M.P(CENTRAL)","pc":26,"pc_name":"Bangalore South","ac":169,"ac_name":"Chickpet","booth":63,"booth_name":"Bangalore Mahanagara Palike Girls High School, School, Room No 1"},"geometry":{"type":"Point","coordinates":[77.56173,12.9531212]}},{"type":"Feature","properties":{"state":"Karnataka","district":31,"district_n":"B.B.M.P(CENTRAL)","pc":26,"pc_name":"Bangalore South","ac":169,"ac_name":"Chickpet","booth":76,"booth_name":"Bmp Poura Karmikara & Gang Workers Co op Society (ltd),"},"geometry":{"type":"Point","coordinates":[77.56576,12.9541931]}},{"type":"Feature","properties":{"state":"Karnataka","district":31,"district_n":"B.B.M.P(CENTRAL)","pc":26,"pc_name":"Bangalore South","ac":169,"ac_name":"Chickpet","booth":143,"booth_name":"Samathavadha Kannada, Tamil, Urdu Primary School, Room No, Lalbagh Siddapura, Guttepalya, B 560011"},"geometry":{"type":"Point","coordinates":[77.5911942,12.9468517]}},{"type":"Feature","properties":{"state":"Karnataka","district":31,"district_n":"B.B.M.P(CENTRAL)","pc":26,"pc_name":"Bangalore South","ac":169,"ac_name":"Chickpet","booth":144,"booth_name":"National Council Womens In India, Room No 1, Guttepalyam Lalbagh Lalbagh Siddapura, Bangalore 560011"},"geometry":{"type":"Point","coordinates":[77.5909,12.9469175]}},{"type":"Feature","properties":{"state":"Karnataka","district":31,"district_n":"B.B.M.P(CENTRAL)","pc":26,"pc_name":"Bangalore South","ac":169,"ac_name":"Chickpet","booth":145,"booth_name":"Govt Govt High Primary School R R No No 1, Lalbagh Siddapura, Bangalore 560011"},"geometry":{"type":"Point","coordinates":[77.59095,12.94714]}},{"type":"Feature","properties":{"state":"Karnataka","district":31,"district_n":"B.B.M.P(CENTRAL)","pc":26,"pc_name":"Bangalore South","ac":169,"ac_name":"Chickpet","booth":146,"booth_name":"Parents Teachers Association School R R No 1"},"geometry":{"type":"Point","coordinates":[77.5881958,12.9457312]}},{"type":"Feature","properties":{"state":"Karnataka","district":31,"district_n":"B.B.M.P(CENTRAL)","pc":26,"pc_name":"Bangalore South","ac":169,"ac_name":"Chickpet","booth":147,"booth_name":"Parents Teachers Association School R R No 2"},"geometry":{"type":"Point","coordinates":[77.5881348,12.9460659]}},{"type":"Feature","properties":{"state":"Karnataka","district":31,"district_n":"B.B.M.P(CENTRAL)","pc":26,"pc_name":"Bangalore South","ac":169,"ac_name":"Chickpet","booth":148,"booth_name":"Parents Teachers Association School R R No 3"},"geometry":{"type":"Point","coordinates":[77.58662,12.9439583]}},{"type":"Feature","properties":{"state":"Karnataka","district":31,"district_n":"B.B.M.P(CENTRAL)","pc":26,"pc_name":"Bangalore South","ac":169,"ac_name":"Chickpet","booth":149,"booth_name":"Corporation Montesary, Room No 1"},"geometry":{"type":"Point","coordinates":[77.58305,12.943017]}},{"type":"Feature","properties":{"state":"Karnataka","district":31,"district_n":"B.B.M.P(CENTRAL)","pc":26,"pc_name":"Bangalore South","ac":169,"ac_name":"Chickpet","booth":150,"booth_name":"Corporation Montesary, Room No 2"},"geometry":{"type":"Point","coordinates":[77.58311,12.9431019]}},{"type":"Feature","properties":{"state":"Karnataka","district":31,"district_n":"B.B.M.P(CENTRAL)","pc":26,"pc_name":"Bangalore South","ac":169,"ac_name":"Chickpet","booth":151,"booth_name":"Corporation Montesary, Montesary, Room No 3"},"geometry":{"type":"Point","coordinates":[77.58314,12.9418907]}},{"type":"Feature","properties":{"state":"Karnataka","district":31,"district_n":"B.B.M.P(CENTRAL)","pc":26,"pc_name":"Bangalore South","ac":169,"ac_name":"Chickpet","booth":152,"booth_name":"R R V Techers Training college R R No 1"},"geometry":{"type":"Point","coordinates":[77.58046,12.943531]}},{"type":"Feature","properties":{"state":"Karnataka","district":31,"district_n":"B.B.M.P(CENTRAL)","pc":26,"pc_name":"Bangalore South","ac":169,"ac_name":"Chickpet","booth":77,"booth_name":"Room No 1 The Child development Institute,"},"geometry":{"type":"Point","coordinates":[77.5670853,12.9516888]}},{"type":"Feature","properties":{"state":"Karnataka","district":31,"district_n":"B.B.M.P(CENTRAL)","pc":26,"pc_name":"Bangalore South","ac":169,"ac_name":"Chickpet","booth":78,"booth_name":"The Child Development Institute, Room No 2"},"geometry":{"type":"Point","coordinates":[77.5670853,12.9515657]}},{"type":"Feature","properties":{"state":"Karnataka","district":31,"district_n":"B.B.M.P(CENTRAL)","pc":26,"pc_name":"Bangalore South","ac":169,"ac_name":"Chickpet","booth":79,"booth_name":"The Child development Institute, Room No 3"},"geometry":{"type":"Point","coordinates":[77.56711,12.9515724]}},{"type":"Feature","properties":{"state":"Karnataka","district":31,"district_n":"B.B.M.P(CENTRAL)","pc":26,"pc_name":"Bangalore South","ac":169,"ac_name":"Chickpet","booth":80,"booth_name":"The Child Development Assn Room No 4"},"geometry":{"type":"Point","coordinates":[77.5670547,12.9515619]}},{"type":"Feature","properties":{"state":"Karnataka","district":31,"district_n":"B.B.M.P(CENTRAL)","pc":26,"pc_name":"Bangalore South","ac":169,"ac_name":"Chickpet","booth":81,"booth_name":"Jnanoodaya School , R"},"geometry":{"type":"Point","coordinates":[77.56819,12.95521]}},{"type":"Feature","properties":{"state":"Karnataka","district":31,"district_n":"B.B.M.P(CENTRAL)","pc":26,"pc_name":"Bangalore South","ac":169,"ac_name":"Chickpet","booth":82,"booth_name":"Jnanoodaya School, R"},"geometry":{"type":"Point","coordinates":[77.56828,12.956151]}},{"type":"Feature","properties":{"state":"Karnataka","district":31,"district_n":"B.B.M.P(CENTRAL)","pc":26,"pc_name":"Bangalore South","ac":169,"ac_name":"Chickpet","booth":83,"booth_name":"Education Department Office, Room No 1"},"geometry":{"type":"Point","coordinates":[77.57022,12.9530239]}},{"type":"Feature","properties":{"state":"Karnataka","district":31,"district_n":"B.B.M.P(CENTRAL)","pc":26,"pc_name":"Bangalore South","ac":169,"ac_name":"Chickpet","booth":84,"booth_name":"Education Department Office, Room No 2"},"geometry":{"type":"Point","coordinates":[77.57022,12.9530239]}},{"type":"Feature","properties":{"state":"Karnataka","district":31,"district_n":"B.B.M.P(CENTRAL)","pc":26,"pc_name":"Bangalore South","ac":169,"ac_name":"Chickpet","booth":86,"booth_name":"V V V V Puram Arts & Commerce College R R No2"},"geometry":{"type":"Point","coordinates":[77.57414,12.9535341]}},{"type":"Feature","properties":{"state":"Karnataka","district":31,"district_n":"B.B.M.P(CENTRAL)","pc":26,"pc_name":"Bangalore South","ac":169,"ac_name":"Chickpet","booth":85,"booth_name":"V V V V Puram Arts & Commerce Commerce College College R R No"},"geometry":{"type":"Point","coordinates":[77.8742,12.9534883]}},{"type":"Feature","properties":{"state":"Karnataka","district":31,"district_n":"B.B.M.P(CENTRAL)","pc":26,"pc_name":"Bangalore South","ac":169,"ac_name":"Chickpet","booth":87,"booth_name":"V V V V Puram Arts & Comarece College R No 3"},"geometry":{"type":"Point","coordinates":[77.5741348,12.9534531]}},{"type":"Feature","properties":{"state":"Karnataka","district":31,"district_n":"B.B.M.P(CENTRAL)","pc":26,"pc_name":"Bangalore South","ac":169,"ac_name":"Chickpet","booth":153,"booth_name":"R R V Techers Training college R R No 2"},"geometry":{"type":"Point","coordinates":[77.58046,12.943531]}},{"type":"Feature","properties":{"state":"Karnataka","district":31,"district_n":"B.B.M.P(CENTRAL)","pc":26,"pc_name":"Bangalore South","ac":169,"ac_name":"Chickpet","booth":154,"booth_name":"R R V Techers Training college Room No 3"},"geometry":{"type":"Point","coordinates":[77.58042,12.9433384]}},{"type":"Feature","properties":{"state":"Karnataka","district":31,"district_n":"B.B.M.P(CENTRAL)","pc":26,"pc_name":"Bangalore South","ac":169,"ac_name":"Chickpet","booth":155,"booth_name":"R R V Teachers Training College, College, Room No 4"},"geometry":{"type":"Point","coordinates":[77.38046,12.9435368]}},{"type":"Feature","properties":{"state":"Karnataka","district":31,"district_n":"B.B.M.P(CENTRAL)","pc":26,"pc_name":"Bangalore South","ac":169,"ac_name":"Chickpet","booth":157,"booth_name":"Crescent Crescent Educationa Nursery Nursery Primary High School, Room No 1"},"geometry":{"type":"Point","coordinates":[77.579,12.9403419]}},{"type":"Feature","properties":{"state":"Karnataka","district":31,"district_n":"B.B.M.P(CENTRAL)","pc":26,"pc_name":"Bangalore South","ac":169,"ac_name":"Chickpet","booth":159,"booth_name":"Bbmp Health Ward Office, R V Road, South End Circle, 2nd Block, Jayanagar"},"geometry":{"type":"Point","coordinates":[77.58019,12.9372272]}},{"type":"Feature","properties":{"state":"Karnataka","district":31,"district_n":"B.B.M.P(CENTRAL)","pc":26,"pc_name":"Bangalore South","ac":169,"ac_name":"Chickpet","booth":160,"booth_name":"Vijaya College College R R No No 1"},"geometry":{"type":"Point","coordinates":[77.58065,12.9405727]}},{"type":"Feature","properties":{"state":"Karnataka","district":31,"district_n":"B.B.M.P(CENTRAL)","pc":26,"pc_name":"Bangalore South","ac":169,"ac_name":"Chickpet","booth":161,"booth_name":"Vijaya College R R No 2"},"geometry":{"type":"Point","coordinates":[77.58073,12.9403458]}},{"type":"Feature","properties":{"state":"Karnataka","district":31,"district_n":"B.B.M.P(CENTRAL)","pc":26,"pc_name":"Bangalore South","ac":169,"ac_name":"Chickpet","booth":162,"booth_name":"Community Centre High School R R No 1"},"geometry":{"type":"Point","coordinates":[77.58437,12.9390068]}},{"type":"Feature","properties":{"state":"Karnataka","district":31,"district_n":"B.B.M.P(CENTRAL)","pc":26,"pc_name":"Bangalore South","ac":169,"ac_name":"Chickpet","booth":163,"booth_name":"Community Centre High School, R R No 3"},"geometry":{"type":"Point","coordinates":[77.5862,12.9389658]}},{"type":"Feature","properties":{"state":"Karnataka","district":31,"district_n":"B.B.M.P(CENTRAL)","pc":26,"pc_name":"Bangalore South","ac":169,"ac_name":"Chickpet","booth":164,"booth_name":"Community Centre High School, Room No 3"},"geometry":{"type":"Point","coordinates":[77.58422,12.93899]}},{"type":"Feature","properties":{"state":"Karnataka","district":31,"district_n":"B.B.M.P(CENTRAL)","pc":26,"pc_name":"Bangalore South","ac":169,"ac_name":"Chickpet","booth":166,"booth_name":"Rani Saraladevi High School R R No 3,"},"geometry":{"type":"Point","coordinates":[77.58554,12.9391193]}},{"type":"Feature","properties":{"state":"Karnataka","district":31,"district_n":"B.B.M.P(CENTRAL)","pc":26,"pc_name":"Bangalore South","ac":169,"ac_name":"Chickpet","booth":165,"booth_name":"Rani Saraladevi High School R R No"},"geometry":{"type":"Point","coordinates":[77.5859756,12.9389648]}},{"type":"Feature","properties":{"state":"Karnataka","district":31,"district_n":"B.B.M.P(CENTRAL)","pc":26,"pc_name":"Bangalore South","ac":169,"ac_name":"Chickpet","booth":169,"booth_name":"Rani Saraladevi High School School R R No 5, 100ft Road, 1st Block, Jayanagar"},"geometry":{"type":"Point","coordinates":[77.5858459,12.9389515]}},{"type":"Feature","properties":{"state":"Karnataka","district":31,"district_n":"B.B.M.P(CENTRAL)","pc":26,"pc_name":"Bangalore South","ac":169,"ac_name":"Chickpet","booth":170,"booth_name":"Rani Saraladevi High School R R No 6, 100ft Road, 1st Block, Jayanagar"},"geometry":{"type":"Point","coordinates":[77.58587,12.9388561]}},{"type":"Feature","properties":{"state":"Karnataka","district":31,"district_n":"B.B.M.P(CENTRAL)","pc":26,"pc_name":"Bangalore South","ac":169,"ac_name":"Chickpet","booth":171,"booth_name":"Tippu Convent English School R R No 1,, 1st Main Road, Someshwara Nagar"},"geometry":{"type":"Point","coordinates":[77.5931854,12.94109]}},{"type":"Feature","properties":{"state":"Karnataka","district":31,"district_n":"B.B.M.P(CENTRAL)","pc":26,"pc_name":"Bangalore South","ac":169,"ac_name":"Chickpet","booth":193,"booth_name":"Corporation Nursery School R R No 1, 6th Main , Chinnaiyana Palya"},"geometry":{"type":"Point","coordinates":[77.60086,12.9470291]}},{"type":"Feature","properties":{"state":"Karnataka","district":31,"district_n":"B.B.M.P(CENTRAL)","pc":26,"pc_name":"Bangalore South","ac":169,"ac_name":"Chickpet","booth":8,"booth_name":"Srihukmichand Hindi Bhavinikethan, Nagartar Pet, Room No 1"},"geometry":{"type":"Point","coordinates":[77.58212,12.9661655]}},{"type":"Feature","properties":{"state":"Karnataka","district":31,"district_n":"B.B.M.P(CENTRAL)","pc":26,"pc_name":"Bangalore South","ac":169,"ac_name":"Chickpet","booth":214,"booth_name":"Tilaknagar Tilaknagar Association For Peoples Development , Room No No 4, 1st Cross, 8th Main, Byrasandra"},"geometry":{"type":"Point","coordinates":[77.59835,12.9300785]}},{"type":"Feature","properties":{"state":"Karnataka","district":31,"district_n":"B.B.M.P(CENTRAL)","pc":26,"pc_name":"Bangalore South","ac":169,"ac_name":"Chickpet","booth":15,"booth_name":"Office of the Medical Offcer Of Health (mosquito Contol), Room No 2 2 Dasappa Maternity Maternity Hptl Hptl Cmp"},"geometry":{"type":"Point","coordinates":[77.5843,12.9641695]}},{"type":"Feature","properties":{"state":"Karnataka","district":31,"district_n":"B.B.M.P(CENTRAL)","pc":26,"pc_name":"Bangalore South","ac":169,"ac_name":"Chickpet","booth":16,"booth_name":"Officer of the Medical Officer of Health (mosquito Control) Room No 3 3 Dasappa Maternity Hsptl Hsptl Cmpd"},"geometry":{"type":"Point","coordinates":[77.58432,12.964283]}},{"type":"Feature","properties":{"state":"Karnataka","district":31,"district_n":"B.B.M.P(CENTRAL)","pc":26,"pc_name":"Bangalore South","ac":169,"ac_name":"Chickpet","booth":47,"booth_name":"Kalasipalya Koramara Vidyarthi Nilaya, Room No 2, No 19, Mavalli Tank Band Road,"},"geometry":{"type":"Point","coordinates":[77.58005,12.9572449]}},{"type":"Feature","properties":{"state":"Karnataka","district":31,"district_n":"B.B.M.P(CENTRAL)","pc":26,"pc_name":"Bangalore South","ac":169,"ac_name":"Chickpet","booth":53,"booth_name":"Al Ameen Science and Arts College, Room No 5"},"geometry":{"type":"Point","coordinates":[77.58661,12.9537477]}},{"type":"Feature","properties":{"state":"Karnataka","district":31,"district_n":"B.B.M.P(CENTRAL)","pc":26,"pc_name":"Bangalore South","ac":169,"ac_name":"Chickpet","booth":156,"booth_name":"R R V Teachers Training College,room No 5"},"geometry":{"type":"Point","coordinates":[77.5805054,12.9435091]}},{"type":"Feature","properties":{"state":"Karnataka","district":31,"district_n":"B.B.M.P(CENTRAL)","pc":26,"pc_name":"Bangalore South","ac":169,"ac_name":"Chickpet","booth":194,"booth_name":"Corporation Nursery School R R No 2, Chinnayana Palya"},"geometry":{"type":"Point","coordinates":[77.60086,12.9470186]}},{"type":"Feature","properties":{"state":"Karnataka","district":31,"district_n":"B.B.M.P(CENTRAL)","pc":26,"pc_name":"Bangalore South","ac":169,"ac_name":"Chickpet","booth":195,"booth_name":"Corporation Nursery School, R R No 3, 6th Main Main Chinnaiyana Palya"},"geometry":{"type":"Point","coordinates":[77.60092,12.9468918]}},{"type":"Feature","properties":{"state":"Karnataka","district":31,"district_n":"B.B.M.P(CENTRAL)","pc":26,"pc_name":"Bangalore South","ac":169,"ac_name":"Chickpet","booth":158,"booth_name":"Crescent Educational Nursery Primary Primary High School, Room No 2"},"geometry":{"type":"Point","coordinates":[77.57885,12.9405489]}},{"type":"Feature","properties":{"state":"Karnataka","district":31,"district_n":"B.B.M.P(CENTRAL)","pc":26,"pc_name":"Bangalore South","ac":169,"ac_name":"Chickpet","booth":196,"booth_name":"Mary Immaculate High School R R No 2, 2, Lakkasandra Layout"},"geometry":{"type":"Point","coordinates":[77.60001,12.9445934]}},{"type":"Feature","properties":{"state":"Karnataka","district":31,"district_n":"B.B.M.P(CENTRAL)","pc":26,"pc_name":"Bangalore South","ac":169,"ac_name":"Chickpet","booth":198,"booth_name":"Mary Immculate High School R R No 4, Lakkasandra Layout"},"geometry":{"type":"Point","coordinates":[77.59869,12.9449654]}},{"type":"Feature","properties":{"state":"Karnataka","district":31,"district_n":"B.B.M.P(CENTRAL)","pc":26,"pc_name":"Bangalore South","ac":169,"ac_name":"Chickpet","booth":199,"booth_name":"Govt Govt Higher Primary school R R No 1, 3rd Cross, lakkasandra Village"},"geometry":{"type":"Point","coordinates":[77.60011,12.9437342]}},{"type":"Feature","properties":{"state":"Karnataka","district":31,"district_n":"B.B.M.P(CENTRAL)","pc":26,"pc_name":"Bangalore South","ac":169,"ac_name":"Chickpet","booth":200,"booth_name":"Govt Govt Higher Primary School , Room No 2, 3rd Cross, Lakkasandra Village"},"geometry":{"type":"Point","coordinates":[77.59977,12.9437065]}},{"type":"Feature","properties":{"state":"Karnataka","district":31,"district_n":"B.B.M.P(CENTRAL)","pc":26,"pc_name":"Bangalore South","ac":169,"ac_name":"Chickpet","booth":105,"booth_name":"Rastriya Vidyalaya High School School Room No1, R V Road, Mavalli 560004"},"geometry":{"type":"Point","coordinates":[77.58022,12.95927]}},{"type":"Feature","properties":{"state":"Karnataka","district":31,"district_n":"B.B.M.P(CENTRAL)","pc":26,"pc_name":"Bangalore South","ac":169,"ac_name":"Chickpet","booth":106,"booth_name":"Rastriya Vidyalaya High School,, R V Road, Mvalli 560004"},"geometry":{"type":"Point","coordinates":[77.58012,12.9491882]}},{"type":"Feature","properties":{"state":"Karnataka","district":31,"district_n":"B.B.M.P(CENTRAL)","pc":26,"pc_name":"Bangalore South","ac":169,"ac_name":"Chickpet","booth":107,"booth_name":"Rastriya Vidyalaya High School School R No 3, R V Road, Mavalli 56004"},"geometry":{"type":"Point","coordinates":[77.58002,12.9492483]}},{"type":"Feature","properties":{"state":"Karnataka","district":31,"district_n":"B.B.M.P(CENTRAL)","pc":26,"pc_name":"Bangalore South","ac":169,"ac_name":"Chickpet","booth":172,"booth_name":"Tippu Convent English School R R No 2,, 1st Main Road, Someshwara Nagar"},"geometry":{"type":"Point","coordinates":[77.59323,12.94107]}},{"type":"Feature","properties":{"state":"Karnataka","district":31,"district_n":"B.B.M.P(CENTRAL)","pc":26,"pc_name":"Bangalore South","ac":169,"ac_name":"Chickpet","booth":173,"booth_name":"Meraj English School School R R No 1, 8th Cross, Someshwara Nagar, Bangalore 560011"},"geometry":{"type":"Point","coordinates":[77.5938,12.9427376]}},{"type":"Feature","properties":{"state":"Karnataka","district":31,"district_n":"B.B.M.P(CENTRAL)","pc":26,"pc_name":"Bangalore South","ac":169,"ac_name":"Chickpet","booth":174,"booth_name":"Meraj English School School R R No 8, 8th Cross, Someshwaranagar, Bangalofe 560011"},"geometry":{"type":"Point","coordinates":[77.5939,12.9426746]}},{"type":"Feature","properties":{"state":"Karnataka","district":31,"district_n":"B.B.M.P(CENTRAL)","pc":26,"pc_name":"Bangalore South","ac":169,"ac_name":"Chickpet","booth":109,"booth_name":"Sri Saraswathi Vidya Mandira"},"geometry":{"type":"Point","coordinates":[77.57793,12.9505939]}},{"type":"Feature","properties":{"state":"Karnataka","district":31,"district_n":"B.B.M.P(CENTRAL)","pc":26,"pc_name":"Bangalore South","ac":169,"ac_name":"Chickpet","booth":110,"booth_name":"National High School"},"geometry":{"type":"Point","coordinates":[77.57322,12.9493723]}},{"type":"Feature","properties":{"state":"Karnataka","district":31,"district_n":"B.B.M.P(CENTRAL)","pc":26,"pc_name":"Bangalore South","ac":169,"ac_name":"Chickpet","booth":175,"booth_name":"Meraj English School R R No 1, 7th Cross, Cross, Someshwaranagar, Bangalore 560011"},"geometry":{"type":"Point","coordinates":[77.59384,12.9426727]}},{"type":"Feature","properties":{"state":"Karnataka","district":31,"district_n":"B.B.M.P(CENTRAL)","pc":26,"pc_name":"Bangalore South","ac":169,"ac_name":"Chickpet","booth":176,"booth_name":"Meraj English School R R No No No 2, 7th Cross, Someshwara Nagar, Bangalore 560011"},"geometry":{"type":"Point","coordinates":[77.5938644,12.9426937]}},{"type":"Feature","properties":{"state":"Karnataka","district":31,"district_n":"B.B.M.P(CENTRAL)","pc":26,"pc_name":"Bangalore South","ac":169,"ac_name":"Chickpet","booth":177,"booth_name":"Meiraj English School School R R No 3, 7th Cross, Someshwara Nagar, Bangalore 560011"},"geometry":{"type":"Point","coordinates":[77.59381,12.942687]}},{"type":"Feature","properties":{"state":"Karnataka","district":31,"district_n":"B.B.M.P(CENTRAL)","pc":26,"pc_name":"Bangalore South","ac":169,"ac_name":"Chickpet","booth":178,"booth_name":"Meraj English School, Room No 3, 8th Cross Someshwara Nagar, Bangalore 560011"},"geometry":{"type":"Point","coordinates":[77.5938339,12.9426432]}},{"type":"Feature","properties":{"state":"Karnataka","district":31,"district_n":"B.B.M.P(CENTRAL)","pc":26,"pc_name":"Bangalore South","ac":169,"ac_name":"Chickpet","booth":179,"booth_name":"S S K K English school, R R No 1, 7th A Cross Someshwara Nagar, Bangalore 560011"},"geometry":{"type":"Point","coordinates":[77.59128,12.9437094]}},{"type":"Feature","properties":{"state":"Karnataka","district":31,"district_n":"B.B.M.P(CENTRAL)","pc":26,"pc_name":"Bangalore South","ac":169,"ac_name":"Chickpet","booth":180,"booth_name":"S S K K English school, R R No 2, 7th A Cross, Someshwara Nagar, Bangalore 560011"},"geometry":{"type":"Point","coordinates":[77.59125,12.9438286]}},{"type":"Feature","properties":{"state":"Karnataka","district":31,"district_n":"B.B.M.P(CENTRAL)","pc":26,"pc_name":"Bangalore South","ac":169,"ac_name":"Chickpet","booth":181,"booth_name":"S S K English school, school, R R No 3, 7th A Cross, Someshwara Nagar, Bangalore 560011"},"geometry":{"type":"Point","coordinates":[77.59129,12.9436111]}},{"type":"Feature","properties":{"state":"Karnataka","district":31,"district_n":"B.B.M.P(CENTRAL)","pc":26,"pc_name":"Bangalore South","ac":169,"ac_name":"Chickpet","booth":182,"booth_name":"S S K English school, school, R R No 4, 7th A Cross, Someshwara Nagar, Bangalore 560011"},"geometry":{"type":"Point","coordinates":[77.590744,12.9400358]}},{"type":"Feature","properties":{"state":"Karnataka","district":31,"district_n":"B.B.M.P(CENTRAL)","pc":26,"pc_name":"Bangalore South","ac":169,"ac_name":"Chickpet","booth":183,"booth_name":"S S K K English School School R R No 5, 7th A Cross, Someshwara Nagar, Bangalore 560011"},"geometry":{"type":"Point","coordinates":[77.59097,12.9439287]}},{"type":"Feature","properties":{"state":"Karnataka","district":31,"district_n":"B.B.M.P(CENTRAL)","pc":26,"pc_name":"Bangalore South","ac":169,"ac_name":"Chickpet","booth":184,"booth_name":"Vanhikula Kshatriya Nursery School 1, Lalbagh Siddapura, Bangalore 560011"},"geometry":{"type":"Point","coordinates":[77.5885239,12.9459209]}},{"type":"Feature","properties":{"state":"Karnataka","district":31,"district_n":"B.B.M.P(CENTRAL)","pc":26,"pc_name":"Bangalore South","ac":169,"ac_name":"Chickpet","booth":185,"booth_name":"Govt Govt Kannada Primary school R R No"},"geometry":{"type":"Point","coordinates":[77.5931549,12.9410868]}},{"type":"Feature","properties":{"state":"Karnataka","district":31,"district_n":"B.B.M.P(CENTRAL)","pc":26,"pc_name":"Bangalore South","ac":169,"ac_name":"Chickpet","booth":186,"booth_name":"National council of Women in India India Room No No No 2, Guttepalya, Guttepalya, Lalbagh Siddapura, B 560011"},"geometry":{"type":"Point","coordinates":[77.59092,12.9469566]}},{"type":"Feature","properties":{"state":"Karnataka","district":31,"district_n":"B.B.M.P(CENTRAL)","pc":26,"pc_name":"Bangalore South","ac":169,"ac_name":"Chickpet","booth":187,"booth_name":"National council of women In India R R No 3, Guttepalya, Lalbagh Siddarapura, B 560011"},"geometry":{"type":"Point","coordinates":[77.59084,12.9470816]}},{"type":"Feature","properties":{"state":"Karnataka","district":31,"district_n":"B.B.M.P(CENTRAL)","pc":26,"pc_name":"Bangalore South","ac":169,"ac_name":"Chickpet","booth":188,"booth_name":"Mary Immaculate High school R R No 1 Lakkasandra Layout"},"geometry":{"type":"Point","coordinates":[77.60002,12.9446907]}},{"type":"Feature","properties":{"state":"Karnataka","district":31,"district_n":"B.B.M.P(CENTRAL)","pc":26,"pc_name":"Bangalore South","ac":169,"ac_name":"Chickpet","booth":189,"booth_name":"Corporation Ward Office, Room No 1, 7th Main Lakkasandra"},"geometry":{"type":"Point","coordinates":[77.60015,12.9470005]}},{"type":"Feature","properties":{"state":"Karnataka","district":31,"district_n":"B.B.M.P(CENTRAL)","pc":26,"pc_name":"Bangalore South","ac":169,"ac_name":"Chickpet","booth":190,"booth_name":"K K J J convent, Room No 1, 7th Main, Lakkasandra"},"geometry":{"type":"Point","coordinates":[77.60117,12.946599]}},{"type":"Feature","properties":{"state":"Karnataka","district":31,"district_n":"B.B.M.P(CENTRAL)","pc":26,"pc_name":"Bangalore South","ac":169,"ac_name":"Chickpet","booth":191,"booth_name":"K K J J Convent Convent R R No 2, 7th Main Road Lakkasandra"},"geometry":{"type":"Point","coordinates":[77.6012955,12.9464378]}},{"type":"Feature","properties":{"state":"Karnataka","district":31,"district_n":"B.B.M.P(CENTRAL)","pc":26,"pc_name":"Bangalore South","ac":169,"ac_name":"Chickpet","booth":192,"booth_name":"K K J J Convent Convent Room No 3, 7th Main, Lakkasandra"},"geometry":{"type":"Point","coordinates":[77.60131,12.94647]}},{"type":"Feature","properties":{"state":"Karnataka","district":31,"district_n":"B.B.M.P(CENTRAL)","pc":26,"pc_name":"Bangalore South","ac":169,"ac_name":"Chickpet","booth":3,"booth_name":"Badavara Balaga School , 12th Cross, Kabban Pet, Room No No No 1"},"geometry":{"type":"Point","coordinates":[77.58395,12.96935]}},{"type":"Feature","properties":{"state":"Karnataka","district":31,"district_n":"B.B.M.P(CENTRAL)","pc":26,"pc_name":"Bangalore South","ac":169,"ac_name":"Chickpet","booth":26,"booth_name":"Government Pharmacy College, Room No 3, 'a' Block"},"geometry":{"type":"Point","coordinates":[77.59053,12.9614792]}},{"type":"Feature","properties":{"state":"Karnataka","district":31,"district_n":"B.B.M.P(CENTRAL)","pc":26,"pc_name":"Bangalore South","ac":169,"ac_name":"Chickpet","booth":27,"booth_name":"Government Pharmacy College, Room No 4, 'a' Block"},"geometry":{"type":"Point","coordinates":[77.59051,12.9615211]}},{"type":"Feature","properties":{"state":"Karnataka","district":31,"district_n":"B.B.M.P(CENTRAL)","pc":26,"pc_name":"Bangalore South","ac":169,"ac_name":"Chickpet","booth":28,"booth_name":"Government Pharmacy College, Room No 1, 'b' Block"},"geometry":{"type":"Point","coordinates":[77.5905457,12.9614248]}},{"type":"Feature","properties":{"state":"Karnataka","district":31,"district_n":"B.B.M.P(CENTRAL)","pc":26,"pc_name":"Bangalore South","ac":169,"ac_name":"Chickpet","booth":29,"booth_name":"Channamma Memorial School, Room No 1"},"geometry":{"type":"Point","coordinates":[77.59213,12.9622231]}},{"type":"Feature","properties":{"state":"Karnataka","district":31,"district_n":"B.B.M.P(CENTRAL)","pc":26,"pc_name":"Bangalore South","ac":169,"ac_name":"Chickpet","booth":30,"booth_name":"Channamma Memorial School, Room No 2"},"geometry":{"type":"Point","coordinates":[77.59192,12.9622]}},{"type":"Feature","properties":{"state":"Karnataka","district":31,"district_n":"B.B.M.P(CENTRAL)","pc":26,"pc_name":"Bangalore South","ac":169,"ac_name":"Chickpet","booth":31,"booth_name":"Government Pharmacy College, Room No 2, 'b' Block"},"geometry":{"type":"Point","coordinates":[77.59014,12.9609938]}},{"type":"Feature","properties":{"state":"Karnataka","district":31,"district_n":"B.B.M.P(CENTRAL)","pc":26,"pc_name":"Bangalore South","ac":169,"ac_name":"Chickpet","booth":32,"booth_name":"Government Pharmacy College, Room No 3, 'b' Block"},"geometry":{"type":"Point","coordinates":[77.59001,12.9610147]}},{"type":"Feature","properties":{"state":"Karnataka","district":31,"district_n":"B.B.M.P(CENTRAL)","pc":26,"pc_name":"Bangalore South","ac":169,"ac_name":"Chickpet","booth":1,"booth_name":"Coporation Nursery School, K G Road, Bannappa Parl Room No 1"},"geometry":{"type":"Point","coordinates":[77.58352,12.9709711]}},{"type":"Feature","properties":{"state":"Karnataka","district":31,"district_n":"B.B.M.P(CENTRAL)","pc":26,"pc_name":"Bangalore South","ac":169,"ac_name":"Chickpet","booth":72,"booth_name":"City Central Library, (north Side) Room No 1"},"geometry":{"type":"Point","coordinates":[77.56391,12.95124]}},{"type":"Feature","properties":{"state":"Karnataka","district":31,"district_n":"B.B.M.P(CENTRAL)","pc":26,"pc_name":"Bangalore South","ac":169,"ac_name":"Chickpet","booth":4,"booth_name":"Badavara Balaga School, 12th Cross, Kabban Pet, Pet, Room No No No 3"},"geometry":{"type":"Point","coordinates":[77.58405,12.9692583]}},{"type":"Feature","properties":{"state":"Karnataka","district":31,"district_n":"B.B.M.P(CENTRAL)","pc":26,"pc_name":"Bangalore South","ac":169,"ac_name":"Chickpet","booth":191,"booth_name":"K K J J Convent Convent R R No 3, 7th Main Road Lakkasandra"},"geometry":{"type":"Point","coordinates":[77.60137,12.9464045]}},{"type":"Feature","properties":{"state":"Karnataka","district":31,"district_n":"B.B.M.P(CENTRAL)","pc":26,"pc_name":"Bangalore South","ac":169,"ac_name":"Chickpet","booth":21,"booth_name":"S L N High School, Room No 1 K R Road, Chamaraja Pet"},"geometry":{"type":"Point","coordinates":[77.57687,12.9626589]}},{"type":"Feature","properties":{"state":"Karnataka","district":31,"district_n":"B.B.M.P(CENTRAL)","pc":26,"pc_name":"Bangalore South","ac":169,"ac_name":"Chickpet","booth":22,"booth_name":"S L N High School, Room No 2, K R Road, Chamaraja Pet"},"geometry":{"type":"Point","coordinates":[77.57684,12.9627171]}},{"type":"Feature","properties":{"state":"Karnataka","district":31,"district_n":"B.B.M.P(CENTRAL)","pc":26,"pc_name":"Bangalore South","ac":169,"ac_name":"Chickpet","booth":23,"booth_name":"Kumbaragundi Vinobha Harijan Seva Sangha Room No No 1, Behind Shivaji Takies Kumbaragundi"},"geometry":{"type":"Point","coordinates":[77.5843353,12.961997]}},{"type":"Feature","properties":{"state":"Karnataka","district":31,"district_n":"B.B.M.P(CENTRAL)","pc":26,"pc_name":"Bangalore South","ac":169,"ac_name":"Chickpet","booth":24,"booth_name":"Govt Govt Pharmacy College Room No No No 1 'p' Block"},"geometry":{"type":"Point","coordinates":[77.59039,12.9615431]}},{"type":"Feature","properties":{"state":"Karnataka","district":31,"district_n":"B.B.M.P(CENTRAL)","pc":26,"pc_name":"Bangalore South","ac":169,"ac_name":"Chickpet","booth":25,"booth_name":"Govt Pharmacy College College Room No 2, 'a' Block"},"geometry":{"type":"Point","coordinates":[77.59047,12.9615545]}},{"type":"Feature","properties":{"state":"Karnataka","district":31,"district_n":"B.B.M.P(CENTRAL)","pc":26,"pc_name":"Bangalore South","ac":169,"ac_name":"Chickpet","booth":7,"booth_name":"Government Urdu Primary School, Ganigara 'c' Street, Room No 1"},"geometry":{"type":"Point","coordinates":[77.5823441,12.9670525]}},{"type":"Feature","properties":{"state":"Karnataka","district":31,"district_n":"B.B.M.P(CENTRAL)","pc":26,"pc_name":"Bangalore South","ac":169,"ac_name":"Chickpet","booth":9,"booth_name":"Sri Hukmichand Hindi Balanikethan, Nagarath Pet, Room No No No 2"},"geometry":{"type":"Point","coordinates":[77.5824661,12.9658871]}},{"type":"Feature","properties":{"state":"Karnataka","district":31,"district_n":"B.B.M.P(CENTRAL)","pc":26,"pc_name":"Bangalore South","ac":169,"ac_name":"Chickpet","booth":11,"booth_name":"Government Primary School, Ramanaikagallim sadara Patrappa Road, Room No No No 1"},"geometry":{"type":"Point","coordinates":[77.58097,12.9651947]}},{"type":"Feature","properties":{"state":"Karnataka","district":31,"district_n":"B.B.M.P(CENTRAL)","pc":26,"pc_name":"Bangalore South","ac":169,"ac_name":"Chickpet","booth":14,"booth_name":"Office of the Medical Officer of Health (mosquito Control), Room No No No 1, Dasappa Maternity Hptl Cmp"},"geometry":{"type":"Point","coordinates":[77.5843048,12.9642057]}},{"type":"Feature","properties":{"state":"Karnataka","district":31,"district_n":"B.B.M.P(CENTRAL)","pc":26,"pc_name":"Bangalore South","ac":169,"ac_name":"Chickpet","booth":12,"booth_name":"Government Primary School, Room No No No 3"},"geometry":{"type":"Point","coordinates":[77.58108,12.965148]}},{"type":"Feature","properties":{"state":"Karnataka","district":31,"district_n":"B.B.M.P(CENTRAL)","pc":26,"pc_name":"Bangalore South","ac":169,"ac_name":"Chickpet","booth":137,"booth_name":"Govt Govt Higher Primary Primary School R R No No 3, Lalbagh Siddapura, Bangalore 560011"},"geometry":{"type":"Point","coordinates":[77.5885239,12.945961]}},{"type":"Feature","properties":{"state":"Karnataka","district":31,"district_n":"B.B.M.P(CENTRAL)","pc":26,"pc_name":"Bangalore South","ac":169,"ac_name":"Chickpet","booth":206,"booth_name":"Govt Govt Urdu School School Room No 2, Changaiah Compound"},"geometry":{"type":"Point","coordinates":[77.59653,12.9297152]}},{"type":"Feature","properties":{"state":"Karnataka","district":31,"district_n":"B.B.M.P(CENTRAL)","pc":26,"pc_name":"Bangalore South","ac":169,"ac_name":"Chickpet","booth":208,"booth_name":"ovt ovt Urdu School Room No 4, Changaiah Compound"},"geometry":{"type":"Point","coordinates":[77.59836,12.93024]}},{"type":"Feature","properties":{"state":"Karnataka","district":31,"district_n":"B.B.M.P(CENTRAL)","pc":26,"pc_name":"Bangalore South","ac":169,"ac_name":"Chickpet","booth":193,"booth_name":"Corporation Nursery School R R No 2, 6th Main , Chinnaiyana Palya"},"geometry":{"type":"Point","coordinates":[77.60091,12.9476185]}},{"type":"Feature","properties":{"state":"Karnataka","district":31,"district_n":"B.B.M.P(CENTRAL)","pc":26,"pc_name":"Bangalore South","ac":169,"ac_name":"Chickpet","booth":204,"booth_name":"Samudaya Bhavana, 17/a, 1st Cross, Rbi Colony, Jayanagar, Byrasandra, Room No 2"},"geometry":{"type":"Point","coordinates":[77.59299,12.9307947]}},{"type":"Feature","properties":{"state":"Karnataka","district":31,"district_n":"B.B.M.P(CENTRAL)","pc":26,"pc_name":"Bangalore South","ac":169,"ac_name":"Chickpet","booth":88,"booth_name":"Ward Office Office V V Puram"},"geometry":{"type":"Point","coordinates":[77.57909,12.9543686]}},{"type":"Feature","properties":{"state":"Karnataka","district":31,"district_n":"B.B.M.P(CENTRAL)","pc":26,"pc_name":"Bangalore South","ac":169,"ac_name":"Chickpet","booth":89,"booth_name":"New Vanivilas Institute For Women Room No 1"},"geometry":{"type":"Point","coordinates":[77.57939,12.9542866]}},{"type":"Feature","properties":{"state":"Karnataka","district":31,"district_n":"B.B.M.P(CENTRAL)","pc":26,"pc_name":"Bangalore South","ac":169,"ac_name":"Chickpet","booth":90,"booth_name":"New Vanivilas Institute For Women Room No 2"},"geometry":{"type":"Point","coordinates":[77.57931,12.954216]}},{"type":"Feature","properties":{"state":"Karnataka","district":31,"district_n":"B.B.M.P(CENTRAL)","pc":26,"pc_name":"Bangalore South","ac":169,"ac_name":"Chickpet","booth":91,"booth_name":"New Vani Vilas Institute For Women Room No 3"},"geometry":{"type":"Point","coordinates":[77.57941,12.954236]}},{"type":"Feature","properties":{"state":"Karnataka","district":31,"district_n":"B.B.M.P(CENTRAL)","pc":26,"pc_name":"Bangalore South","ac":169,"ac_name":"Chickpet","booth":92,"booth_name":"Corporation Ward Office Office Lalbagh Fort Road, Mavalli"},"geometry":{"type":"Point","coordinates":[77.5819855,12.9546595]}},{"type":"Feature","properties":{"state":"Karnataka","district":31,"district_n":"B.B.M.P(CENTRAL)","pc":26,"pc_name":"Bangalore South","ac":169,"ac_name":"Chickpet","booth":93,"booth_name":"Urdu Middle School, 14th Cross, Lalbagh Fort Road, Mavalli"},"geometry":{"type":"Point","coordinates":[77.58213,12.9543867]}},{"type":"Feature","properties":{"state":"Karnataka","district":31,"district_n":"B.B.M.P(CENTRAL)","pc":26,"pc_name":"Bangalore South","ac":169,"ac_name":"Chickpet","booth":94,"booth_name":"28, Al Ammen Arts & Science College College R R No 3"},"geometry":{"type":"Point","coordinates":[77.58642,12.9543352]}},{"type":"Feature","properties":{"state":"Karnataka","district":31,"district_n":"B.B.M.P(CENTRAL)","pc":26,"pc_name":"Bangalore South","ac":169,"ac_name":"Chickpet","booth":95,"booth_name":"S S V V Vidyalaya High School( My School) R R No 5"},"geometry":{"type":"Point","coordinates":[77.5920944,12.5990009]}},{"type":"Feature","properties":{"state":"Karnataka","district":31,"district_n":"B.B.M.P(CENTRAL)","pc":26,"pc_name":"Bangalore South","ac":169,"ac_name":"Chickpet","booth":167,"booth_name":"Rani Saraladevi High School R R No"},"geometry":{"type":"Point","coordinates":[77.5857239,12.9391861]}},{"type":"Feature","properties":{"state":"Karnataka","district":31,"district_n":"B.B.M.P(CENTRAL)","pc":26,"pc_name":"Bangalore South","ac":169,"ac_name":"Chickpet","booth":168,"booth_name":"Rani Saraladevi High School School R R No 4, 100 Ft Road, 1st Block, Jayanagar"},"geometry":{"type":"Point","coordinates":[77.58599,12.9390392]}},{"type":"Feature","properties":{"state":"Karnataka","district":31,"district_n":"B.B.M.P(CENTRAL)","pc":26,"pc_name":"Bangalore South","ac":169,"ac_name":"Chickpet","booth":20,"booth_name":"United Mission Junior College, Room No 3"},"geometry":{"type":"Point","coordinates":[77.5872955,12.9644527]}},{"type":"Feature","properties":{"state":"Karnataka","district":31,"district_n":"B.B.M.P(CENTRAL)","pc":26,"pc_name":"Bangalore South","ac":169,"ac_name":"Chickpet","booth":49,"booth_name":"Corporation Shopping Complex and Office, J C Road, Near Minarva Circle"},"geometry":{"type":"Point","coordinates":[77.58211,12.9572268]}},{"type":"Feature","properties":{"state":"Karnataka","district":31,"district_n":"B.B.M.P(CENTRAL)","pc":26,"pc_name":"Bangalore South","ac":169,"ac_name":"Chickpet","booth":2,"booth_name":"Corporation Nursery School, K G Road, Bannappa Park, Cubbonpet"},"geometry":{"type":"Point","coordinates":[77.58352,12.9709711]}},{"type":"Feature","properties":{"state":"Karnataka","district":31,"district_n":"B.B.M.P(CENTRAL)","pc":26,"pc_name":"Bangalore South","ac":169,"ac_name":"Chickpet","booth":201,"booth_name":"I T I Room No 1, Hosur Main Road"},"geometry":{"type":"Point","coordinates":[77.5998154,12.9363146]}},{"type":"Feature","properties":{"state":"Karnataka","district":31,"district_n":"B.B.M.P(CENTRAL)","pc":26,"pc_name":"Bangalore South","ac":169,"ac_name":"Chickpet","booth":202,"booth_name":"Iti Room No 2, Hosur Main Road"},"geometry":{"type":"Point","coordinates":[77.5995255,12.9365091]}},{"type":"Feature","properties":{"state":"Karnataka","district":31,"district_n":"B.B.M.P(CENTRAL)","pc":26,"pc_name":"Bangalore South","ac":169,"ac_name":"Chickpet","booth":204,"booth_name":"Samudaya Bhavana, 17/a, 1st Cross, Rbi Colony, Jayanagar, Byrasandra, Room No 1"},"geometry":{"type":"Point","coordinates":[77.5929947,12.930747]}},{"type":"Feature","properties":{"state":"Karnataka","district":31,"district_n":"B.B.M.P(CENTRAL)","pc":26,"pc_name":"Bangalore South","ac":169,"ac_name":"Chickpet","booth":205,"booth_name":"Govt Govt Urdu School Room No 1, Changaiah Compound"},"geometry":{"type":"Point","coordinates":[77.59656,12.9296856]}},{"type":"Feature","properties":{"state":"Karnataka","district":31,"district_n":"B.B.M.P(CENTRAL)","pc":26,"pc_name":"Bangalore South","ac":169,"ac_name":"Chickpet","booth":207,"booth_name":"Govt Urdu School Room No 3, Changaiah Compound"},"geometry":{"type":"Point","coordinates":[77.59832,12.9302244]}},{"type":"Feature","properties":{"state":"Karnataka","district":31,"district_n":"B.B.M.P(CENTRAL)","pc":26,"pc_name":"Bangalore South","ac":169,"ac_name":"Chickpet","booth":209,"booth_name":"Regional Vocational Training Institute For Women Women Room No 1 Hosur Main Road"},"geometry":{"type":"Point","coordinates":[77.599205,12.9373512]}},{"type":"Feature","properties":{"state":"Karnataka","district":31,"district_n":"B.B.M.P(CENTRAL)","pc":26,"pc_name":"Bangalore South","ac":169,"ac_name":"Chickpet","booth":4,"booth_name":"Badavara Balaga School, 12th Cross, Kabban Pet, Room No No No 2"},"geometry":{"type":"Point","coordinates":[77.584,12.9694977]}},{"type":"Feature","properties":{"state":"Karnataka","district":31,"district_n":"B.B.M.P(CENTRAL)","pc":26,"pc_name":"Bangalore South","ac":169,"ac_name":"Chickpet","booth":5,"booth_name":"Lourd Higher Primary School, 3rd Cross, Kabban Pet, Pet, Room No No No 1"},"geometry":{"type":"Point","coordinates":[77.58494,12.9663086]}},{"type":"Feature","properties":{"state":"Karnataka","district":31,"district_n":"B.B.M.P(CENTRAL)","pc":26,"pc_name":"Bangalore South","ac":169,"ac_name":"Chickpet","booth":125,"booth_name":"Sri Saraswathi Vidya Mandira Room No 2"},"geometry":{"type":"Point","coordinates":[77.5783,12.9482336]}},{"type":"Feature","properties":{"state":"Karnataka","district":31,"district_n":"B.B.M.P(CENTRAL)","pc":26,"pc_name":"Bangalore South","ac":169,"ac_name":"Chickpet","booth":126,"booth_name":"Sri Saraswathi Vidya Mandira Room No 3"},"geometry":{"type":"Point","coordinates":[77.57817,12.9482965]}},{"type":"Feature","properties":{"state":"Karnataka","district":31,"district_n":"B.B.M.P(CENTRAL)","pc":26,"pc_name":"Bangalore South","ac":169,"ac_name":"Chickpet","booth":139,"booth_name":"Govt Govt Higher Primary Primary School R R No No 5, Lalbagh Siddapura, Bangalore 560011"},"geometry":{"type":"Point","coordinates":[77.58853,12.9458666]}},{"type":"Feature","properties":{"state":"Karnataka","district":31,"district_n":"B.B.M.P(CENTRAL)","pc":26,"pc_name":"Bangalore South","ac":169,"ac_name":"Chickpet","booth":218,"booth_name":"C C E E S S English Nursery School Room No 5 2nd Cross, 8th Main , Byrasandra"},"geometry":{"type":"Point","coordinates":[77.59833,12.9301405]}},{"type":"Feature","properties":{"state":"Karnataka","district":31,"district_n":"B.B.M.P(CENTRAL)","pc":26,"pc_name":"Bangalore South","ac":169,"ac_name":"Chickpet","booth":118,"booth_name":"Niveditha School, Room No 3"},"geometry":{"type":"Point","coordinates":[77.5674438,12.9454041]}},{"type":"Feature","properties":{"state":"Karnataka","district":31,"district_n":"B.B.M.P(CENTRAL)","pc":26,"pc_name":"Bangalore South","ac":169,"ac_name":"Chickpet","booth":119,"booth_name":"Saraswathi Vidya Mandira Mandira Room No 1"},"geometry":{"type":"Point","coordinates":[77.56503,12.9445038]}},{"type":"Feature","properties":{"state":"Karnataka","district":31,"district_n":"B.B.M.P(CENTRAL)","pc":26,"pc_name":"Bangalore South","ac":169,"ac_name":"Chickpet","booth":122,"booth_name":"Sri Vasavi Vidyanikethan Room No 1"},"geometry":{"type":"Point","coordinates":[77.5757,12.9484615]}},{"type":"Feature","properties":{"state":"Karnataka","district":31,"district_n":"B.B.M.P(CENTRAL)","pc":26,"pc_name":"Bangalore South","ac":169,"ac_name":"Chickpet","booth":13,"booth_name":"Government Primary School, Room No No No 4"},"geometry":{"type":"Point","coordinates":[77.58107,12.9656649]}},{"type":"Feature","properties":{"state":"Karnataka","district":31,"district_n":"B.B.M.P(CENTRAL)","pc":26,"pc_name":"Bangalore South","ac":169,"ac_name":"Chickpet","booth":19,"booth_name":"United Mission Junior College, Room No 2"},"geometry":{"type":"Point","coordinates":[77.58739,12.9644985]}},{"type":"Feature","properties":{"state":"Karnataka","district":31,"district_n":"B.B.M.P(CENTRAL)","pc":26,"pc_name":"Bangalore South","ac":169,"ac_name":"Chickpet","booth":17,"booth_name":"Office of the Junior Health Inspector's Ward Office, Room No No No 1 Dasappa Maternity Hptl Cmpd"},"geometry":{"type":"Point","coordinates":[77.5843658,12.9639616]}},{"type":"Feature","properties":{"state":"Karnataka","district":31,"district_n":"B.B.M.P(CENTRAL)","pc":26,"pc_name":"Bangalore South","ac":169,"ac_name":"Chickpet","booth":18,"booth_name":"United Mission Junior College, Room No No No 1"},"geometry":{"type":"Point","coordinates":[77.5873947,12.9645452]}},{"type":"Feature","properties":{"state":"Karnataka","district":31,"district_n":"B.B.M.P(CENTRAL)","pc":26,"pc_name":"Bangalore South","ac":169,"ac_name":"Chickpet","booth":96,"booth_name":"S S V V Vidyalaya High school (my School) School) Ro No 4"},"geometry":{"type":"Point","coordinates":[77.59195,12.959136]}},{"type":"Feature","properties":{"state":"Karnataka","district":31,"district_n":"B.B.M.P(CENTRAL)","pc":26,"pc_name":"Bangalore South","ac":169,"ac_name":"Chickpet","booth":197,"booth_name":"Mary Immaculate High School R R No 3, Lakkasandra Layout"},"geometry":{"type":"Point","coordinates":[77.6004639,12.9445543]}},{"type":"Feature","properties":{"state":"Karnataka","district":31,"district_n":"B.B.M.P(CENTRAL)","pc":26,"pc_name":"Bangalore South","ac":169,"ac_name":"Chickpet","booth":203,"booth_name":"Govt Govt Kannada Higher Primary School , Room No 1, Gulbarga Colony"},"geometry":{"type":"Point","coordinates":[77.59346,12.9314909]}},{"type":"Feature","properties":{"state":"Karnataka","district":31,"district_n":"B.B.M.P(CENTRAL)","pc":26,"pc_name":"Bangalore South","ac":169,"ac_name":"Chickpet","booth":215,"booth_name":"C E S Nursery, Room No 2, 2nd Cross, 8th Main Byrasandra"},"geometry":{"type":"Point","coordinates":[77.5931,12.9294329]}},{"type":"Feature","properties":{"state":"Karnataka","district":31,"district_n":"B.B.M.P(CENTRAL)","pc":26,"pc_name":"Bangalore South","ac":169,"ac_name":"Chickpet","booth":10,"booth_name":"Abbas Khan Womens College, Darga Compound, Compound, Room No No No 1"},"geometry":{"type":"Point","coordinates":[77.5852356,12.9660664]}},{"type":"Feature","properties":{"state":"Karnataka","district":31,"district_n":"B.B.M.P(CENTRAL)","pc":26,"pc_name":"Bangalore South","ac":169,"ac_name":"Chickpet","booth":6,"booth_name":"Lourd Higher Primary School, 3rd Cross, Kabban Pet, Pet, Room No No No 2"},"geometry":{"type":"Point","coordinates":[77.58492,12.966033]}}]}