{"type":"FeatureCollection","features":[{"type":"Feature","properties":{"state":"Karnataka","district":1,"district_n":"BELGAUM","pc":2,"pc_name":"Belgaum","ac":18,"ac_name":"Ramdurg","booth":15,"booth_name":"Govt Higher Primary Kannada School middle wing New Building"},"geometry":{"type":"Point","coordinates":[75.1726151,16.1393]}},{"type":"Feature","properties":{"state":"Karnataka","district":1,"district_n":"BELGAUM","pc":2,"pc_name":"Belgaum","ac":18,"ac_name":"Ramdurg","booth":32,"booth_name":"Govt Higher primary kannada school left Side"},"geometry":{"type":"Point","coordinates":[75.30581,16.0954437]}},{"type":"Feature","properties":{"state":"Karnataka","district":1,"district_n":"BELGAUM","pc":2,"pc_name":"Belgaum","ac":18,"ac_name":"Ramdurg","booth":49,"booth_name":"Govt Lower Primary Kannada School"},"geometry":{"type":"Point","coordinates":[75.1657944,16.104105]}},{"type":"Feature","properties":{"state":"Karnataka","district":1,"district_n":"BELGAUM","pc":2,"pc_name":"Belgaum","ac":18,"ac_name":"Ramdurg","booth":66,"booth_name":"Gram Panchayat Office"},"geometry":{"type":"Point","coordinates":[75.1409149,15.987834]}},{"type":"Feature","properties":{"state":"Karnataka","district":1,"district_n":"BELGAUM","pc":2,"pc_name":"Belgaum","ac":18,"ac_name":"Ramdurg","booth":83,"booth_name":"Govt Lower Primary Kannada School"},"geometry":{"type":"Point","coordinates":[75.35989,15.9993315]}},{"type":"Feature","properties":{"state":"Karnataka","district":1,"district_n":"BELGAUM","pc":2,"pc_name":"Belgaum","ac":18,"ac_name":"Ramdurg","booth":100,"booth_name":"Govt Higher Primary Kannada School Left Side"},"geometry":{"type":"Point","coordinates":[75.2756958,15.9641209]}},{"type":"Feature","properties":{"state":"Karnataka","district":1,"district_n":"BELGAUM","pc":2,"pc_name":"Belgaum","ac":18,"ac_name":"Ramdurg","booth":113,"booth_name":"Govt Govt Higher Primary Kannada School Middle Wing"},"geometry":{"type":"Point","coordinates":[75.1191,15.9237347]}},{"type":"Feature","properties":{"state":"Karnataka","district":1,"district_n":"BELGAUM","pc":2,"pc_name":"Belgaum","ac":18,"ac_name":"Ramdurg","booth":17,"booth_name":"Govt Higher Primary Kannada School Right Side"},"geometry":{"type":"Point","coordinates":[75.1060944,16.1277084]}},{"type":"Feature","properties":{"state":"Karnataka","district":1,"district_n":"BELGAUM","pc":2,"pc_name":"Belgaum","ac":18,"ac_name":"Ramdurg","booth":26,"booth_name":"Govt Higher Primary Kannada School"},"geometry":{"type":"Point","coordinates":[75.25914,16.0788422]}},{"type":"Feature","properties":{"state":"Karnataka","district":1,"district_n":"BELGAUM","pc":2,"pc_name":"Belgaum","ac":18,"ac_name":"Ramdurg","booth":51,"booth_name":"Samanvaya Education Sampanmul Kendra"},"geometry":{"type":"Point","coordinates":[75.23185,16.0683823]}},{"type":"Feature","properties":{"state":"Karnataka","district":1,"district_n":"BELGAUM","pc":2,"pc_name":"Belgaum","ac":18,"ac_name":"Ramdurg","booth":60,"booth_name":"Govt Model Higher Kannada Boys School Middle Wing"},"geometry":{"type":"Point","coordinates":[75.13717,15.9855137]}},{"type":"Feature","properties":{"state":"Karnataka","district":1,"district_n":"BELGAUM","pc":2,"pc_name":"Belgaum","ac":18,"ac_name":"Ramdurg","booth":85,"booth_name":"Govt Higher Primary Kannada School"},"geometry":{"type":"Point","coordinates":[75.4133,16.0086842]}},{"type":"Feature","properties":{"state":"Karnataka","district":1,"district_n":"BELGAUM","pc":2,"pc_name":"Belgaum","ac":18,"ac_name":"Ramdurg","booth":94,"booth_name":"Govt Higher Primary Kannada School School Left Side"},"geometry":{"type":"Point","coordinates":[75.32858,15.9548159]}},{"type":"Feature","properties":{"state":"Karnataka","district":1,"district_n":"BELGAUM","pc":2,"pc_name":"Belgaum","ac":18,"ac_name":"Ramdurg","booth":119,"booth_name":"Govt Govt Lower Primary Kannada School"},"geometry":{"type":"Point","coordinates":[75.18101,15.948885]}},{"type":"Feature","properties":{"state":"Karnataka","district":1,"district_n":"BELGAUM","pc":2,"pc_name":"Belgaum","ac":18,"ac_name":"Ramdurg","booth":130,"booth_name":"Basaveshwar Veershaiv Vidyavardhak Sangh Balakiyar Nutan High School Middle side"},"geometry":{"type":"Point","coordinates":[75.29455,15.94809]}},{"type":"Feature","properties":{"state":"Karnataka","district":1,"district_n":"BELGAUM","pc":2,"pc_name":"Belgaum","ac":18,"ac_name":"Ramdurg","booth":147,"booth_name":"Govt Lower Primary kannada School"},"geometry":{"type":"Point","coordinates":[75.30021,15.9509048]}},{"type":"Feature","properties":{"state":"Karnataka","district":1,"district_n":"BELGAUM","pc":2,"pc_name":"Belgaum","ac":18,"ac_name":"Ramdurg","booth":164,"booth_name":"Govt Lower Primary Kannada School"},"geometry":{"type":"Point","coordinates":[75.3008,15.9357624]}},{"type":"Feature","properties":{"state":"Karnataka","district":1,"district_n":"BELGAUM","pc":2,"pc_name":"Belgaum","ac":18,"ac_name":"Ramdurg","booth":181,"booth_name":"Shri Phalahareshwar High School Right Side"},"geometry":{"type":"Point","coordinates":[75.39474,15.8923216]}},{"type":"Feature","properties":{"state":"Karnataka","district":1,"district_n":"BELGAUM","pc":2,"pc_name":"Belgaum","ac":18,"ac_name":"Ramdurg","booth":198,"booth_name":"Govt Higher Primary Kannada School East Side"},"geometry":{"type":"Point","coordinates":[75.45528,15.857729]}},{"type":"Feature","properties":{"state":"Karnataka","district":1,"district_n":"BELGAUM","pc":2,"pc_name":"Belgaum","ac":18,"ac_name":"Ramdurg","booth":9,"booth_name":"Govt Lower Primary Kannada School"},"geometry":{"type":"Point","coordinates":[75.2438049,16.1779976]}},{"type":"Feature","properties":{"state":"Karnataka","district":1,"district_n":"BELGAUM","pc":2,"pc_name":"Belgaum","ac":18,"ac_name":"Ramdurg","booth":34,"booth_name":"Govt Higher Primary Kannada School"},"geometry":{"type":"Point","coordinates":[75.29888,16.0516548]}},{"type":"Feature","properties":{"state":"Karnataka","district":1,"district_n":"BELGAUM","pc":2,"pc_name":"Belgaum","ac":18,"ac_name":"Ramdurg","booth":52,"booth_name":"Govt Higher Primary Kannada School"},"geometry":{"type":"Point","coordinates":[75.25909,16.0742741]}},{"type":"Feature","properties":{"state":"Karnataka","district":1,"district_n":"BELGAUM","pc":2,"pc_name":"Belgaum","ac":18,"ac_name":"Ramdurg","booth":59,"booth_name":"Govt Higher Primary Kannada School"},"geometry":{"type":"Point","coordinates":[75.10759,16.0763645]}},{"type":"Feature","properties":{"state":"Karnataka","district":1,"district_n":"BELGAUM","pc":2,"pc_name":"Belgaum","ac":18,"ac_name":"Ramdurg","booth":77,"booth_name":"Govt Higher Primary Kannada School Right side"},"geometry":{"type":"Point","coordinates":[75.2590561,16.0743637]}},{"type":"Feature","properties":{"state":"Karnataka","district":1,"district_n":"BELGAUM","pc":2,"pc_name":"Belgaum","ac":18,"ac_name":"Ramdurg","booth":102,"booth_name":"Govt Higher Primary Kannada School New Building East Side"},"geometry":{"type":"Point","coordinates":[75.26503,15.9689322]}},{"type":"Feature","properties":{"state":"Karnataka","district":1,"district_n":"BELGAUM","pc":2,"pc_name":"Belgaum","ac":18,"ac_name":"Ramdurg","booth":120,"booth_name":"Govt Govt Higher Primary Kannada School"},"geometry":{"type":"Point","coordinates":[75.21133,15.94591]}},{"type":"Feature","properties":{"state":"Karnataka","district":1,"district_n":"BELGAUM","pc":2,"pc_name":"Belgaum","ac":18,"ac_name":"Ramdurg","booth":13,"booth_name":"Samaj Mandir"},"geometry":{"type":"Point","coordinates":[75.2658157,16.16536]}},{"type":"Feature","properties":{"state":"Karnataka","district":1,"district_n":"BELGAUM","pc":2,"pc_name":"Belgaum","ac":18,"ac_name":"Ramdurg","booth":30,"booth_name":"Govt Lower Primary Kannada School"},"geometry":{"type":"Point","coordinates":[75.29597,16.0991936]}},{"type":"Feature","properties":{"state":"Karnataka","district":1,"district_n":"BELGAUM","pc":2,"pc_name":"Belgaum","ac":18,"ac_name":"Ramdurg","booth":47,"booth_name":"Govt Lower Primary Kannada School School East Side"},"geometry":{"type":"Point","coordinates":[75.23286,16.0728569]}},{"type":"Feature","properties":{"state":"Karnataka","district":1,"district_n":"BELGAUM","pc":2,"pc_name":"Belgaum","ac":18,"ac_name":"Ramdurg","booth":64,"booth_name":"Govt Girls Higher Primary School Old Building Near Market"},"geometry":{"type":"Point","coordinates":[75.14048,15.9888611]}},{"type":"Feature","properties":{"state":"Karnataka","district":1,"district_n":"BELGAUM","pc":2,"pc_name":"Belgaum","ac":18,"ac_name":"Ramdurg","booth":81,"booth_name":"Govt Lower Primary Kannada School"},"geometry":{"type":"Point","coordinates":[75.3739853,15.9993324]}},{"type":"Feature","properties":{"state":"Karnataka","district":1,"district_n":"BELGAUM","pc":2,"pc_name":"Belgaum","ac":18,"ac_name":"Ramdurg","booth":98,"booth_name":"Govt Higher Primary Kannada School East Side"},"geometry":{"type":"Point","coordinates":[75.2863,15.9601231]}},{"type":"Feature","properties":{"state":"Karnataka","district":1,"district_n":"BELGAUM","pc":2,"pc_name":"Belgaum","ac":18,"ac_name":"Ramdurg","booth":115,"booth_name":"Govt Govt Higher Primary Kannada School New Building Left side"},"geometry":{"type":"Point","coordinates":[75.11911,15.9237862]}},{"type":"Feature","properties":{"state":"Karnataka","district":1,"district_n":"BELGAUM","pc":2,"pc_name":"Belgaum","ac":18,"ac_name":"Ramdurg","booth":128,"booth_name":"Govt Govt Higher Primary Urdu Girls School School Left Side"},"geometry":{"type":"Point","coordinates":[75.29429,15.9460077]}},{"type":"Feature","properties":{"state":"Karnataka","district":1,"district_n":"BELGAUM","pc":2,"pc_name":"Belgaum","ac":18,"ac_name":"Ramdurg","booth":153,"booth_name":"Govt Govt Higher Primary Kannaada School"},"geometry":{"type":"Point","coordinates":[75.3735,15.943512]}},{"type":"Feature","properties":{"state":"Karnataka","district":1,"district_n":"BELGAUM","pc":2,"pc_name":"Belgaum","ac":18,"ac_name":"Ramdurg","booth":162,"booth_name":"Govt Lower Primary Kannada School"},"geometry":{"type":"Point","coordinates":[75.34194,15.936904]}},{"type":"Feature","properties":{"state":"Karnataka","district":1,"district_n":"BELGAUM","pc":2,"pc_name":"Belgaum","ac":18,"ac_name":"Ramdurg","booth":187,"booth_name":"Govt Lower Primary Kannada School New Building"},"geometry":{"type":"Point","coordinates":[75.40923,15.9047508]}},{"type":"Feature","properties":{"state":"Karnataka","district":1,"district_n":"BELGAUM","pc":2,"pc_name":"Belgaum","ac":18,"ac_name":"Ramdurg","booth":196,"booth_name":"Govt Higher Primary Kannada School right side"},"geometry":{"type":"Point","coordinates":[75.29677,15.8709335]}},{"type":"Feature","properties":{"state":"Karnataka","district":1,"district_n":"BELGAUM","pc":2,"pc_name":"Belgaum","ac":18,"ac_name":"Ramdurg","booth":127,"booth_name":"Govt Govt Higher Primary Urdu Girls School School Right Side"},"geometry":{"type":"Point","coordinates":[75.29436,15.9459782]}},{"type":"Feature","properties":{"state":"Karnataka","district":1,"district_n":"BELGAUM","pc":2,"pc_name":"Belgaum","ac":18,"ac_name":"Ramdurg","booth":145,"booth_name":"Govt Lower Primary Kannada School"},"geometry":{"type":"Point","coordinates":[75.2939,15.9534521]}},{"type":"Feature","properties":{"state":"Karnataka","district":1,"district_n":"BELGAUM","pc":2,"pc_name":"Belgaum","ac":18,"ac_name":"Ramdurg","booth":170,"booth_name":"Govt Govt Higher Primary Primary Kannada School School West Side"},"geometry":{"type":"Point","coordinates":[75.30385,15.8768024]}},{"type":"Feature","properties":{"state":"Karnataka","district":1,"district_n":"BELGAUM","pc":2,"pc_name":"Belgaum","ac":18,"ac_name":"Ramdurg","booth":184,"booth_name":"Govt Higher Primary Kannada School West Side"},"geometry":{"type":"Point","coordinates":[75.40516,15.9008961]}},{"type":"Feature","properties":{"state":"Karnataka","district":1,"district_n":"BELGAUM","pc":2,"pc_name":"Belgaum","ac":18,"ac_name":"Ramdurg","booth":188,"booth_name":"Govt Higher Primary Kannada School East Side"},"geometry":{"type":"Point","coordinates":[75.4357147,15.8879261]}},{"type":"Feature","properties":{"state":"Karnataka","district":1,"district_n":"BELGAUM","pc":2,"pc_name":"Belgaum","ac":18,"ac_name":"Ramdurg","booth":195,"booth_name":"Govt Higher Primary Kannada School"},"geometry":{"type":"Point","coordinates":[75.29704,15.8710022]}},{"type":"Feature","properties":{"state":"Karnataka","district":1,"district_n":"BELGAUM","pc":2,"pc_name":"Belgaum","ac":18,"ac_name":"Ramdurg","booth":132,"booth_name":"Govt Govt Model Kannada Boys School No 1 Left Side"},"geometry":{"type":"Point","coordinates":[75.29475,15.9460754]}},{"type":"Feature","properties":{"state":"Karnataka","district":1,"district_n":"BELGAUM","pc":2,"pc_name":"Belgaum","ac":18,"ac_name":"Ramdurg","booth":149,"booth_name":"Govt Higher Primary Kannada School No 3 left side Market Yard"},"geometry":{"type":"Point","coordinates":[75.3007,15.9462214]}},{"type":"Feature","properties":{"state":"Karnataka","district":1,"district_n":"BELGAUM","pc":2,"pc_name":"Belgaum","ac":18,"ac_name":"Ramdurg","booth":166,"booth_name":"Govt Govt Lower Primary Primary Kannada School"},"geometry":{"type":"Point","coordinates":[75.29153,15.9494524]}},{"type":"Feature","properties":{"state":"Karnataka","district":1,"district_n":"BELGAUM","pc":2,"pc_name":"Belgaum","ac":18,"ac_name":"Ramdurg","booth":183,"booth_name":"Govt Lower Primary Kannada School"},"geometry":{"type":"Point","coordinates":[75.38701,15.88533]}},{"type":"Feature","properties":{"state":"Karnataka","district":1,"district_n":"BELGAUM","pc":2,"pc_name":"Belgaum","ac":18,"ac_name":"Ramdurg","booth":200,"booth_name":"Govt Higher Primary Kannada School East Side Old Old Building"},"geometry":{"type":"Point","coordinates":[75.4260559,15.8411942]}},{"type":"Feature","properties":{"state":"Karnataka","district":1,"district_n":"BELGAUM","pc":2,"pc_name":"Belgaum","ac":18,"ac_name":"Ramdurg","booth":2,"booth_name":"Govt Model Higher Primary Kannada School East Side"},"geometry":{"type":"Point","coordinates":[75.12489,16.1484089]}},{"type":"Feature","properties":{"state":"Karnataka","district":1,"district_n":"BELGAUM","pc":2,"pc_name":"Belgaum","ac":18,"ac_name":"Ramdurg","booth":20,"booth_name":"Gram Panchayat Karyalay"},"geometry":{"type":"Point","coordinates":[75.10246,16.11738]}},{"type":"Feature","properties":{"state":"Karnataka","district":1,"district_n":"BELGAUM","pc":2,"pc_name":"Belgaum","ac":18,"ac_name":"Ramdurg","booth":27,"booth_name":"Govt Higher Primary Kannada School"},"geometry":{"type":"Point","coordinates":[75.25392,16.0841942]}},{"type":"Feature","properties":{"state":"Karnataka","district":1,"district_n":"BELGAUM","pc":2,"pc_name":"Belgaum","ac":18,"ac_name":"Ramdurg","booth":45,"booth_name":"Govt Lower Primary Kannada School"},"geometry":{"type":"Point","coordinates":[75.41508,16.0507145]}},{"type":"Feature","properties":{"state":"Karnataka","district":1,"district_n":"BELGAUM","pc":2,"pc_name":"Belgaum","ac":18,"ac_name":"Ramdurg","booth":70,"booth_name":"Govt Higher Primary Kannada School new building"},"geometry":{"type":"Point","coordinates":[75.19593,16.011137]}},{"type":"Feature","properties":{"state":"Karnataka","district":1,"district_n":"BELGAUM","pc":2,"pc_name":"Belgaum","ac":18,"ac_name":"Ramdurg","booth":84,"booth_name":"Govt Lower Primary Kannada School"},"geometry":{"type":"Point","coordinates":[75.40869,16.0101]}},{"type":"Feature","properties":{"state":"Karnataka","district":1,"district_n":"BELGAUM","pc":2,"pc_name":"Belgaum","ac":18,"ac_name":"Ramdurg","booth":95,"booth_name":"Govt Higher Primary Kannada School new building Right side"},"geometry":{"type":"Point","coordinates":[75.32873,15.9549513]}},{"type":"Feature","properties":{"state":"Karnataka","district":1,"district_n":"BELGAUM","pc":2,"pc_name":"Belgaum","ac":18,"ac_name":"Ramdurg","booth":5,"booth_name":"Govt Higher Primary Kannada School new building"},"geometry":{"type":"Point","coordinates":[75.17392,16.1672783]}},{"type":"Feature","properties":{"state":"Karnataka","district":1,"district_n":"BELGAUM","pc":2,"pc_name":"Belgaum","ac":18,"ac_name":"Ramdurg","booth":38,"booth_name":"Govt Higher Primary Kannada School New Building North Side"},"geometry":{"type":"Point","coordinates":[75.37012,16.0774612]}},{"type":"Feature","properties":{"state":"Karnataka","district":1,"district_n":"BELGAUM","pc":2,"pc_name":"Belgaum","ac":18,"ac_name":"Ramdurg","booth":55,"booth_name":"Govt Higher Primary Kannada School School North Side"},"geometry":{"type":"Point","coordinates":[75.14239,16.0400925]}},{"type":"Feature","properties":{"state":"Karnataka","district":1,"district_n":"BELGAUM","pc":2,"pc_name":"Belgaum","ac":18,"ac_name":"Ramdurg","booth":56,"booth_name":"Govt Higher Primary Kannada School School South Side"},"geometry":{"type":"Point","coordinates":[75.14241,16.0400734]}},{"type":"Feature","properties":{"state":"Karnataka","district":1,"district_n":"BELGAUM","pc":2,"pc_name":"Belgaum","ac":18,"ac_name":"Ramdurg","booth":73,"booth_name":"Govt Higher Primary Kannada School"},"geometry":{"type":"Point","coordinates":[75.25908,16.0743351]}},{"type":"Feature","properties":{"state":"Karnataka","district":1,"district_n":"BELGAUM","pc":2,"pc_name":"Belgaum","ac":18,"ac_name":"Ramdurg","booth":106,"booth_name":"Govt Urdu Higher Primary School"},"geometry":{"type":"Point","coordinates":[75.2390747,15.9991789]}},{"type":"Feature","properties":{"state":"Karnataka","district":1,"district_n":"BELGAUM","pc":2,"pc_name":"Belgaum","ac":18,"ac_name":"Ramdurg","booth":123,"booth_name":"Govt Govt Lower Primary Kannada School"},"geometry":{"type":"Point","coordinates":[75.29146,15.9495592]}},{"type":"Feature","properties":{"state":"Karnataka","district":1,"district_n":"BELGAUM","pc":2,"pc_name":"Belgaum","ac":18,"ac_name":"Ramdurg","booth":6,"booth_name":"Govt Higher Primary Kannada School old building"},"geometry":{"type":"Point","coordinates":[75.1740952,16.1673775]}},{"type":"Feature","properties":{"state":"Karnataka","district":1,"district_n":"BELGAUM","pc":2,"pc_name":"Belgaum","ac":18,"ac_name":"Ramdurg","booth":23,"booth_name":"Govt Higher Primary Kannada School"},"geometry":{"type":"Point","coordinates":[75.16584,16.1041622]}},{"type":"Feature","properties":{"state":"Karnataka","district":1,"district_n":"BELGAUM","pc":2,"pc_name":"Belgaum","ac":18,"ac_name":"Ramdurg","booth":24,"booth_name":"Govt Higher Primary Kannada School"},"geometry":{"type":"Point","coordinates":[75.19805,16.1132145]}},{"type":"Feature","properties":{"state":"Karnataka","district":1,"district_n":"BELGAUM","pc":2,"pc_name":"Belgaum","ac":18,"ac_name":"Ramdurg","booth":41,"booth_name":"Govt Higher Primary Kannada School"},"geometry":{"type":"Point","coordinates":[75.34247,16.0542011]}},{"type":"Feature","properties":{"state":"Karnataka","district":1,"district_n":"BELGAUM","pc":2,"pc_name":"Belgaum","ac":18,"ac_name":"Ramdurg","booth":74,"booth_name":"Govt Higher Primary Kannada School"},"geometry":{"type":"Point","coordinates":[75.26868,16.011879]}},{"type":"Feature","properties":{"state":"Karnataka","district":1,"district_n":"BELGAUM","pc":2,"pc_name":"Belgaum","ac":18,"ac_name":"Ramdurg","booth":88,"booth_name":"Govt Higher Primary Kannada School"},"geometry":{"type":"Point","coordinates":[75.38353,15.9712229]}},{"type":"Feature","properties":{"state":"Karnataka","district":1,"district_n":"BELGAUM","pc":2,"pc_name":"Belgaum","ac":18,"ac_name":"Ramdurg","booth":91,"booth_name":"Govt Higher Primary Kannada School School Right Side"},"geometry":{"type":"Point","coordinates":[75.34217,15.9897385]}},{"type":"Feature","properties":{"state":"Karnataka","district":1,"district_n":"BELGAUM","pc":2,"pc_name":"Belgaum","ac":18,"ac_name":"Ramdurg","booth":31,"booth_name":"Samaj Mandir"},"geometry":{"type":"Point","coordinates":[75.30649,16.0956726]}},{"type":"Feature","properties":{"state":"Karnataka","district":1,"district_n":"BELGAUM","pc":2,"pc_name":"Belgaum","ac":18,"ac_name":"Ramdurg","booth":33,"booth_name":"Govt Lower Primary Kannada School"},"geometry":{"type":"Point","coordinates":[75.30236,16.0760937]}},{"type":"Feature","properties":{"state":"Karnataka","district":1,"district_n":"BELGAUM","pc":2,"pc_name":"Belgaum","ac":18,"ac_name":"Ramdurg","booth":46,"booth_name":"Govt Higher Primary Kannada School"},"geometry":{"type":"Point","coordinates":[75.30616,16.03356]}},{"type":"Feature","properties":{"state":"Karnataka","district":1,"district_n":"BELGAUM","pc":2,"pc_name":"Belgaum","ac":18,"ac_name":"Ramdurg","booth":48,"booth_name":"Govt Lower Primary Kannada School West Side"},"geometry":{"type":"Point","coordinates":[75.23287,16.07289]}},{"type":"Feature","properties":{"state":"Karnataka","district":1,"district_n":"BELGAUM","pc":2,"pc_name":"Belgaum","ac":18,"ac_name":"Ramdurg","booth":82,"booth_name":"Govt Lower Primary Kannada School"},"geometry":{"type":"Point","coordinates":[75.3801651,16.0154552]}},{"type":"Feature","properties":{"state":"Karnataka","district":1,"district_n":"BELGAUM","pc":2,"pc_name":"Belgaum","ac":18,"ac_name":"Ramdurg","booth":97,"booth_name":"Govt Higher Primary Kannada School"},"geometry":{"type":"Point","coordinates":[75.2635345,16.0052357]}},{"type":"Feature","properties":{"state":"Karnataka","district":1,"district_n":"BELGAUM","pc":2,"pc_name":"Belgaum","ac":18,"ac_name":"Ramdurg","booth":131,"booth_name":"Govt Govt Model Kannada Boys School No 1 Right Side"},"geometry":{"type":"Point","coordinates":[75.2943039,15.9462309]}},{"type":"Feature","properties":{"state":"Karnataka","district":1,"district_n":"BELGAUM","pc":2,"pc_name":"Belgaum","ac":18,"ac_name":"Ramdurg","booth":19,"booth_name":"Govt Model Higher Primary Kannada School"},"geometry":{"type":"Point","coordinates":[75.10131,16.1158943]}},{"type":"Feature","properties":{"state":"Karnataka","district":1,"district_n":"BELGAUM","pc":2,"pc_name":"Belgaum","ac":18,"ac_name":"Ramdurg","booth":28,"booth_name":"Govt Lower Primary Kannada School"},"geometry":{"type":"Point","coordinates":[75.2591553,16.0743141]}},{"type":"Feature","properties":{"state":"Karnataka","district":1,"district_n":"BELGAUM","pc":2,"pc_name":"Belgaum","ac":18,"ac_name":"Ramdurg","booth":53,"booth_name":"Govt Higher Primary Kannada School right side"},"geometry":{"type":"Point","coordinates":[75.25912,16.0743122]}},{"type":"Feature","properties":{"state":"Karnataka","district":1,"district_n":"BELGAUM","pc":2,"pc_name":"Belgaum","ac":18,"ac_name":"Ramdurg","booth":87,"booth_name":"Govt Lower Primary Kannada School"},"geometry":{"type":"Point","coordinates":[75.40305,15.9751959]}},{"type":"Feature","properties":{"state":"Karnataka","district":1,"district_n":"BELGAUM","pc":2,"pc_name":"Belgaum","ac":18,"ac_name":"Ramdurg","booth":92,"booth_name":"Govt Higher Primary Kannada School School Left Side"},"geometry":{"type":"Point","coordinates":[75.34226,15.9897718]}},{"type":"Feature","properties":{"state":"Karnataka","district":1,"district_n":"BELGAUM","pc":2,"pc_name":"Belgaum","ac":18,"ac_name":"Ramdurg","booth":96,"booth_name":"Govt Higher Primary Kannada School Middle Wing"},"geometry":{"type":"Point","coordinates":[75.27962,16.0018082]}},{"type":"Feature","properties":{"state":"Karnataka","district":1,"district_n":"BELGAUM","pc":2,"pc_name":"Belgaum","ac":18,"ac_name":"Ramdurg","booth":3,"booth_name":"Govt Model Higher Primary Kannada School New Building"},"geometry":{"type":"Point","coordinates":[75.1249,16.148674]}},{"type":"Feature","properties":{"state":"Karnataka","district":1,"district_n":"BELGAUM","pc":2,"pc_name":"Belgaum","ac":18,"ac_name":"Ramdurg","booth":10,"booth_name":"Govt Higher Primary Kannada School"},"geometry":{"type":"Point","coordinates":[75.27251,16.1840515]}},{"type":"Feature","properties":{"state":"Karnataka","district":1,"district_n":"BELGAUM","pc":2,"pc_name":"Belgaum","ac":18,"ac_name":"Ramdurg","booth":12,"booth_name":"Govt Higher Primary Kannada School School East Side"},"geometry":{"type":"Point","coordinates":[75.26591,16.1645775]}},{"type":"Feature","properties":{"state":"Karnataka","district":1,"district_n":"BELGAUM","pc":2,"pc_name":"Belgaum","ac":18,"ac_name":"Ramdurg","booth":67,"booth_name":"Gram Panchayat Office left side"},"geometry":{"type":"Point","coordinates":[75.1409149,15.9878311]}},{"type":"Feature","properties":{"state":"Karnataka","district":1,"district_n":"BELGAUM","pc":2,"pc_name":"Belgaum","ac":18,"ac_name":"Ramdurg","booth":69,"booth_name":"Govt Higher Primary Kannada School Midal Wing"},"geometry":{"type":"Point","coordinates":[75.19585,16.0113525]}},{"type":"Feature","properties":{"state":"Karnataka","district":1,"district_n":"BELGAUM","pc":2,"pc_name":"Belgaum","ac":18,"ac_name":"Ramdurg","booth":76,"booth_name":"Govt Higher Primary Kannada School"},"geometry":{"type":"Point","coordinates":[75.2590561,16.0743484]}},{"type":"Feature","properties":{"state":"Karnataka","district":1,"district_n":"BELGAUM","pc":2,"pc_name":"Belgaum","ac":18,"ac_name":"Ramdurg","booth":103,"booth_name":"Govt Higher Primary Kannada School Middle Wing"},"geometry":{"type":"Point","coordinates":[75.249054,15.9630594]}},{"type":"Feature","properties":{"state":"Karnataka","district":1,"district_n":"BELGAUM","pc":2,"pc_name":"Belgaum","ac":18,"ac_name":"Ramdurg","booth":4,"booth_name":"Gram Panchayat Office"},"geometry":{"type":"Point","coordinates":[75.12426,16.148859]}},{"type":"Feature","properties":{"state":"Karnataka","district":1,"district_n":"BELGAUM","pc":2,"pc_name":"Belgaum","ac":18,"ac_name":"Ramdurg","booth":11,"booth_name":"Govt Higher Primary Kannada School School West Side"},"geometry":{"type":"Point","coordinates":[75.26579,16.1645947]}},{"type":"Feature","properties":{"state":"Karnataka","district":1,"district_n":"BELGAUM","pc":2,"pc_name":"Belgaum","ac":18,"ac_name":"Ramdurg","booth":18,"booth_name":"Govt Higher Primary Kannada School Left Side"},"geometry":{"type":"Point","coordinates":[75.10618,16.1277637]}},{"type":"Feature","properties":{"state":"Karnataka","district":1,"district_n":"BELGAUM","pc":2,"pc_name":"Belgaum","ac":18,"ac_name":"Ramdurg","booth":54,"booth_name":"Govt Lower Primary Kannada School"},"geometry":{"type":"Point","coordinates":[75.25911,16.074316]}},{"type":"Feature","properties":{"state":"Karnataka","district":1,"district_n":"BELGAUM","pc":2,"pc_name":"Belgaum","ac":18,"ac_name":"Ramdurg","booth":61,"booth_name":"Govt Model Higher Primary Kannada School North Side"},"geometry":{"type":"Point","coordinates":[75.13706,15.985671]}},{"type":"Feature","properties":{"state":"Karnataka","district":1,"district_n":"BELGAUM","pc":2,"pc_name":"Belgaum","ac":18,"ac_name":"Ramdurg","booth":68,"booth_name":"Govt Higher Primary Kannada School Right Side"},"geometry":{"type":"Point","coordinates":[75.19572,16.01136]}},{"type":"Feature","properties":{"state":"Karnataka","district":1,"district_n":"BELGAUM","pc":2,"pc_name":"Belgaum","ac":18,"ac_name":"Ramdurg","booth":104,"booth_name":"Govt Higher Primary Kannada School"},"geometry":{"type":"Point","coordinates":[75.23466,15.9815941]}},{"type":"Feature","properties":{"state":"Karnataka","district":1,"district_n":"BELGAUM","pc":2,"pc_name":"Belgaum","ac":18,"ac_name":"Ramdurg","booth":1,"booth_name":"Govt Model Higher Primary Kannada School West Side"},"geometry":{"type":"Point","coordinates":[75.12482,16.1482716]}},{"type":"Feature","properties":{"state":"Karnataka","district":1,"district_n":"BELGAUM","pc":2,"pc_name":"Belgaum","ac":18,"ac_name":"Ramdurg","booth":35,"booth_name":"Govt Lower Primary Kannada School"},"geometry":{"type":"Point","coordinates":[75.28337,16.04678]}},{"type":"Feature","properties":{"state":"Karnataka","district":1,"district_n":"BELGAUM","pc":2,"pc_name":"Belgaum","ac":18,"ac_name":"Ramdurg","booth":37,"booth_name":"Govt Lower Primary Kannada School"},"geometry":{"type":"Point","coordinates":[75.32766,16.0562973]}},{"type":"Feature","properties":{"state":"Karnataka","district":1,"district_n":"BELGAUM","pc":2,"pc_name":"Belgaum","ac":18,"ac_name":"Ramdurg","booth":42,"booth_name":"Govt Higher Primary Kannada School Right Side"},"geometry":{"type":"Point","coordinates":[75.42435,16.0655365]}},{"type":"Feature","properties":{"state":"Karnataka","district":1,"district_n":"BELGAUM","pc":2,"pc_name":"Belgaum","ac":18,"ac_name":"Ramdurg","booth":44,"booth_name":"Govt Lower Primary Kannada School"},"geometry":{"type":"Point","coordinates":[75.3796,16.0484142]}},{"type":"Feature","properties":{"state":"Karnataka","district":1,"district_n":"BELGAUM","pc":2,"pc_name":"Belgaum","ac":18,"ac_name":"Ramdurg","booth":71,"booth_name":"Govt Higher Primary Kannada School School West Side"},"geometry":{"type":"Point","coordinates":[75.22618,16.00675]}},{"type":"Feature","properties":{"state":"Karnataka","district":1,"district_n":"BELGAUM","pc":2,"pc_name":"Belgaum","ac":18,"ac_name":"Ramdurg","booth":78,"booth_name":"Govt Lower Primary Kannada School"},"geometry":{"type":"Point","coordinates":[75.25907,16.0743351]}},{"type":"Feature","properties":{"state":"Karnataka","district":1,"district_n":"BELGAUM","pc":2,"pc_name":"Belgaum","ac":18,"ac_name":"Ramdurg","booth":117,"booth_name":"Govt Govt Higher Primary Kannada School Right Side"},"geometry":{"type":"Point","coordinates":[75.15895,15.9394646]}},{"type":"Feature","properties":{"state":"Karnataka","district":1,"district_n":"BELGAUM","pc":2,"pc_name":"Belgaum","ac":18,"ac_name":"Ramdurg","booth":121,"booth_name":"Urdu Boys School East Side Left Side"},"geometry":{"type":"Point","coordinates":[75.29138,16.9495239]}},{"type":"Feature","properties":{"state":"Karnataka","district":1,"district_n":"BELGAUM","pc":2,"pc_name":"Belgaum","ac":18,"ac_name":"Ramdurg","booth":126,"booth_name":"Library Building"},"geometry":{"type":"Point","coordinates":[75.29421,15.9455919]}},{"type":"Feature","properties":{"state":"Karnataka","district":1,"district_n":"BELGAUM","pc":2,"pc_name":"Belgaum","ac":18,"ac_name":"Ramdurg","booth":151,"booth_name":"A P M C Miting Hal"},"geometry":{"type":"Point","coordinates":[75.30126,15.9485168]}},{"type":"Feature","properties":{"state":"Karnataka","district":1,"district_n":"BELGAUM","pc":2,"pc_name":"Belgaum","ac":18,"ac_name":"Ramdurg","booth":160,"booth_name":"Govt Higher Primary Kannada School"},"geometry":{"type":"Point","coordinates":[75.35923,15.9306555]}},{"type":"Feature","properties":{"state":"Karnataka","district":1,"district_n":"BELGAUM","pc":2,"pc_name":"Belgaum","ac":18,"ac_name":"Ramdurg","booth":185,"booth_name":"Govt Lower Primary Kannada School"},"geometry":{"type":"Point","coordinates":[75.40616,15.9119186]}},{"type":"Feature","properties":{"state":"Karnataka","district":1,"district_n":"BELGAUM","pc":2,"pc_name":"Belgaum","ac":18,"ac_name":"Ramdurg","booth":109,"booth_name":"Gram Panchayat Office"},"geometry":{"type":"Point","coordinates":[75.11481,15.9689779]}},{"type":"Feature","properties":{"state":"Karnataka","district":1,"district_n":"BELGAUM","pc":2,"pc_name":"Belgaum","ac":18,"ac_name":"Ramdurg","booth":134,"booth_name":"Govt Govt General Pre Matric Boys Boys Hostel"},"geometry":{"type":"Point","coordinates":[75.29232,15.948597]}},{"type":"Feature","properties":{"state":"Karnataka","district":1,"district_n":"BELGAUM","pc":2,"pc_name":"Belgaum","ac":18,"ac_name":"Ramdurg","booth":152,"booth_name":"Govt Govt Higher Primary Kannaada School"},"geometry":{"type":"Point","coordinates":[75.3035355,15.9398708]}},{"type":"Feature","properties":{"state":"Karnataka","district":1,"district_n":"BELGAUM","pc":2,"pc_name":"Belgaum","ac":18,"ac_name":"Ramdurg","booth":159,"booth_name":"Govt Higher primary kannada school"},"geometry":{"type":"Point","coordinates":[75.37324,15.9146318]}},{"type":"Feature","properties":{"state":"Karnataka","district":1,"district_n":"BELGAUM","pc":2,"pc_name":"Belgaum","ac":18,"ac_name":"Ramdurg","booth":177,"booth_name":"Govt Govt Primary Kannada Girls School"},"geometry":{"type":"Point","coordinates":[75.399086,15.8900986]}},{"type":"Feature","properties":{"state":"Karnataka","district":1,"district_n":"BELGAUM","pc":2,"pc_name":"Belgaum","ac":18,"ac_name":"Ramdurg","booth":133,"booth_name":"Basaveshwar Veershaiv Vidyavardhak Sangh Balakiyar Nutan High School Left Side"},"geometry":{"type":"Point","coordinates":[75.29449,15.9479237]}},{"type":"Feature","properties":{"state":"Karnataka","district":1,"district_n":"BELGAUM","pc":2,"pc_name":"Belgaum","ac":18,"ac_name":"Ramdurg","booth":148,"booth_name":"Govt Higher Primary Kannada School No 3 Market Yard"},"geometry":{"type":"Point","coordinates":[75.30065,15.9460392]}},{"type":"Feature","properties":{"state":"Karnataka","district":1,"district_n":"BELGAUM","pc":2,"pc_name":"Belgaum","ac":18,"ac_name":"Ramdurg","booth":167,"booth_name":"Govt Govt Lower Primary Primary Kannada School"},"geometry":{"type":"Point","coordinates":[75.2914658,15.9496012]}},{"type":"Feature","properties":{"state":"Karnataka","district":1,"district_n":"BELGAUM","pc":2,"pc_name":"Belgaum","ac":18,"ac_name":"Ramdurg","booth":182,"booth_name":"Govt Govt Higher Primary Kannada Boys School School Right Side"},"geometry":{"type":"Point","coordinates":[75.39438,15.8923769]}},{"type":"Feature","properties":{"state":"Karnataka","district":1,"district_n":"BELGAUM","pc":2,"pc_name":"Belgaum","ac":18,"ac_name":"Ramdurg","booth":197,"booth_name":"Govt Lower Primary Kannada School"},"geometry":{"type":"Point","coordinates":[75.3049,15.8691959]}},{"type":"Feature","properties":{"state":"Karnataka","district":1,"district_n":"BELGAUM","pc":2,"pc_name":"Belgaum","ac":18,"ac_name":"Ramdurg","booth":110,"booth_name":"Govt Higher Primary Kannada School"},"geometry":{"type":"Point","coordinates":[75.11215,15.9377489]}},{"type":"Feature","properties":{"state":"Karnataka","district":1,"district_n":"BELGAUM","pc":2,"pc_name":"Belgaum","ac":18,"ac_name":"Ramdurg","booth":112,"booth_name":"Govt Govt Higher Primary Kannada School Right Side"},"geometry":{"type":"Point","coordinates":[75.1192,15.9238319]}},{"type":"Feature","properties":{"state":"Karnataka","district":1,"district_n":"BELGAUM","pc":2,"pc_name":"Belgaum","ac":18,"ac_name":"Ramdurg","booth":146,"booth_name":"Anganwadi School Bhagyanagar"},"geometry":{"type":"Point","coordinates":[75.3001862,15.9545965]}},{"type":"Feature","properties":{"state":"Karnataka","district":1,"district_n":"BELGAUM","pc":2,"pc_name":"Belgaum","ac":18,"ac_name":"Ramdurg","booth":169,"booth_name":"Govt Govt Higher Primary Primary Kannada School School East Side"},"geometry":{"type":"Point","coordinates":[75.30394,15.8767729]}},{"type":"Feature","properties":{"state":"Karnataka","district":1,"district_n":"BELGAUM","pc":2,"pc_name":"Belgaum","ac":18,"ac_name":"Ramdurg","booth":176,"booth_name":"Cluster Resource centre"},"geometry":{"type":"Point","coordinates":[75.3991,15.8901672]}},{"type":"Feature","properties":{"state":"Karnataka","district":1,"district_n":"BELGAUM","pc":2,"pc_name":"Belgaum","ac":18,"ac_name":"Ramdurg","booth":124,"booth_name":"Govt Govt Lower Primary Kannada School"},"geometry":{"type":"Point","coordinates":[75.2867,15.9447289]}},{"type":"Feature","properties":{"state":"Karnataka","district":1,"district_n":"BELGAUM","pc":2,"pc_name":"Belgaum","ac":18,"ac_name":"Ramdurg","booth":141,"booth_name":"Vidyachetan Kannada Boys School Right Side"},"geometry":{"type":"Point","coordinates":[75.29993,15.9454994]}},{"type":"Feature","properties":{"state":"Karnataka","district":1,"district_n":"BELGAUM","pc":2,"pc_name":"Belgaum","ac":18,"ac_name":"Ramdurg","booth":174,"booth_name":"Govt Govt Lower Primary Primary Kannada School New Building"},"geometry":{"type":"Point","coordinates":[75.31174,15.8774843]}},{"type":"Feature","properties":{"state":"Karnataka","district":1,"district_n":"BELGAUM","pc":2,"pc_name":"Belgaum","ac":18,"ac_name":"Ramdurg","booth":191,"booth_name":"Govt Higher Primary Kannada School Right Side New Building"},"geometry":{"type":"Point","coordinates":[75.41293,15.8905439]}},{"type":"Feature","properties":{"state":"Karnataka","district":1,"district_n":"BELGAUM","pc":2,"pc_name":"Belgaum","ac":18,"ac_name":"Ramdurg","booth":192,"booth_name":"Govt Higher Primary Kannada School"},"geometry":{"type":"Point","coordinates":[75.40207,15.87982]}},{"type":"Feature","properties":{"state":"Karnataka","district":1,"district_n":"BELGAUM","pc":2,"pc_name":"Belgaum","ac":18,"ac_name":"Ramdurg","booth":105,"booth_name":"Gram Panchayat Office Old Building"},"geometry":{"type":"Point","coordinates":[75.2341461,15.9808121]}},{"type":"Feature","properties":{"state":"Karnataka","district":1,"district_n":"BELGAUM","pc":2,"pc_name":"Belgaum","ac":18,"ac_name":"Ramdurg","booth":138,"booth_name":"Govt Govt Lower Primary Kannada School North Wing Yanam Peth"},"geometry":{"type":"Point","coordinates":[75.2934341,15.9435291]}},{"type":"Feature","properties":{"state":"Karnataka","district":1,"district_n":"BELGAUM","pc":2,"pc_name":"Belgaum","ac":18,"ac_name":"Ramdurg","booth":142,"booth_name":"Vidyachetan Kannada Boys School Right Side New Building"},"geometry":{"type":"Point","coordinates":[75.29918,15.9449167]}},{"type":"Feature","properties":{"state":"Karnataka","district":1,"district_n":"BELGAUM","pc":2,"pc_name":"Belgaum","ac":18,"ac_name":"Ramdurg","booth":155,"booth_name":"Govt Govt Lower Primary Kannada School"},"geometry":{"type":"Point","coordinates":[75.41417,15.9391613]}},{"type":"Feature","properties":{"state":"Karnataka","district":1,"district_n":"BELGAUM","pc":2,"pc_name":"Belgaum","ac":18,"ac_name":"Ramdurg","booth":156,"booth_name":"Govt Govt Higher Primary Kannada School"},"geometry":{"type":"Point","coordinates":[75.42027,15.9595909]}},{"type":"Feature","properties":{"state":"Karnataka","district":1,"district_n":"BELGAUM","pc":2,"pc_name":"Belgaum","ac":18,"ac_name":"Ramdurg","booth":173,"booth_name":"Govt Govt Lower Primary Primary Kannada School School Right Side"},"geometry":{"type":"Point","coordinates":[75.36206,15.8745146]}},{"type":"Feature","properties":{"state":"Karnataka","district":1,"district_n":"BELGAUM","pc":2,"pc_name":"Belgaum","ac":18,"ac_name":"Ramdurg","booth":111,"booth_name":"Govt Govt Lower Primary Kannada School"},"geometry":{"type":"Point","coordinates":[75.13134,15.95125]}},{"type":"Feature","properties":{"state":"Karnataka","district":1,"district_n":"BELGAUM","pc":2,"pc_name":"Belgaum","ac":18,"ac_name":"Ramdurg","booth":118,"booth_name":"Govt Govt Higher Primary Kannada School"},"geometry":{"type":"Point","coordinates":[75.22178,15.944828]}},{"type":"Feature","properties":{"state":"Karnataka","district":1,"district_n":"BELGAUM","pc":2,"pc_name":"Belgaum","ac":18,"ac_name":"Ramdurg","booth":154,"booth_name":"Govt Govt Higher Primary Kannada School"},"geometry":{"type":"Point","coordinates":[75.3761139,15.9345875]}},{"type":"Feature","properties":{"state":"Karnataka","district":1,"district_n":"BELGAUM","pc":2,"pc_name":"Belgaum","ac":18,"ac_name":"Ramdurg","booth":161,"booth_name":"Govt Higher Primary Kannada School"},"geometry":{"type":"Point","coordinates":[75.32947,15.9411955]}},{"type":"Feature","properties":{"state":"Karnataka","district":1,"district_n":"BELGAUM","pc":2,"pc_name":"Belgaum","ac":18,"ac_name":"Ramdurg","booth":168,"booth_name":"Govt Govt Higher Primary Primary Kannada School"},"geometry":{"type":"Point","coordinates":[75.29145,15.9496155]}},{"type":"Feature","properties":{"state":"Karnataka","district":1,"district_n":"BELGAUM","pc":2,"pc_name":"Belgaum","ac":18,"ac_name":"Ramdurg","booth":194,"booth_name":"Govt Higher Primary Kannada School western side of New Building"},"geometry":{"type":"Point","coordinates":[75.35358,15.8468752]}},{"type":"Feature","properties":{"state":"Karnataka","district":1,"district_n":"BELGAUM","pc":2,"pc_name":"Belgaum","ac":18,"ac_name":"Ramdurg","booth":101,"booth_name":"Govt Higher Primary Kannada School East Side"},"geometry":{"type":"Point","coordinates":[75.26506,15.9686537]}},{"type":"Feature","properties":{"state":"Karnataka","district":1,"district_n":"BELGAUM","pc":2,"pc_name":"Belgaum","ac":18,"ac_name":"Ramdurg","booth":135,"booth_name":"Town Muncipal Council Office East Side"},"geometry":{"type":"Point","coordinates":[75.295,15.9436293]}},{"type":"Feature","properties":{"state":"Karnataka","district":1,"district_n":"BELGAUM","pc":2,"pc_name":"Belgaum","ac":18,"ac_name":"Ramdurg","booth":137,"booth_name":"Govt Govt Lower Primary Kannada School South Wing Yanam Peth"},"geometry":{"type":"Point","coordinates":[75.29334,15.94343]}},{"type":"Feature","properties":{"state":"Karnataka","district":1,"district_n":"BELGAUM","pc":2,"pc_name":"Belgaum","ac":18,"ac_name":"Ramdurg","booth":144,"booth_name":"Govt Lower Primary Kannada School School Left Side M L B C"},"geometry":{"type":"Point","coordinates":[75.294075,15.9536715]}},{"type":"Feature","properties":{"state":"Karnataka","district":1,"district_n":"BELGAUM","pc":2,"pc_name":"Belgaum","ac":18,"ac_name":"Ramdurg","booth":171,"booth_name":"Govt Govt Lower Primary Primary Kannada School School Left Side"},"geometry":{"type":"Point","coordinates":[75.32589,15.878665]}},{"type":"Feature","properties":{"state":"Karnataka","district":1,"district_n":"BELGAUM","pc":2,"pc_name":"Belgaum","ac":18,"ac_name":"Ramdurg","booth":178,"booth_name":"Govt Lower Primary Kannada Kannada School"},"geometry":{"type":"Point","coordinates":[75.39488,15.8834305]}},{"type":"Feature","properties":{"state":"Karnataka","district":1,"district_n":"BELGAUM","pc":2,"pc_name":"Belgaum","ac":18,"ac_name":"Ramdurg","booth":201,"booth_name":"Govt Lower Primary Kannada School"},"geometry":{"type":"Point","coordinates":[75.44163,15.794755]}},{"type":"Feature","properties":{"state":"Karnataka","district":1,"district_n":"BELGAUM","pc":2,"pc_name":"Belgaum","ac":18,"ac_name":"Ramdurg","booth":25,"booth_name":"Govt Higher Primary Kannada School"},"geometry":{"type":"Point","coordinates":[75.24046,16.1092777]}},{"type":"Feature","properties":{"state":"Karnataka","district":1,"district_n":"BELGAUM","pc":2,"pc_name":"Belgaum","ac":18,"ac_name":"Ramdurg","booth":39,"booth_name":"Govt Girls Primary Higher Primary Kannada School Right Side"},"geometry":{"type":"Point","coordinates":[75.37019,16.0773449]}},{"type":"Feature","properties":{"state":"Karnataka","district":1,"district_n":"BELGAUM","pc":2,"pc_name":"Belgaum","ac":18,"ac_name":"Ramdurg","booth":40,"booth_name":"Govt Higher Primary Kannada School Left Side"},"geometry":{"type":"Point","coordinates":[75.37018,16.07727]}},{"type":"Feature","properties":{"state":"Karnataka","district":1,"district_n":"BELGAUM","pc":2,"pc_name":"Belgaum","ac":18,"ac_name":"Ramdurg","booth":75,"booth_name":"Govt Higher Primary Kannada School right side"},"geometry":{"type":"Point","coordinates":[75.26863,16.0178986]}},{"type":"Feature","properties":{"state":"Karnataka","district":1,"district_n":"BELGAUM","pc":2,"pc_name":"Belgaum","ac":18,"ac_name":"Ramdurg","booth":89,"booth_name":"Govt Urdu Primary Kannada School"},"geometry":{"type":"Point","coordinates":[75.3838,15.9711666]}},{"type":"Feature","properties":{"state":"Karnataka","district":1,"district_n":"BELGAUM","pc":2,"pc_name":"Belgaum","ac":18,"ac_name":"Ramdurg","booth":90,"booth_name":"Govt Lower Primary Kannada School"},"geometry":{"type":"Point","coordinates":[75.38734,15.9825048]}},{"type":"Feature","properties":{"state":"Karnataka","district":1,"district_n":"BELGAUM","pc":2,"pc_name":"Belgaum","ac":18,"ac_name":"Ramdurg","booth":125,"booth_name":"Govt Govt Higher Primary Kannada School No 2"},"geometry":{"type":"Point","coordinates":[75.29282,15.9466934]}},{"type":"Feature","properties":{"state":"Karnataka","district":1,"district_n":"BELGAUM","pc":2,"pc_name":"Belgaum","ac":18,"ac_name":"Ramdurg","booth":139,"booth_name":"Homegard Office Chambarget"},"geometry":{"type":"Point","coordinates":[75.29772,15.9452753]}},{"type":"Feature","properties":{"state":"Karnataka","district":1,"district_n":"BELGAUM","pc":2,"pc_name":"Belgaum","ac":18,"ac_name":"Ramdurg","booth":140,"booth_name":"Old Govt Police Gate Near Sankammanagudi"},"geometry":{"type":"Point","coordinates":[75.29928,15.9424143]}},{"type":"Feature","properties":{"state":"Karnataka","district":1,"district_n":"BELGAUM","pc":2,"pc_name":"Belgaum","ac":18,"ac_name":"Ramdurg","booth":175,"booth_name":"Govt Govt Primary Primary Kannada Kannada Boys School"},"geometry":{"type":"Point","coordinates":[75.3991547,15.8901958]}},{"type":"Feature","properties":{"state":"Karnataka","district":1,"district_n":"BELGAUM","pc":2,"pc_name":"Belgaum","ac":18,"ac_name":"Ramdurg","booth":189,"booth_name":"Govt Higher Primary Kannada School West Side"},"geometry":{"type":"Point","coordinates":[75.43581,15.887784]}},{"type":"Feature","properties":{"state":"Karnataka","district":1,"district_n":"BELGAUM","pc":2,"pc_name":"Belgaum","ac":18,"ac_name":"Ramdurg","booth":190,"booth_name":"Gram Panchayat Office"},"geometry":{"type":"Point","coordinates":[75.41247,15.889431]}},{"type":"Feature","properties":{"state":"Karnataka","district":1,"district_n":"BELGAUM","pc":2,"pc_name":"Belgaum","ac":18,"ac_name":"Ramdurg","booth":14,"booth_name":"Govt Higher Primary Kannada School Right Side"},"geometry":{"type":"Point","coordinates":[75.17241,16.1393814]}},{"type":"Feature","properties":{"state":"Karnataka","district":1,"district_n":"BELGAUM","pc":2,"pc_name":"Belgaum","ac":18,"ac_name":"Ramdurg","booth":16,"booth_name":"Govt Higher Primary Kannada School Left Side"},"geometry":{"type":"Point","coordinates":[75.1727,16.139286]}},{"type":"Feature","properties":{"state":"Karnataka","district":1,"district_n":"BELGAUM","pc":2,"pc_name":"Belgaum","ac":18,"ac_name":"Ramdurg","booth":50,"booth_name":"Govt Composite High School"},"geometry":{"type":"Point","coordinates":[75.23183,16.068428]}},{"type":"Feature","properties":{"state":"Karnataka","district":1,"district_n":"BELGAUM","pc":2,"pc_name":"Belgaum","ac":18,"ac_name":"Ramdurg","booth":63,"booth_name":"Nad Office Building"},"geometry":{"type":"Point","coordinates":[75.13767,15.9858093]}},{"type":"Feature","properties":{"state":"Karnataka","district":1,"district_n":"BELGAUM","pc":2,"pc_name":"Belgaum","ac":18,"ac_name":"Ramdurg","booth":65,"booth_name":"Govt Girls Higher Primary School Back Side New Building Midal Side"},"geometry":{"type":"Point","coordinates":[75.14067,15.9883394]}},{"type":"Feature","properties":{"state":"Karnataka","district":1,"district_n":"BELGAUM","pc":2,"pc_name":"Belgaum","ac":18,"ac_name":"Ramdurg","booth":80,"booth_name":"Govt Higher Primary Kannada School"},"geometry":{"type":"Point","coordinates":[75.37431,16.0202579]}},{"type":"Feature","properties":{"state":"Karnataka","district":1,"district_n":"BELGAUM","pc":2,"pc_name":"Belgaum","ac":18,"ac_name":"Ramdurg","booth":99,"booth_name":"Govt Higher Primary Kannada School West Side"},"geometry":{"type":"Point","coordinates":[75.28632,15.9601269]}},{"type":"Feature","properties":{"state":"Karnataka","district":1,"district_n":"BELGAUM","pc":2,"pc_name":"Belgaum","ac":18,"ac_name":"Ramdurg","booth":29,"booth_name":"Govt Higher Primary Kannada School School Right Side"},"geometry":{"type":"Point","coordinates":[75.30568,16.0954762]}},{"type":"Feature","properties":{"state":"Karnataka","district":1,"district_n":"BELGAUM","pc":2,"pc_name":"Belgaum","ac":18,"ac_name":"Ramdurg","booth":36,"booth_name":"Govt Govt Higher Primary Kannada School"},"geometry":{"type":"Point","coordinates":[75.33695,16.0884876]}},{"type":"Feature","properties":{"state":"Karnataka","district":1,"district_n":"BELGAUM","pc":2,"pc_name":"Belgaum","ac":18,"ac_name":"Ramdurg","booth":43,"booth_name":"Govt Higher Primary Kannada School"},"geometry":{"type":"Point","coordinates":[75.39111,16.0564823]}},{"type":"Feature","properties":{"state":"Karnataka","district":1,"district_n":"BELGAUM","pc":2,"pc_name":"Belgaum","ac":18,"ac_name":"Ramdurg","booth":79,"booth_name":"Govt Lower Primary Kannada School"},"geometry":{"type":"Point","coordinates":[75.27645,16.0196857]}},{"type":"Feature","properties":{"state":"Karnataka","district":1,"district_n":"BELGAUM","pc":2,"pc_name":"Belgaum","ac":18,"ac_name":"Ramdurg","booth":86,"booth_name":"Govt Higher Primary Kannada School"},"geometry":{"type":"Point","coordinates":[75.40456,15.9580679]}},{"type":"Feature","properties":{"state":"Karnataka","district":1,"district_n":"BELGAUM","pc":2,"pc_name":"Belgaum","ac":18,"ac_name":"Ramdurg","booth":93,"booth_name":"Govt Higher Primary Kannada School School Right Side"},"geometry":{"type":"Point","coordinates":[75.32863,15.954854]}},{"type":"Feature","properties":{"state":"Karnataka","district":1,"district_n":"BELGAUM","pc":2,"pc_name":"Belgaum","ac":18,"ac_name":"Ramdurg","booth":129,"booth_name":"Basaveshwar Veershaiv Vidyavardhak Sangh Balakiyar Nutan High School Right Side"},"geometry":{"type":"Point","coordinates":[75.29468,15.9480658]}},{"type":"Feature","properties":{"state":"Karnataka","district":1,"district_n":"BELGAUM","pc":2,"pc_name":"Belgaum","ac":18,"ac_name":"Ramdurg","booth":7,"booth_name":"Govt Higher Primary Kannada School East wing"},"geometry":{"type":"Point","coordinates":[75.23674,16.1694355]}},{"type":"Feature","properties":{"state":"Karnataka","district":1,"district_n":"BELGAUM","pc":2,"pc_name":"Belgaum","ac":18,"ac_name":"Ramdurg","booth":8,"booth_name":"Govt Higher Primary Kannada School west Side"},"geometry":{"type":"Point","coordinates":[75.2364,16.1693783]}},{"type":"Feature","properties":{"state":"Karnataka","district":1,"district_n":"BELGAUM","pc":2,"pc_name":"Belgaum","ac":18,"ac_name":"Ramdurg","booth":21,"booth_name":"Govt Higher Primary Kannada School School Right Side"},"geometry":{"type":"Point","coordinates":[75.10746,16.1173115]}},{"type":"Feature","properties":{"state":"Karnataka","district":1,"district_n":"BELGAUM","pc":2,"pc_name":"Belgaum","ac":18,"ac_name":"Ramdurg","booth":22,"booth_name":"Govt Higher Primary Kannada School left side"},"geometry":{"type":"Point","coordinates":[75.10783,16.11733]}},{"type":"Feature","properties":{"state":"Karnataka","district":1,"district_n":"BELGAUM","pc":2,"pc_name":"Belgaum","ac":18,"ac_name":"Ramdurg","booth":57,"booth_name":"Govt Higher Primary Kannada School"},"geometry":{"type":"Point","coordinates":[75.12848,16.0482368]}},{"type":"Feature","properties":{"state":"Karnataka","district":1,"district_n":"BELGAUM","pc":2,"pc_name":"Belgaum","ac":18,"ac_name":"Ramdurg","booth":58,"booth_name":"Govt Higher Primary Kannada School"},"geometry":{"type":"Point","coordinates":[75.11699,16.0386028]}},{"type":"Feature","properties":{"state":"Karnataka","district":1,"district_n":"BELGAUM","pc":2,"pc_name":"Belgaum","ac":18,"ac_name":"Ramdurg","booth":72,"booth_name":"Govt Higher Primary Kannada School School East Side"},"geometry":{"type":"Point","coordinates":[75.22624,16.0066719]}},{"type":"Feature","properties":{"state":"Karnataka","district":1,"district_n":"BELGAUM","pc":2,"pc_name":"Belgaum","ac":18,"ac_name":"Ramdurg","booth":114,"booth_name":"Govt Govt Higher Primary Kannada School Left Side"},"geometry":{"type":"Point","coordinates":[75.1189346,15.9239693]}},{"type":"Feature","properties":{"state":"Karnataka","district":1,"district_n":"BELGAUM","pc":2,"pc_name":"Belgaum","ac":18,"ac_name":"Ramdurg","booth":116,"booth_name":"Govt Govt Higher Primary Kannada School Left Side"},"geometry":{"type":"Point","coordinates":[75.15885,15.9394455]}},{"type":"Feature","properties":{"state":"Karnataka","district":1,"district_n":"BELGAUM","pc":2,"pc_name":"Belgaum","ac":18,"ac_name":"Ramdurg","booth":150,"booth_name":"Govt Govt Lower Primary School Ambedakar Nagar"},"geometry":{"type":"Point","coordinates":[75.30387,15.9470654]}},{"type":"Feature","properties":{"state":"Karnataka","district":1,"district_n":"BELGAUM","pc":2,"pc_name":"Belgaum","ac":18,"ac_name":"Ramdurg","booth":163,"booth_name":"Govt Lower Primary Kannada School"},"geometry":{"type":"Point","coordinates":[75.31682,15.9349346]}},{"type":"Feature","properties":{"state":"Karnataka","district":1,"district_n":"BELGAUM","pc":2,"pc_name":"Belgaum","ac":18,"ac_name":"Ramdurg","booth":165,"booth_name":"Govt Higher Primary Kannada School"},"geometry":{"type":"Point","coordinates":[75.20356,15.9101915]}},{"type":"Feature","properties":{"state":"Karnataka","district":1,"district_n":"BELGAUM","pc":2,"pc_name":"Belgaum","ac":18,"ac_name":"Ramdurg","booth":180,"booth_name":"Shri Phalahareshwar High School Left Side"},"geometry":{"type":"Point","coordinates":[75.3970642,15.8877392]}},{"type":"Feature","properties":{"state":"Karnataka","district":1,"district_n":"BELGAUM","pc":2,"pc_name":"Belgaum","ac":18,"ac_name":"Ramdurg","booth":199,"booth_name":"Govt Higher Primary Kannada School Western Side"},"geometry":{"type":"Point","coordinates":[75.4555359,15.8578539]}},{"type":"Feature","properties":{"state":"Karnataka","district":1,"district_n":"BELGAUM","pc":2,"pc_name":"Belgaum","ac":18,"ac_name":"Ramdurg","booth":136,"booth_name":"Town Muncipal Council Office West Side"},"geometry":{"type":"Point","coordinates":[75.2949142,15.9439678]}},{"type":"Feature","properties":{"state":"Karnataka","district":1,"district_n":"BELGAUM","pc":2,"pc_name":"Belgaum","ac":18,"ac_name":"Ramdurg","booth":143,"booth_name":"Govt Lower Primary Kannada School Right Side M L B C"},"geometry":{"type":"Point","coordinates":[75.29397,15.953701]}},{"type":"Feature","properties":{"state":"Karnataka","district":1,"district_n":"BELGAUM","pc":2,"pc_name":"Belgaum","ac":18,"ac_name":"Ramdurg","booth":179,"booth_name":"Govt Higher Primary Kannada Kannada School School Left Side"},"geometry":{"type":"Point","coordinates":[75.39711,15.8876629]}},{"type":"Feature","properties":{"state":"Karnataka","district":1,"district_n":"BELGAUM","pc":2,"pc_name":"Belgaum","ac":18,"ac_name":"Ramdurg","booth":186,"booth_name":"Govt Higher Primary Kannada School"},"geometry":{"type":"Point","coordinates":[75.42353,15.8960371]}},{"type":"Feature","properties":{"state":"Karnataka","district":1,"district_n":"BELGAUM","pc":2,"pc_name":"Belgaum","ac":18,"ac_name":"Ramdurg","booth":193,"booth_name":"Govt Higher Primary Kannada School New Building"},"geometry":{"type":"Point","coordinates":[75.35335,15.8469744]}},{"type":"Feature","properties":{"state":"Karnataka","district":1,"district_n":"BELGAUM","pc":2,"pc_name":"Belgaum","ac":18,"ac_name":"Ramdurg","booth":107,"booth_name":"Govt Higher Primary Kannada School Right Side"},"geometry":{"type":"Point","coordinates":[75.115036,15.9690552]}},{"type":"Feature","properties":{"state":"Karnataka","district":1,"district_n":"BELGAUM","pc":2,"pc_name":"Belgaum","ac":18,"ac_name":"Ramdurg","booth":108,"booth_name":"Govt Higher Primary Kannada School Left Side"},"geometry":{"type":"Point","coordinates":[75.11513,15.9691153]}},{"type":"Feature","properties":{"state":"Karnataka","district":1,"district_n":"BELGAUM","pc":2,"pc_name":"Belgaum","ac":18,"ac_name":"Ramdurg","booth":122,"booth_name":"Govt Lower Primary Kannada School"},"geometry":{"type":"Point","coordinates":[75.29141,15.9495325]}},{"type":"Feature","properties":{"state":"Karnataka","district":1,"district_n":"BELGAUM","pc":2,"pc_name":"Belgaum","ac":18,"ac_name":"Ramdurg","booth":157,"booth_name":"Govt Govt Lower Primary Kannada School"},"geometry":{"type":"Point","coordinates":[75.3893051,15.9228554]}},{"type":"Feature","properties":{"state":"Karnataka","district":1,"district_n":"BELGAUM","pc":2,"pc_name":"Belgaum","ac":18,"ac_name":"Ramdurg","booth":158,"booth_name":"Gram Panchayat Office"},"geometry":{"type":"Point","coordinates":[75.37278,15.9144783]}},{"type":"Feature","properties":{"state":"Karnataka","district":1,"district_n":"BELGAUM","pc":2,"pc_name":"Belgaum","ac":18,"ac_name":"Ramdurg","booth":172,"booth_name":"Govt Lower Primary Kannada School right Side"},"geometry":{"type":"Point","coordinates":[75.32589,15.8786774]}}]}