{"type":"FeatureCollection","features":[{"type":"Feature","properties":{"state":"Karnataka","district":25,"district_n":"HASSAN","pc":16,"pc_name":"Hassan","ac":198,"ac_name":"Arkalgud","booth":235,"booth_name":"Govt Higher Primary School, Ganguru (right Wing)"},"geometry":{"type":"Point","coordinates":[76.08239,12.5800667]}},{"type":"Feature","properties":{"state":"Karnataka","district":25,"district_n":"HASSAN","pc":16,"pc_name":"Hassan","ac":198,"ac_name":"Arkalgud","booth":238,"booth_name":"Govt Higher Primary School, Vaddarahalli"},"geometry":{"type":"Point","coordinates":[76.1007462,12.5887489]}},{"type":"Feature","properties":{"state":"Karnataka","district":25,"district_n":"HASSAN","pc":16,"pc_name":"Hassan","ac":198,"ac_name":"Arkalgud","booth":241,"booth_name":"Govt Govt Higher Primary School, Rudrapatna (left Side)"},"geometry":{"type":"Point","coordinates":[76.1189041,12.597146]}},{"type":"Feature","properties":{"state":"Karnataka","district":25,"district_n":"HASSAN","pc":16,"pc_name":"Hassan","ac":198,"ac_name":"Arkalgud","booth":244,"booth_name":"Govt Govt Higher Primary School, Kalenahalli (left Side)"},"geometry":{"type":"Point","coordinates":[76.16114,12.6079292]}},{"type":"Feature","properties":{"state":"Karnataka","district":25,"district_n":"HASSAN","pc":16,"pc_name":"Hassan","ac":198,"ac_name":"Arkalgud","booth":247,"booth_name":"Govt Govt Lower Primary School, Makaballi"},"geometry":{"type":"Point","coordinates":[76.2428,12.6351786]}},{"type":"Feature","properties":{"state":"Karnataka","district":25,"district_n":"HASSAN","pc":16,"pc_name":"Hassan","ac":198,"ac_name":"Arkalgud","booth":249,"booth_name":"Govt Govt Higher Primary School, Marahalli Marahalli (right Side)"},"geometry":{"type":"Point","coordinates":[76.31274,12.6283092]}},{"type":"Feature","properties":{"state":"Karnataka","district":25,"district_n":"HASSAN","pc":16,"pc_name":"Hassan","ac":198,"ac_name":"Arkalgud","booth":250,"booth_name":"Govt Govt Higher Primary School, Boodanur"},"geometry":{"type":"Point","coordinates":[76.18493,12.6008921]}},{"type":"Feature","properties":{"state":"Karnataka","district":25,"district_n":"HASSAN","pc":16,"pc_name":"Hassan","ac":198,"ac_name":"Arkalgud","booth":252,"booth_name":"Govt Govt Higher Primary School (boys), Keralapura"},"geometry":{"type":"Point","coordinates":[76.17548,12.5826111]}},{"type":"Feature","properties":{"state":"Karnataka","district":25,"district_n":"HASSAN","pc":16,"pc_name":"Hassan","ac":198,"ac_name":"Arkalgud","booth":253,"booth_name":"Govt Govt Higher Primary School (girls), Keralapura (right Side)"},"geometry":{"type":"Point","coordinates":[76.1761246,12.5816288]}},{"type":"Feature","properties":{"state":"Karnataka","district":25,"district_n":"HASSAN","pc":16,"pc_name":"Hassan","ac":198,"ac_name":"Arkalgud","booth":255,"booth_name":"Village Panchayath Office, Keralapura"},"geometry":{"type":"Point","coordinates":[76.1762543,12.58197]}},{"type":"Feature","properties":{"state":"Karnataka","district":25,"district_n":"HASSAN","pc":16,"pc_name":"Hassan","ac":198,"ac_name":"Arkalgud","booth":12,"booth_name":"Govt Higher Primary School Kanchenahalli"},"geometry":{"type":"Point","coordinates":[76.10768,12.7863045]}},{"type":"Feature","properties":{"state":"Karnataka","district":25,"district_n":"HASSAN","pc":16,"pc_name":"Hassan","ac":198,"ac_name":"Arkalgud","booth":15,"booth_name":"Govt Higher Primary School Anniganahalli"},"geometry":{"type":"Point","coordinates":[76.13309,12.8135138]}},{"type":"Feature","properties":{"state":"Karnataka","district":25,"district_n":"HASSAN","pc":16,"pc_name":"Hassan","ac":198,"ac_name":"Arkalgud","booth":23,"booth_name":"Govt Higher Primary School Kadavinabachahalli"},"geometry":{"type":"Point","coordinates":[76.333046,12.7657328]}},{"type":"Feature","properties":{"state":"Karnataka","district":25,"district_n":"HASSAN","pc":16,"pc_name":"Hassan","ac":198,"ac_name":"Arkalgud","booth":24,"booth_name":"Govt Higher Primary Devaramuddanahalli"},"geometry":{"type":"Point","coordinates":[76.3244553,12.7541828]}},{"type":"Feature","properties":{"state":"Karnataka","district":25,"district_n":"HASSAN","pc":16,"pc_name":"Hassan","ac":198,"ac_name":"Arkalgud","booth":29,"booth_name":"Govt Higher Primary School Hullangala"},"geometry":{"type":"Point","coordinates":[76.11816,12.7816792]}},{"type":"Feature","properties":{"state":"Karnataka","district":25,"district_n":"HASSAN","pc":16,"pc_name":"Hassan","ac":198,"ac_name":"Arkalgud","booth":37,"booth_name":"Govt Higher Primary School Kote Arakalagudu Arakalagudu Arakalagudu (janatha Colony)"},"geometry":{"type":"Point","coordinates":[76.05837,12.7651215]}},{"type":"Feature","properties":{"state":"Karnataka","district":25,"district_n":"HASSAN","pc":16,"pc_name":"Hassan","ac":198,"ac_name":"Arkalgud","booth":38,"booth_name":"Govt Govt Higher Primary School, Kote Arakalagudu (north Wing)"},"geometry":{"type":"Point","coordinates":[76.0561142,12.76461]}},{"type":"Feature","properties":{"state":"Karnataka","district":25,"district_n":"HASSAN","pc":16,"pc_name":"Hassan","ac":198,"ac_name":"Arkalgud","booth":40,"booth_name":"Govt Boys Higher Primary School Pete Arakalgud (left Side)"},"geometry":{"type":"Point","coordinates":[76.062,12.7618]}},{"type":"Feature","properties":{"state":"Karnataka","district":25,"district_n":"HASSAN","pc":16,"pc_name":"Hassan","ac":198,"ac_name":"Arkalgud","booth":41,"booth_name":"Govt Girls Higher Primary School Pete Arakalagudu ((right Side)"},"geometry":{"type":"Point","coordinates":[76.06734,12.7621441]}},{"type":"Feature","properties":{"state":"Karnataka","district":25,"district_n":"HASSAN","pc":16,"pc_name":"Hassan","ac":198,"ac_name":"Arkalgud","booth":43,"booth_name":"Govt Higher Primary School Kote Arakalagudu Arakalagudu Salageri"},"geometry":{"type":"Point","coordinates":[76.05235,12.75831]}},{"type":"Feature","properties":{"state":"Karnataka","district":25,"district_n":"HASSAN","pc":16,"pc_name":"Hassan","ac":198,"ac_name":"Arkalgud","booth":44,"booth_name":"Govt Higher Primary School Kote Arakalgudu (left (left (left Division)"},"geometry":{"type":"Point","coordinates":[76.56194,12.7646761]}},{"type":"Feature","properties":{"state":"Karnataka","district":25,"district_n":"HASSAN","pc":16,"pc_name":"Hassan","ac":198,"ac_name":"Arkalgud","booth":46,"booth_name":"Govt Govt Girl's Girl's Higher Primary School Pete, Arakalgudu (left side)"},"geometry":{"type":"Point","coordinates":[76.0623,12.7621689]}},{"type":"Feature","properties":{"state":"Karnataka","district":25,"district_n":"HASSAN","pc":16,"pc_name":"Hassan","ac":198,"ac_name":"Arkalgud","booth":49,"booth_name":"Town Panchayath Offices Arakalgudu"},"geometry":{"type":"Point","coordinates":[76.0613251,12.7621613]}},{"type":"Feature","properties":{"state":"Karnataka","district":25,"district_n":"HASSAN","pc":16,"pc_name":"Hassan","ac":198,"ac_name":"Arkalgud","booth":55,"booth_name":"Govt Lower Primary School, Shiradanahalli"},"geometry":{"type":"Point","coordinates":[75.97001,12.7561035]}},{"type":"Feature","properties":{"state":"Karnataka","district":25,"district_n":"HASSAN","pc":16,"pc_name":"Hassan","ac":198,"ac_name":"Arkalgud","booth":57,"booth_name":"Govt Higher Primary School Mallipattana"},"geometry":{"type":"Point","coordinates":[75.9623,12.7552156]}},{"type":"Feature","properties":{"state":"Karnataka","district":25,"district_n":"HASSAN","pc":16,"pc_name":"Hassan","ac":198,"ac_name":"Arkalgud","booth":60,"booth_name":"Govt Lower Primary School Aladahalli"},"geometry":{"type":"Point","coordinates":[75.96909,12.7429342]}},{"type":"Feature","properties":{"state":"Karnataka","district":25,"district_n":"HASSAN","pc":16,"pc_name":"Hassan","ac":198,"ac_name":"Arkalgud","booth":61,"booth_name":"Govt Higher Higher Primary School Musavathur"},"geometry":{"type":"Point","coordinates":[75.98233,12.733614]}},{"type":"Feature","properties":{"state":"Karnataka","district":25,"district_n":"HASSAN","pc":16,"pc_name":"Hassan","ac":198,"ac_name":"Arkalgud","booth":63,"booth_name":"Govt Higher Primary Abbur Machagowdanahalli"},"geometry":{"type":"Point","coordinates":[76.0056839,12.7280149]}},{"type":"Feature","properties":{"state":"Karnataka","district":25,"district_n":"HASSAN","pc":16,"pc_name":"Hassan","ac":198,"ac_name":"Arkalgud","booth":64,"booth_name":"Govt Higher Primary School Mundagodu"},"geometry":{"type":"Point","coordinates":[76.02582,12.7400417]}},{"type":"Feature","properties":{"state":"Karnataka","district":25,"district_n":"HASSAN","pc":16,"pc_name":"Hassan","ac":198,"ac_name":"Arkalgud","booth":69,"booth_name":"Govt Lower Primary School Salagoppalu"},"geometry":{"type":"Point","coordinates":[76.05605,12.746892]}},{"type":"Feature","properties":{"state":"Karnataka","district":25,"district_n":"HASSAN","pc":16,"pc_name":"Hassan","ac":198,"ac_name":"Arkalgud","booth":72,"booth_name":"Govt Higher Primary School, Madihalli"},"geometry":{"type":"Point","coordinates":[76.08422,12.7286568]}},{"type":"Feature","properties":{"state":"Karnataka","district":25,"district_n":"HASSAN","pc":16,"pc_name":"Hassan","ac":198,"ac_name":"Arkalgud","booth":75,"booth_name":"Govt Higher Primary School Yagati"},"geometry":{"type":"Point","coordinates":[76.14844,12.729496]}},{"type":"Feature","properties":{"state":"Karnataka","district":25,"district_n":"HASSAN","pc":16,"pc_name":"Hassan","ac":198,"ac_name":"Arkalgud","booth":77,"booth_name":"Govt Higher Primary School Uddur Hosahalli"},"geometry":{"type":"Point","coordinates":[76.16582,12.7324686]}},{"type":"Feature","properties":{"state":"Karnataka","district":25,"district_n":"HASSAN","pc":16,"pc_name":"Hassan","ac":198,"ac_name":"Arkalgud","booth":80,"booth_name":"Govt Higher Primary School Menaganahalli"},"geometry":{"type":"Point","coordinates":[76.28168,12.7327118]}},{"type":"Feature","properties":{"state":"Karnataka","district":25,"district_n":"HASSAN","pc":16,"pc_name":"Hassan","ac":198,"ac_name":"Arkalgud","booth":81,"booth_name":"Govt Higher Primary School Algowdanahalli"},"geometry":{"type":"Point","coordinates":[76.2833252,12.7315454]}},{"type":"Feature","properties":{"state":"Karnataka","district":25,"district_n":"HASSAN","pc":16,"pc_name":"Hassan","ac":198,"ac_name":"Arkalgud","booth":83,"booth_name":"Govt Govt Lower Primary School Bantaratalalu"},"geometry":{"type":"Point","coordinates":[76.30637,12.73033]}},{"type":"Feature","properties":{"state":"Karnataka","district":25,"district_n":"HASSAN","pc":16,"pc_name":"Hassan","ac":198,"ac_name":"Arkalgud","booth":84,"booth_name":"Govt Higher Primary School Sravanur"},"geometry":{"type":"Point","coordinates":[76.3291,12.7408972]}},{"type":"Feature","properties":{"state":"Karnataka","district":25,"district_n":"HASSAN","pc":16,"pc_name":"Hassan","ac":198,"ac_name":"Arkalgud","booth":86,"booth_name":"Govt Lower Primary School Mudalakoppalu"},"geometry":{"type":"Point","coordinates":[76.33971,12.7223825]}},{"type":"Feature","properties":{"state":"Karnataka","district":25,"district_n":"HASSAN","pc":16,"pc_name":"Hassan","ac":198,"ac_name":"Arkalgud","booth":87,"booth_name":"Govt Higher Primary School Doddakadanur (left wing)"},"geometry":{"type":"Point","coordinates":[76.29139,12.7035952]}},{"type":"Feature","properties":{"state":"Karnataka","district":25,"district_n":"HASSAN","pc":16,"pc_name":"Hassan","ac":198,"ac_name":"Arkalgud","booth":89,"booth_name":"Govt Lower Primary School Chikkakadanur"},"geometry":{"type":"Point","coordinates":[76.28933,12.7210112]}},{"type":"Feature","properties":{"state":"Karnataka","district":25,"district_n":"HASSAN","pc":16,"pc_name":"Hassan","ac":198,"ac_name":"Arkalgud","booth":92,"booth_name":"Govt Higher Primary School Tathanahalli"},"geometry":{"type":"Point","coordinates":[76.25245,12.7108078]}},{"type":"Feature","properties":{"state":"Karnataka","district":25,"district_n":"HASSAN","pc":16,"pc_name":"Hassan","ac":198,"ac_name":"Arkalgud","booth":95,"booth_name":"Govt Lower Primary School Cholenahalli"},"geometry":{"type":"Point","coordinates":[76.19509,12.70534]}},{"type":"Feature","properties":{"state":"Karnataka","district":25,"district_n":"HASSAN","pc":16,"pc_name":"Hassan","ac":198,"ac_name":"Arkalgud","booth":100,"booth_name":"Govt Govt Higher Primary School Yalagathavalli"},"geometry":{"type":"Point","coordinates":[76.14242,12.7125721]}},{"type":"Feature","properties":{"state":"Karnataka","district":25,"district_n":"HASSAN","pc":16,"pc_name":"Hassan","ac":198,"ac_name":"Arkalgud","booth":101,"booth_name":"Govt Higher Higher Primary School Dummi (right Division)"},"geometry":{"type":"Point","coordinates":[76.11962,12.7120533]}},{"type":"Feature","properties":{"state":"Karnataka","district":25,"district_n":"HASSAN","pc":16,"pc_name":"Hassan","ac":198,"ac_name":"Arkalgud","booth":103,"booth_name":"Govt Higher Primary School Kodakahalli"},"geometry":{"type":"Point","coordinates":[76.10503,13.0034237]}},{"type":"Feature","properties":{"state":"Karnataka","district":25,"district_n":"HASSAN","pc":16,"pc_name":"Hassan","ac":198,"ac_name":"Arkalgud","booth":104,"booth_name":"Govt Higher Primary School Baragur"},"geometry":{"type":"Point","coordinates":[76.0799,12.70079]}},{"type":"Feature","properties":{"state":"Karnataka","district":25,"district_n":"HASSAN","pc":16,"pc_name":"Hassan","ac":198,"ac_name":"Arkalgud","booth":106,"booth_name":"Govt Higher Primary School Hulikal Hulikal (right (right Division)"},"geometry":{"type":"Point","coordinates":[76.04284,12.7034769]}},{"type":"Feature","properties":{"state":"Karnataka","district":25,"district_n":"HASSAN","pc":16,"pc_name":"Hassan","ac":198,"ac_name":"Arkalgud","booth":107,"booth_name":"Govt Higher Primary School Hulikal (left Division)"},"geometry":{"type":"Point","coordinates":[76.04284,12.70362]}},{"type":"Feature","properties":{"state":"Karnataka","district":25,"district_n":"HASSAN","pc":16,"pc_name":"Hassan","ac":198,"ac_name":"Arkalgud","booth":109,"booth_name":"Govt Higher Primary School Muduganur"},"geometry":{"type":"Point","coordinates":[76.01959,12.6954231]}},{"type":"Feature","properties":{"state":"Karnataka","district":25,"district_n":"HASSAN","pc":16,"pc_name":"Hassan","ac":198,"ac_name":"Arkalgud","booth":112,"booth_name":"Govt Higher Primary School Doddabemmathi"},"geometry":{"type":"Point","coordinates":[75.99766,12.6860495]}},{"type":"Feature","properties":{"state":"Karnataka","district":25,"district_n":"HASSAN","pc":16,"pc_name":"Hassan","ac":198,"ac_name":"Arkalgud","booth":115,"booth_name":"Govt Higher Primary School Hegadihalli"},"geometry":{"type":"Point","coordinates":[76.02749,12.6816616]}},{"type":"Feature","properties":{"state":"Karnataka","district":25,"district_n":"HASSAN","pc":16,"pc_name":"Hassan","ac":198,"ac_name":"Arkalgud","booth":118,"booth_name":"Govt Higher Primary School Kabbaligere"},"geometry":{"type":"Point","coordinates":[76.0540848,12.6670084]}},{"type":"Feature","properties":{"state":"Karnataka","district":25,"district_n":"HASSAN","pc":16,"pc_name":"Hassan","ac":198,"ac_name":"Arkalgud","booth":120,"booth_name":"Govt Higher Primary School Doddamagge Doddamagge (left Division)"},"geometry":{"type":"Point","coordinates":[76.081,12.6917915]}},{"type":"Feature","properties":{"state":"Karnataka","district":25,"district_n":"HASSAN","pc":16,"pc_name":"Hassan","ac":198,"ac_name":"Arkalgud","booth":121,"booth_name":"Govt Higher Primary School Niluvagilu"},"geometry":{"type":"Point","coordinates":[76.0881042,12.6727638]}},{"type":"Feature","properties":{"state":"Karnataka","district":25,"district_n":"HASSAN","pc":16,"pc_name":"Hassan","ac":198,"ac_name":"Arkalgud","booth":124,"booth_name":"Govt Higher Primary School Ibbadi"},"geometry":{"type":"Point","coordinates":[76.1344147,12.6959906]}},{"type":"Feature","properties":{"state":"Karnataka","district":25,"district_n":"HASSAN","pc":16,"pc_name":"Hassan","ac":198,"ac_name":"Arkalgud","booth":126,"booth_name":"Govt Higher Primary School Kotekarpuravalli"},"geometry":{"type":"Point","coordinates":[76.11406,12.6638021]}},{"type":"Feature","properties":{"state":"Karnataka","district":25,"district_n":"HASSAN","pc":16,"pc_name":"Hassan","ac":198,"ac_name":"Arkalgud","booth":127,"booth_name":"Govt Higher Primary School Ajjur"},"geometry":{"type":"Point","coordinates":[76.14934,12.69611]}},{"type":"Feature","properties":{"state":"Karnataka","district":25,"district_n":"HASSAN","pc":16,"pc_name":"Hassan","ac":198,"ac_name":"Arkalgud","booth":129,"booth_name":"Govt Lower Primary School Jakanahalli"},"geometry":{"type":"Point","coordinates":[76.2229462,12.6852388]}},{"type":"Feature","properties":{"state":"Karnataka","district":25,"district_n":"HASSAN","pc":16,"pc_name":"Hassan","ac":198,"ac_name":"Arkalgud","booth":132,"booth_name":"Govt Lower Primary School Bachanahalli"},"geometry":{"type":"Point","coordinates":[76.29618,12.6935282]}},{"type":"Feature","properties":{"state":"Karnataka","district":25,"district_n":"HASSAN","pc":16,"pc_name":"Hassan","ac":198,"ac_name":"Arkalgud","booth":135,"booth_name":"Govt Lower Primary School Mudalamayigowdanahalli"},"geometry":{"type":"Point","coordinates":[76.34705,12.6858225]}},{"type":"Feature","properties":{"state":"Karnataka","district":25,"district_n":"HASSAN","pc":16,"pc_name":"Hassan","ac":198,"ac_name":"Arkalgud","booth":138,"booth_name":"Govt Higher Primary Kabbur"},"geometry":{"type":"Point","coordinates":[76.30278,12.6863556]}},{"type":"Feature","properties":{"state":"Karnataka","district":25,"district_n":"HASSAN","pc":16,"pc_name":"Hassan","ac":198,"ac_name":"Arkalgud","booth":140,"booth_name":"Govt Lower Primary School Shettarakoppalu"},"geometry":{"type":"Point","coordinates":[76.2572556,12.6753063]}},{"type":"Feature","properties":{"state":"Karnataka","district":25,"district_n":"HASSAN","pc":16,"pc_name":"Hassan","ac":198,"ac_name":"Arkalgud","booth":141,"booth_name":"Govt Higher Primary School T T Mayigowdanahalli"},"geometry":{"type":"Point","coordinates":[76.24829,12.6908426]}},{"type":"Feature","properties":{"state":"Karnataka","district":25,"district_n":"HASSAN","pc":16,"pc_name":"Hassan","ac":198,"ac_name":"Arkalgud","booth":144,"booth_name":"Govt Higher Primary School Niduvani"},"geometry":{"type":"Point","coordinates":[76.2028,12.6466322]}},{"type":"Feature","properties":{"state":"Karnataka","district":25,"district_n":"HASSAN","pc":16,"pc_name":"Hassan","ac":198,"ac_name":"Arkalgud","booth":146,"booth_name":"Govt Higher Primary School Goragundi"},"geometry":{"type":"Point","coordinates":[76.16443,12.669673]}},{"type":"Feature","properties":{"state":"Karnataka","district":25,"district_n":"HASSAN","pc":16,"pc_name":"Hassan","ac":198,"ac_name":"Arkalgud","booth":149,"booth_name":"Govt Higher Primary School Belavadi"},"geometry":{"type":"Point","coordinates":[76.14127,12.6666965]}},{"type":"Feature","properties":{"state":"Karnataka","district":25,"district_n":"HASSAN","pc":16,"pc_name":"Hassan","ac":198,"ac_name":"Arkalgud","booth":152,"booth_name":"Govt Higher Primary School Mugalur"},"geometry":{"type":"Point","coordinates":[76.08801,12.6562357]}},{"type":"Feature","properties":{"state":"Karnataka","district":25,"district_n":"HASSAN","pc":16,"pc_name":"Hassan","ac":198,"ac_name":"Arkalgud","booth":155,"booth_name":"Govt Higher Primary Venkategowdanakoppalu"},"geometry":{"type":"Point","coordinates":[76.0574646,12.64211]}},{"type":"Feature","properties":{"state":"Karnataka","district":25,"district_n":"HASSAN","pc":16,"pc_name":"Hassan","ac":198,"ac_name":"Arkalgud","booth":158,"booth_name":"Govt Higher Primary School Heggatur"},"geometry":{"type":"Point","coordinates":[75.98397,12.6543312]}},{"type":"Feature","properties":{"state":"Karnataka","district":25,"district_n":"HASSAN","pc":16,"pc_name":"Hassan","ac":198,"ac_name":"Arkalgud","booth":160,"booth_name":"Govt Higher Primary School Majjanahalli"},"geometry":{"type":"Point","coordinates":[75.98654,12.6347466]}},{"type":"Feature","properties":{"state":"Karnataka","district":25,"district_n":"HASSAN","pc":16,"pc_name":"Hassan","ac":198,"ac_name":"Arkalgud","booth":161,"booth_name":"Govt Higher Primary School Handrangi"},"geometry":{"type":"Point","coordinates":[75.9950256,12.6431217]}},{"type":"Feature","properties":{"state":"Karnataka","district":25,"district_n":"HASSAN","pc":16,"pc_name":"Hassan","ac":198,"ac_name":"Arkalgud","booth":163,"booth_name":"Govt Lower Primary School Ullenahalli"},"geometry":{"type":"Point","coordinates":[76.0424,12.61975]}},{"type":"Feature","properties":{"state":"Karnataka","district":25,"district_n":"HASSAN","pc":16,"pc_name":"Hassan","ac":198,"ac_name":"Arkalgud","booth":164,"booth_name":"Govt Higher Primary School akkalavadi"},"geometry":{"type":"Point","coordinates":[76.0252457,12.644845]}},{"type":"Feature","properties":{"state":"Karnataka","district":25,"district_n":"HASSAN","pc":16,"pc_name":"Hassan","ac":198,"ac_name":"Arkalgud","booth":166,"booth_name":"Government (boy's) Konanur"},"geometry":{"type":"Point","coordinates":[76.05122,12.6291761]}},{"type":"Feature","properties":{"state":"Karnataka","district":25,"district_n":"HASSAN","pc":16,"pc_name":"Hassan","ac":198,"ac_name":"Arkalgud","booth":167,"booth_name":"Govt Higher Primary School School Urdu Konanur Konanur Konanur (left Division)"},"geometry":{"type":"Point","coordinates":[76.0493546,12.6279421]}},{"type":"Feature","properties":{"state":"Karnataka","district":25,"district_n":"HASSAN","pc":16,"pc_name":"Hassan","ac":198,"ac_name":"Arkalgud","booth":169,"booth_name":"Govt Higher Primary School (boy's) Konanur (left Division)"},"geometry":{"type":"Point","coordinates":[76.05088,12.6290922]}},{"type":"Feature","properties":{"state":"Karnataka","district":25,"district_n":"HASSAN","pc":16,"pc_name":"Hassan","ac":198,"ac_name":"Arkalgud","booth":170,"booth_name":"Govt Higher Primary School Kerekodi"},"geometry":{"type":"Point","coordinates":[76.04935,12.6278753]}},{"type":"Feature","properties":{"state":"Karnataka","district":25,"district_n":"HASSAN","pc":16,"pc_name":"Hassan","ac":198,"ac_name":"Arkalgud","booth":52,"booth_name":"Govt Higher Primary School Vijapura Forest"},"geometry":{"type":"Point","coordinates":[76.01035,12.7671432]}},{"type":"Feature","properties":{"state":"Karnataka","district":25,"district_n":"HASSAN","pc":16,"pc_name":"Hassan","ac":198,"ac_name":"Arkalgud","booth":58,"booth_name":"Govt Lower Primary School Madalapura"},"geometry":{"type":"Point","coordinates":[75.94253,12.7619629]}},{"type":"Feature","properties":{"state":"Karnataka","district":25,"district_n":"HASSAN","pc":16,"pc_name":"Hassan","ac":198,"ac_name":"Arkalgud","booth":66,"booth_name":"Govt Lower Primary School Tattekere"},"geometry":{"type":"Point","coordinates":[76.02402,12.75549]}},{"type":"Feature","properties":{"state":"Karnataka","district":25,"district_n":"HASSAN","pc":16,"pc_name":"Hassan","ac":198,"ac_name":"Arkalgud","booth":78,"booth_name":"Govt Lower Primary School Udduru"},"geometry":{"type":"Point","coordinates":[76.16997,12.73787]}},{"type":"Feature","properties":{"state":"Karnataka","district":25,"district_n":"HASSAN","pc":16,"pc_name":"Hassan","ac":198,"ac_name":"Arkalgud","booth":98,"booth_name":"Govt Lower Primary School Machagowdanahalli"},"geometry":{"type":"Point","coordinates":[76.17973,12.6905537]}},{"type":"Feature","properties":{"state":"Karnataka","district":25,"district_n":"HASSAN","pc":16,"pc_name":"Hassan","ac":198,"ac_name":"Arkalgud","booth":123,"booth_name":"Govt Lower Primary School Muddanahalli"},"geometry":{"type":"Point","coordinates":[76.11076,12.6915312]}},{"type":"Feature","properties":{"state":"Karnataka","district":25,"district_n":"HASSAN","pc":16,"pc_name":"Hassan","ac":198,"ac_name":"Arkalgud","booth":143,"booth_name":"Govt Lower Primary School Gejjiganahalli"},"geometry":{"type":"Point","coordinates":[76.21027,12.6738415]}},{"type":"Feature","properties":{"state":"Karnataka","district":25,"district_n":"HASSAN","pc":16,"pc_name":"Hassan","ac":198,"ac_name":"Arkalgud","booth":147,"booth_name":"Govt Lower Primary School Bandiganahalli"},"geometry":{"type":"Point","coordinates":[76.1647339,12.6863718]}},{"type":"Feature","properties":{"state":"Karnataka","district":25,"district_n":"HASSAN","pc":16,"pc_name":"Hassan","ac":198,"ac_name":"Arkalgud","booth":17,"booth_name":"Govt Higher Primary School Ganjalagodu"},"geometry":{"type":"Point","coordinates":[76.15135,12.7914209]}},{"type":"Feature","properties":{"state":"Karnataka","district":25,"district_n":"HASSAN","pc":16,"pc_name":"Hassan","ac":198,"ac_name":"Arkalgud","booth":18,"booth_name":"Govt Lower Primary School Haradoorpura"},"geometry":{"type":"Point","coordinates":[76.15841,12.8073072]}},{"type":"Feature","properties":{"state":"Karnataka","district":25,"district_n":"HASSAN","pc":16,"pc_name":"Hassan","ac":198,"ac_name":"Arkalgud","booth":6,"booth_name":"Govt Higher Primary School Ankanaiakanahalli Ankanaiakanahalli Ankanaiakanahalli New Building"},"geometry":{"type":"Point","coordinates":[76.0556259,12.7897959]}},{"type":"Feature","properties":{"state":"Karnataka","district":25,"district_n":"HASSAN","pc":16,"pc_name":"Hassan","ac":198,"ac_name":"Arkalgud","booth":9,"booth_name":"Govt Higher Primary School Maradi"},"geometry":{"type":"Point","coordinates":[76.07625,12.8125381]}},{"type":"Feature","properties":{"state":"Karnataka","district":25,"district_n":"HASSAN","pc":16,"pc_name":"Hassan","ac":198,"ac_name":"Arkalgud","booth":1,"booth_name":"Govt Lower Primary School Kendenne Kaval"},"geometry":{"type":"Point","coordinates":[75.97959,12.7849255]}},{"type":"Feature","properties":{"state":"Karnataka","district":25,"district_n":"HASSAN","pc":16,"pc_name":"Hassan","ac":198,"ac_name":"Arkalgud","booth":192,"booth_name":"Govt Higher Primary School Halli Mysore (right Division)"},"geometry":{"type":"Point","coordinates":[76.25702,12.6618433]}},{"type":"Feature","properties":{"state":"Karnataka","district":25,"district_n":"HASSAN","pc":16,"pc_name":"Hassan","ac":198,"ac_name":"Arkalgud","booth":195,"booth_name":"Govt Higher Primary School Honnenahalli"},"geometry":{"type":"Point","coordinates":[76.29527,12.6583138]}},{"type":"Feature","properties":{"state":"Karnataka","district":25,"district_n":"HASSAN","pc":16,"pc_name":"Hassan","ac":198,"ac_name":"Arkalgud","booth":198,"booth_name":"Government Pre Pre Pu College Santemydana"},"geometry":{"type":"Point","coordinates":[76.32284,12.6375875]}},{"type":"Feature","properties":{"state":"Karnataka","district":25,"district_n":"HASSAN","pc":16,"pc_name":"Hassan","ac":198,"ac_name":"Arkalgud","booth":201,"booth_name":"Govt Higher Primary School Devaraguddenahalli"},"geometry":{"type":"Point","coordinates":[76.2866,12.64257]}},{"type":"Feature","properties":{"state":"Karnataka","district":25,"district_n":"HASSAN","pc":16,"pc_name":"Hassan","ac":198,"ac_name":"Arkalgud","booth":206,"booth_name":"Govt Higher Primary School (left Division)"},"geometry":{"type":"Point","coordinates":[76.22244,12.6118069]}},{"type":"Feature","properties":{"state":"Karnataka","district":25,"district_n":"HASSAN","pc":16,"pc_name":"Hassan","ac":198,"ac_name":"Arkalgud","booth":210,"booth_name":"Govt Higher Primary School Garudanahalli"},"geometry":{"type":"Point","coordinates":[76.14419,12.6176329]}},{"type":"Feature","properties":{"state":"Karnataka","district":25,"district_n":"HASSAN","pc":16,"pc_name":"Hassan","ac":198,"ac_name":"Arkalgud","booth":212,"booth_name":"Govt P Pu College Basavapatna (right Division)"},"geometry":{"type":"Point","coordinates":[76.11894,12.615942]}},{"type":"Feature","properties":{"state":"Karnataka","district":25,"district_n":"HASSAN","pc":16,"pc_name":"Hassan","ac":198,"ac_name":"Arkalgud","booth":258,"booth_name":"Govt Govt Higher Primary School, Ananduru"},"geometry":{"type":"Point","coordinates":[76.136055,12.5815353]}},{"type":"Feature","properties":{"state":"Karnataka","district":25,"district_n":"HASSAN","pc":16,"pc_name":"Hassan","ac":198,"ac_name":"Arkalgud","booth":261,"booth_name":"Govt Govt Higher Primary School, Ragimaroor"},"geometry":{"type":"Point","coordinates":[76.0960159,12.5515852]}},{"type":"Feature","properties":{"state":"Karnataka","district":25,"district_n":"HASSAN","pc":16,"pc_name":"Hassan","ac":198,"ac_name":"Arkalgud","booth":266,"booth_name":"Govt Govt Higher Primary School, Lakkuru 1 (right Side)"},"geometry":{"type":"Point","coordinates":[76.1255646,12.5366516]}},{"type":"Feature","properties":{"state":"Karnataka","district":25,"district_n":"HASSAN","pc":16,"pc_name":"Hassan","ac":198,"ac_name":"Arkalgud","booth":267,"booth_name":"Govt Govt Higher Primary School, Lakkuru 2 (left Side)"},"geometry":{"type":"Point","coordinates":[76.1256256,12.53075]}},{"type":"Feature","properties":{"state":"Karnataka","district":25,"district_n":"HASSAN","pc":16,"pc_name":"Hassan","ac":198,"ac_name":"Arkalgud","booth":178,"booth_name":"Govt Higher Primary School Bilaguli"},"geometry":{"type":"Point","coordinates":[76.09545,12.6281281]}},{"type":"Feature","properties":{"state":"Karnataka","district":25,"district_n":"HASSAN","pc":16,"pc_name":"Hassan","ac":198,"ac_name":"Arkalgud","booth":204,"booth_name":"Govt Lower Primary School Hosalakkegowdanakoppalu"},"geometry":{"type":"Point","coordinates":[76.25582,12.640048]}},{"type":"Feature","properties":{"state":"Karnataka","district":25,"district_n":"HASSAN","pc":16,"pc_name":"Hassan","ac":198,"ac_name":"Arkalgud","booth":26,"booth_name":"Govt Higher Primary School, Hethagowdanahalli"},"geometry":{"type":"Point","coordinates":[76.14594,12.7712574]}},{"type":"Feature","properties":{"state":"Karnataka","district":25,"district_n":"HASSAN","pc":16,"pc_name":"Hassan","ac":198,"ac_name":"Arkalgud","booth":224,"booth_name":"Govt Higher Primary School Kurubara Abburu"},"geometry":{"type":"Point","coordinates":[75.98681,12.6156406]}},{"type":"Feature","properties":{"state":"Karnataka","district":25,"district_n":"HASSAN","pc":16,"pc_name":"Hassan","ac":198,"ac_name":"Arkalgud","booth":25,"booth_name":"Govt Higher Primary School Kallimud danahalli"},"geometry":{"type":"Point","coordinates":[76.16326,12.763133]}},{"type":"Feature","properties":{"state":"Karnataka","district":25,"district_n":"HASSAN","pc":16,"pc_name":"Hassan","ac":198,"ac_name":"Arkalgud","booth":28,"booth_name":"Govt Govt Higher Higher Primary School Bychanahalli"},"geometry":{"type":"Point","coordinates":[76.1348343,12.768033]}},{"type":"Feature","properties":{"state":"Karnataka","district":25,"district_n":"HASSAN","pc":16,"pc_name":"Hassan","ac":198,"ac_name":"Arkalgud","booth":234,"booth_name":"Govt Higher Primary School, Hampapura"},"geometry":{"type":"Point","coordinates":[76.06035,12.5648174]}},{"type":"Feature","properties":{"state":"Karnataka","district":25,"district_n":"HASSAN","pc":16,"pc_name":"Hassan","ac":198,"ac_name":"Arkalgud","booth":240,"booth_name":"Govt Higher Priamry School, Kote Rudrapattana (right Wing)"},"geometry":{"type":"Point","coordinates":[76.11908,12.5971937]}},{"type":"Feature","properties":{"state":"Karnataka","district":25,"district_n":"HASSAN","pc":16,"pc_name":"Hassan","ac":198,"ac_name":"Arkalgud","booth":243,"booth_name":"Govt Govt Higher Primary School, Kalenahalli (right Side)"},"geometry":{"type":"Point","coordinates":[76.1612549,12.608099]}},{"type":"Feature","properties":{"state":"Karnataka","district":25,"district_n":"HASSAN","pc":16,"pc_name":"Hassan","ac":198,"ac_name":"Arkalgud","booth":251,"booth_name":"Govt Govt Lower Primary School, Honnenahalli"},"geometry":{"type":"Point","coordinates":[76.1724548,12.5986547]}},{"type":"Feature","properties":{"state":"Karnataka","district":25,"district_n":"HASSAN","pc":16,"pc_name":"Hassan","ac":198,"ac_name":"Arkalgud","booth":254,"booth_name":"Govt Govt Higher Primary School (girls), Keralapura (left Side)"},"geometry":{"type":"Point","coordinates":[76.17596,12.58164]}},{"type":"Feature","properties":{"state":"Karnataka","district":25,"district_n":"HASSAN","pc":16,"pc_name":"Hassan","ac":198,"ac_name":"Arkalgud","booth":263,"booth_name":"Govt Govt Higher Primary School, Keragodu"},"geometry":{"type":"Point","coordinates":[76.12589,12.5513315]}},{"type":"Feature","properties":{"state":"Karnataka","district":25,"district_n":"HASSAN","pc":16,"pc_name":"Hassan","ac":198,"ac_name":"Arkalgud","booth":257,"booth_name":"Govt Govt Higher Primary School, Basavanahalli Koppalu"},"geometry":{"type":"Point","coordinates":[76.15808,12.5887794]}},{"type":"Feature","properties":{"state":"Karnataka","district":25,"district_n":"HASSAN","pc":16,"pc_name":"Hassan","ac":198,"ac_name":"Arkalgud","booth":154,"booth_name":"Govt Higher Primary School Venkategowdanakoppalu"},"geometry":{"type":"Point","coordinates":[76.05744,12.6421986]}},{"type":"Feature","properties":{"state":"Karnataka","district":25,"district_n":"HASSAN","pc":16,"pc_name":"Hassan","ac":198,"ac_name":"Arkalgud","booth":172,"booth_name":"Govt Higher Primary School Kattepura"},"geometry":{"type":"Point","coordinates":[76.04849,12.6094828]}},{"type":"Feature","properties":{"state":"Karnataka","district":25,"district_n":"HASSAN","pc":16,"pc_name":"Hassan","ac":198,"ac_name":"Arkalgud","booth":175,"booth_name":"Grama Panchayath Office Ramanathapura"},"geometry":{"type":"Point","coordinates":[76.0852661,12.6179686]}},{"type":"Feature","properties":{"state":"Karnataka","district":25,"district_n":"HASSAN","pc":16,"pc_name":"Hassan","ac":198,"ac_name":"Arkalgud","booth":181,"booth_name":"Govt Lower Primary School Ankanahalli (new Building )"},"geometry":{"type":"Point","coordinates":[76.14667,12.6532068]}},{"type":"Feature","properties":{"state":"Karnataka","district":25,"district_n":"HASSAN","pc":16,"pc_name":"Hassan","ac":198,"ac_name":"Arkalgud","booth":183,"booth_name":"Govt Higher Primary School Bediganahalli"},"geometry":{"type":"Point","coordinates":[76.1471939,12.6782885]}},{"type":"Feature","properties":{"state":"Karnataka","district":25,"district_n":"HASSAN","pc":16,"pc_name":"Hassan","ac":198,"ac_name":"Arkalgud","booth":187,"booth_name":"Govt Higher Primary School Bidarkka"},"geometry":{"type":"Point","coordinates":[76.2028,12.6466322]}},{"type":"Feature","properties":{"state":"Karnataka","district":25,"district_n":"HASSAN","pc":16,"pc_name":"Hassan","ac":198,"ac_name":"Arkalgud","booth":189,"booth_name":"Govt Higher Primary School Badakyatanahalli"},"geometry":{"type":"Point","coordinates":[76.20662,12.6895275]}},{"type":"Feature","properties":{"state":"Karnataka","district":25,"district_n":"HASSAN","pc":16,"pc_name":"Hassan","ac":198,"ac_name":"Arkalgud","booth":190,"booth_name":"Govt Higher Primary School H H Hindalahalli"},"geometry":{"type":"Point","coordinates":[75.76015,12.4286022]}},{"type":"Feature","properties":{"state":"Karnataka","district":25,"district_n":"HASSAN","pc":16,"pc_name":"Hassan","ac":198,"ac_name":"Arkalgud","booth":171,"booth_name":"Govt Higher Primary School (urdu) Konanur (right Division)"},"geometry":{"type":"Point","coordinates":[76.03982,12.6313076]}},{"type":"Feature","properties":{"state":"Karnataka","district":25,"district_n":"HASSAN","pc":16,"pc_name":"Hassan","ac":198,"ac_name":"Arkalgud","booth":2,"booth_name":"Govt Lower Primary Primary School Mudigere"},"geometry":{"type":"Point","coordinates":[76.0028839,12.7786865]}},{"type":"Feature","properties":{"state":"Karnataka","district":25,"district_n":"HASSAN","pc":16,"pc_name":"Hassan","ac":198,"ac_name":"Arkalgud","booth":5,"booth_name":"Govt Higher Primary School Shambunathapura"},"geometry":{"type":"Point","coordinates":[76.0048141,12.7766781]}},{"type":"Feature","properties":{"state":"Karnataka","district":25,"district_n":"HASSAN","pc":16,"pc_name":"Hassan","ac":198,"ac_name":"Arkalgud","booth":11,"booth_name":"Govt Lower Primary School Narasinakuppe"},"geometry":{"type":"Point","coordinates":[76.09702,12.7923546]}},{"type":"Feature","properties":{"state":"Karnataka","district":25,"district_n":"HASSAN","pc":16,"pc_name":"Hassan","ac":198,"ac_name":"Arkalgud","booth":14,"booth_name":"Govt Higher Primary school Hebbale"},"geometry":{"type":"Point","coordinates":[76.11442,12.8065557]}},{"type":"Feature","properties":{"state":"Karnataka","district":25,"district_n":"HASSAN","pc":16,"pc_name":"Hassan","ac":198,"ac_name":"Arkalgud","booth":31,"booth_name":"Govt Higher Higher Primary School Doddagavanahalli"},"geometry":{"type":"Point","coordinates":[76.12262,12.7598991]}},{"type":"Feature","properties":{"state":"Karnataka","district":25,"district_n":"HASSAN","pc":16,"pc_name":"Hassan","ac":198,"ac_name":"Arkalgud","booth":42,"booth_name":"Govt Lower Primary School School Kellur"},"geometry":{"type":"Point","coordinates":[76.07091,12.7645655]}},{"type":"Feature","properties":{"state":"Karnataka","district":25,"district_n":"HASSAN","pc":16,"pc_name":"Hassan","ac":198,"ac_name":"Arkalgud","booth":54,"booth_name":"Govt Higher Primary School Masarangala"},"geometry":{"type":"Point","coordinates":[75.98718,12.7725964]}},{"type":"Feature","properties":{"state":"Karnataka","district":25,"district_n":"HASSAN","pc":16,"pc_name":"Hassan","ac":198,"ac_name":"Arkalgud","booth":65,"booth_name":"Govt Higher Primary School Kathimallenahalli"},"geometry":{"type":"Point","coordinates":[76.0362,12.74406]}},{"type":"Feature","properties":{"state":"Karnataka","district":25,"district_n":"HASSAN","pc":16,"pc_name":"Hassan","ac":198,"ac_name":"Arkalgud","booth":68,"booth_name":"Govt Higher Primary School Malalikere (new Building)"},"geometry":{"type":"Point","coordinates":[76.06943,12.74078]}},{"type":"Feature","properties":{"state":"Karnataka","district":25,"district_n":"HASSAN","pc":16,"pc_name":"Hassan","ac":198,"ac_name":"Arkalgud","booth":85,"booth_name":"Govt Higher Primary School Gulaganjihalli"},"geometry":{"type":"Point","coordinates":[76.33469,12.7223835]}},{"type":"Feature","properties":{"state":"Karnataka","district":25,"district_n":"HASSAN","pc":16,"pc_name":"Hassan","ac":198,"ac_name":"Arkalgud","booth":97,"booth_name":"Govt Lower Primary School Ramenahalli"},"geometry":{"type":"Point","coordinates":[76.1768341,12.7069225]}},{"type":"Feature","properties":{"state":"Karnataka","district":25,"district_n":"HASSAN","pc":16,"pc_name":"Hassan","ac":198,"ac_name":"Arkalgud","booth":74,"booth_name":"Govt Higher Primary School Santhemarur"},"geometry":{"type":"Point","coordinates":[76.11632,12.7315559]}},{"type":"Feature","properties":{"state":"Karnataka","district":25,"district_n":"HASSAN","pc":16,"pc_name":"Hassan","ac":198,"ac_name":"Arkalgud","booth":82,"booth_name":"Govt Higher Primary School Annechakanahalli"},"geometry":{"type":"Point","coordinates":[76.2976456,12.7253513]}},{"type":"Feature","properties":{"state":"Karnataka","district":25,"district_n":"HASSAN","pc":16,"pc_name":"Hassan","ac":198,"ac_name":"Arkalgud","booth":114,"booth_name":"Govt Higher Primary School Hennur Kongalale"},"geometry":{"type":"Point","coordinates":[75.96717,12.6664581]}},{"type":"Feature","properties":{"state":"Karnataka","district":25,"district_n":"HASSAN","pc":16,"pc_name":"Hassan","ac":198,"ac_name":"Arkalgud","booth":117,"booth_name":"Govt Lower Primary School Bettadahalli"},"geometry":{"type":"Point","coordinates":[76.05487,12.6898565]}},{"type":"Feature","properties":{"state":"Karnataka","district":25,"district_n":"HASSAN","pc":16,"pc_name":"Hassan","ac":198,"ac_name":"Arkalgud","booth":88,"booth_name":"Govt Higher Primary School (right (right wing) Doddakadanuru"},"geometry":{"type":"Point","coordinates":[76.29158,12.7035847]}},{"type":"Feature","properties":{"state":"Karnataka","district":25,"district_n":"HASSAN","pc":16,"pc_name":"Hassan","ac":198,"ac_name":"Arkalgud","booth":94,"booth_name":"Govt Higher Primary School K K Muddanahalli"},"geometry":{"type":"Point","coordinates":[76.1909943,12.7164993]}},{"type":"Feature","properties":{"state":"Karnataka","district":25,"district_n":"HASSAN","pc":16,"pc_name":"Hassan","ac":198,"ac_name":"Arkalgud","booth":131,"booth_name":"Govt Higher Primary School Dalagowdanahalli"},"geometry":{"type":"Point","coordinates":[76.27595,12.6948843]}},{"type":"Feature","properties":{"state":"Karnataka","district":25,"district_n":"HASSAN","pc":16,"pc_name":"Hassan","ac":198,"ac_name":"Arkalgud","booth":134,"booth_name":"Govt Lower Primary School Maluganahalli"},"geometry":{"type":"Point","coordinates":[76.34325,12.7088213]}},{"type":"Feature","properties":{"state":"Karnataka","district":25,"district_n":"HASSAN","pc":16,"pc_name":"Hassan","ac":198,"ac_name":"Arkalgud","booth":137,"booth_name":"Govt Higher Primary School Rangenahalli"},"geometry":{"type":"Point","coordinates":[76.32976,12.69057]}},{"type":"Feature","properties":{"state":"Karnataka","district":25,"district_n":"HASSAN","pc":16,"pc_name":"Hassan","ac":198,"ac_name":"Arkalgud","booth":105,"booth_name":"Govt Higher Primary School Kaniyar"},"geometry":{"type":"Point","coordinates":[76.0665359,12.699481]}},{"type":"Feature","properties":{"state":"Karnataka","district":25,"district_n":"HASSAN","pc":16,"pc_name":"Hassan","ac":198,"ac_name":"Arkalgud","booth":108,"booth_name":"Govt Higher Primary School Allapattna"},"geometry":{"type":"Point","coordinates":[76.02389,12.7085066]}},{"type":"Feature","properties":{"state":"Karnataka","district":25,"district_n":"HASSAN","pc":16,"pc_name":"Hassan","ac":198,"ac_name":"Arkalgud","booth":111,"booth_name":"Govt Lower Primary School Nilakunda"},"geometry":{"type":"Point","coordinates":[75.98222,12.7013969]}},{"type":"Feature","properties":{"state":"Karnataka","district":25,"district_n":"HASSAN","pc":16,"pc_name":"Hassan","ac":198,"ac_name":"Arkalgud","booth":148,"booth_name":"Govt Higher Primary School Karahalli"},"geometry":{"type":"Point","coordinates":[76.15762,12.6730881]}},{"type":"Feature","properties":{"state":"Karnataka","district":25,"district_n":"HASSAN","pc":16,"pc_name":"Hassan","ac":198,"ac_name":"Arkalgud","booth":151,"booth_name":"Govt Higher Primary School Agrahara"},"geometry":{"type":"Point","coordinates":[76.0994949,12.6581182]}},{"type":"Feature","properties":{"state":"Karnataka","district":25,"district_n":"HASSAN","pc":16,"pc_name":"Hassan","ac":198,"ac_name":"Arkalgud","booth":22,"booth_name":"Govt Lower Primary School School Nagarthi"},"geometry":{"type":"Point","coordinates":[76.34288,12.7520809]}},{"type":"Feature","properties":{"state":"Karnataka","district":25,"district_n":"HASSAN","pc":16,"pc_name":"Hassan","ac":198,"ac_name":"Arkalgud","booth":168,"booth_name":"Govt Higher Primary (girl) Konanur"},"geometry":{"type":"Point","coordinates":[76.05455,12.6286516]}},{"type":"Feature","properties":{"state":"Karnataka","district":25,"district_n":"HASSAN","pc":16,"pc_name":"Hassan","ac":198,"ac_name":"Arkalgud","booth":71,"booth_name":"Govt Higher Primary School Mokali"},"geometry":{"type":"Point","coordinates":[76.07604,12.7376852]}},{"type":"Feature","properties":{"state":"Karnataka","district":25,"district_n":"HASSAN","pc":16,"pc_name":"Hassan","ac":198,"ac_name":"Arkalgud","booth":128,"booth_name":"Govt Higher Primary School Odanahalli"},"geometry":{"type":"Point","coordinates":[76.20662,12.6895275]}},{"type":"Feature","properties":{"state":"Karnataka","district":25,"district_n":"HASSAN","pc":16,"pc_name":"Hassan","ac":198,"ac_name":"Arkalgud","booth":45,"booth_name":"Govt Govt Boy's Higher Primary School Pete, Arakalagud (right Side)"},"geometry":{"type":"Point","coordinates":[76.06188,12.7617836]}},{"type":"Feature","properties":{"state":"Karnataka","district":25,"district_n":"HASSAN","pc":16,"pc_name":"Hassan","ac":198,"ac_name":"Arkalgud","booth":48,"booth_name":"Govt Higher Primary School Petemachagowdanahalli"},"geometry":{"type":"Point","coordinates":[76.0685043,12.75449]}},{"type":"Feature","properties":{"state":"Karnataka","district":25,"district_n":"HASSAN","pc":16,"pc_name":"Hassan","ac":198,"ac_name":"Arkalgud","booth":150,"booth_name":"Govt Higher Primary School Belavadi"},"geometry":{"type":"Point","coordinates":[76.14126,12.6567144]}},{"type":"Feature","properties":{"state":"Karnataka","district":25,"district_n":"HASSAN","pc":16,"pc_name":"Hassan","ac":198,"ac_name":"Arkalgud","booth":162,"booth_name":"Govt Higher Primary School Handrangi"},"geometry":{"type":"Point","coordinates":[75.9950256,12.6413221]}},{"type":"Feature","properties":{"state":"Karnataka","district":25,"district_n":"HASSAN","pc":16,"pc_name":"Hassan","ac":198,"ac_name":"Arkalgud","booth":173,"booth_name":"Govt Higher Primary School Kattepura"},"geometry":{"type":"Point","coordinates":[76.04851,12.6094694]}},{"type":"Feature","properties":{"state":"Karnataka","district":25,"district_n":"HASSAN","pc":16,"pc_name":"Hassan","ac":198,"ac_name":"Arkalgud","booth":222,"booth_name":"Govt Higher Primary School Siddapura"},"geometry":{"type":"Point","coordinates":[76.0142746,12.6127234]}},{"type":"Feature","properties":{"state":"Karnataka","district":25,"district_n":"HASSAN","pc":16,"pc_name":"Hassan","ac":198,"ac_name":"Arkalgud","booth":27,"booth_name":"Govt Higher Primary School, Maravalalu"},"geometry":{"type":"Point","coordinates":[76.1353455,12.75535]}},{"type":"Feature","properties":{"state":"Karnataka","district":25,"district_n":"HASSAN","pc":16,"pc_name":"Hassan","ac":198,"ac_name":"Arkalgud","booth":225,"booth_name":"Govt Higher Primary School Hodenoor"},"geometry":{"type":"Point","coordinates":[75.9659653,12.6178389]}},{"type":"Feature","properties":{"state":"Karnataka","district":25,"district_n":"HASSAN","pc":16,"pc_name":"Hassan","ac":198,"ac_name":"Arkalgud","booth":242,"booth_name":"Govt Govt Higher Primary School, Bettasoge"},"geometry":{"type":"Point","coordinates":[76.13516,12.5916071]}},{"type":"Feature","properties":{"state":"Karnataka","district":25,"district_n":"HASSAN","pc":16,"pc_name":"Hassan","ac":198,"ac_name":"Arkalgud","booth":245,"booth_name":"Govt Govt Higher Primary School, Shinganakuppe"},"geometry":{"type":"Point","coordinates":[76.26513,12.6453485]}},{"type":"Feature","properties":{"state":"Karnataka","district":25,"district_n":"HASSAN","pc":16,"pc_name":"Hassan","ac":198,"ac_name":"Arkalgud","booth":248,"booth_name":"Govt Govt Lower Primary School, Mukkanahalli (left Side)"},"geometry":{"type":"Point","coordinates":[76.28622,12.6254072]}},{"type":"Feature","properties":{"state":"Karnataka","district":25,"district_n":"HASSAN","pc":16,"pc_name":"Hassan","ac":198,"ac_name":"Arkalgud","booth":268,"booth_name":"Govt Govt Higher Primary School, Mallapura"},"geometry":{"type":"Point","coordinates":[76.09724,12.5392761]}},{"type":"Feature","properties":{"state":"Karnataka","district":25,"district_n":"HASSAN","pc":16,"pc_name":"Hassan","ac":198,"ac_name":"Arkalgud","booth":265,"booth_name":"Govt Govt Higher Primary School, Maduranahalli"},"geometry":{"type":"Point","coordinates":[76.13992,12.5625677]}},{"type":"Feature","properties":{"state":"Karnataka","district":25,"district_n":"HASSAN","pc":16,"pc_name":"Hassan","ac":198,"ac_name":"Arkalgud","booth":8,"booth_name":"Govt Higher Primary School School Nygere"},"geometry":{"type":"Point","coordinates":[76.07782,12.7924175]}},{"type":"Feature","properties":{"state":"Karnataka","district":25,"district_n":"HASSAN","pc":16,"pc_name":"Hassan","ac":198,"ac_name":"Arkalgud","booth":191,"booth_name":"Govt Higher Primary School Hallimysore (left Division)"},"geometry":{"type":"Point","coordinates":[76.25738,12.6620445]}},{"type":"Feature","properties":{"state":"Karnataka","district":25,"district_n":"HASSAN","pc":16,"pc_name":"Hassan","ac":198,"ac_name":"Arkalgud","booth":194,"booth_name":"Govt Higher Primary School Kallahalli"},"geometry":{"type":"Point","coordinates":[76.37731,12.6670637]}},{"type":"Feature","properties":{"state":"Karnataka","district":25,"district_n":"HASSAN","pc":16,"pc_name":"Hassan","ac":198,"ac_name":"Arkalgud","booth":208,"booth_name":"Govt Higher Primary School Jittenahalli"},"geometry":{"type":"Point","coordinates":[76.16339,12.6238012]}},{"type":"Feature","properties":{"state":"Karnataka","district":25,"district_n":"HASSAN","pc":16,"pc_name":"Hassan","ac":198,"ac_name":"Arkalgud","booth":211,"booth_name":"Govt Higher Primary School (boy's ) Basavapatna Hospital Hospital Near"},"geometry":{"type":"Point","coordinates":[76.1195145,12.6146288]}},{"type":"Feature","properties":{"state":"Karnataka","district":25,"district_n":"HASSAN","pc":16,"pc_name":"Hassan","ac":198,"ac_name":"Arkalgud","booth":197,"booth_name":"Govt Higher Primary School Doddahalli"},"geometry":{"type":"Point","coordinates":[76.32401,12.6490993]}},{"type":"Feature","properties":{"state":"Karnataka","district":25,"district_n":"HASSAN","pc":16,"pc_name":"Hassan","ac":198,"ac_name":"Arkalgud","booth":200,"booth_name":"Govt Higher Primary School Anekannambadi"},"geometry":{"type":"Point","coordinates":[76.29928,12.6402073]}},{"type":"Feature","properties":{"state":"Karnataka","district":25,"district_n":"HASSAN","pc":16,"pc_name":"Hassan","ac":198,"ac_name":"Arkalgud","booth":7,"booth_name":"Govt Higher Primary School Kashipura"},"geometry":{"type":"Point","coordinates":[76.0700455,12.7827673]}},{"type":"Feature","properties":{"state":"Karnataka","district":25,"district_n":"HASSAN","pc":16,"pc_name":"Hassan","ac":198,"ac_name":"Arkalgud","booth":202,"booth_name":"Govt Higher Primary School Kyatanahalli"},"geometry":{"type":"Point","coordinates":[76.2521744,12.6488552]}},{"type":"Feature","properties":{"state":"Karnataka","district":25,"district_n":"HASSAN","pc":16,"pc_name":"Hassan","ac":198,"ac_name":"Arkalgud","booth":205,"booth_name":"Govt Higher Primary School Neerale"},"geometry":{"type":"Point","coordinates":[76.2028,12.6466322]}},{"type":"Feature","properties":{"state":"Karnataka","district":25,"district_n":"HASSAN","pc":16,"pc_name":"Hassan","ac":198,"ac_name":"Arkalgud","booth":220,"booth_name":"Govt Higher Primary School Banagundi"},"geometry":{"type":"Point","coordinates":[76.03682,12.6029043]}},{"type":"Feature","properties":{"state":"Karnataka","district":25,"district_n":"HASSAN","pc":16,"pc_name":"Hassan","ac":198,"ac_name":"Arkalgud","booth":219,"booth_name":"Govt Higher Primary School Saragoor"},"geometry":{"type":"Point","coordinates":[76.03841,12.61182]}},{"type":"Feature","properties":{"state":"Karnataka","district":25,"district_n":"HASSAN","pc":16,"pc_name":"Hassan","ac":198,"ac_name":"Arkalgud","booth":233,"booth_name":"Govt Lower Primary School, Gabballi"},"geometry":{"type":"Point","coordinates":[76.04253,12.5934181]}},{"type":"Feature","properties":{"state":"Karnataka","district":25,"district_n":"HASSAN","pc":16,"pc_name":"Hassan","ac":198,"ac_name":"Arkalgud","booth":51,"booth_name":"Govt Higher Primary School Vijapura Forest"},"geometry":{"type":"Point","coordinates":[76.0106,12.7671566]}},{"type":"Feature","properties":{"state":"Karnataka","district":25,"district_n":"HASSAN","pc":16,"pc_name":"Hassan","ac":198,"ac_name":"Arkalgud","booth":62,"booth_name":"Govt Lower Primary School Kollangi"},"geometry":{"type":"Point","coordinates":[76.00604,12.7352772]}},{"type":"Feature","properties":{"state":"Karnataka","district":25,"district_n":"HASSAN","pc":16,"pc_name":"Hassan","ac":198,"ac_name":"Arkalgud","booth":177,"booth_name":"Govt Higher Primary School Bilaguli"},"geometry":{"type":"Point","coordinates":[76.19541,12.6284161]}},{"type":"Feature","properties":{"state":"Karnataka","district":25,"district_n":"HASSAN","pc":16,"pc_name":"Hassan","ac":198,"ac_name":"Arkalgud","booth":180,"booth_name":"Govt Govt Lower Primary School Belikarpooravalli"},"geometry":{"type":"Point","coordinates":[76.11705,12.6526251]}},{"type":"Feature","properties":{"state":"Karnataka","district":25,"district_n":"HASSAN","pc":16,"pc_name":"Hassan","ac":198,"ac_name":"Arkalgud","booth":174,"booth_name":"Govt Higher Primary School Hirehalli"},"geometry":{"type":"Point","coordinates":[76.07278,12.6415968]}},{"type":"Feature","properties":{"state":"Karnataka","district":25,"district_n":"HASSAN","pc":16,"pc_name":"Hassan","ac":198,"ac_name":"Arkalgud","booth":188,"booth_name":"Govt Higher Primary School Somanahalli"},"geometry":{"type":"Point","coordinates":[76.2028,12.6466322]}},{"type":"Feature","properties":{"state":"Karnataka","district":25,"district_n":"HASSAN","pc":16,"pc_name":"Hassan","ac":198,"ac_name":"Arkalgud","booth":157,"booth_name":"Govt Higher Primary School Kesavathur"},"geometry":{"type":"Point","coordinates":[76.00933,12.6613064]}},{"type":"Feature","properties":{"state":"Karnataka","district":25,"district_n":"HASSAN","pc":16,"pc_name":"Hassan","ac":198,"ac_name":"Arkalgud","booth":4,"booth_name":"Anganavadi Centre Ankanaikanahalli Ankanaikanahalli 2"},"geometry":{"type":"Point","coordinates":[76.05568,12.7898865]}},{"type":"Feature","properties":{"state":"Karnataka","district":25,"district_n":"HASSAN","pc":16,"pc_name":"Hassan","ac":198,"ac_name":"Arkalgud","booth":13,"booth_name":"Govt Higher Primary School Bolakyathanahalli"},"geometry":{"type":"Point","coordinates":[76.1070251,12.8146343]}},{"type":"Feature","properties":{"state":"Karnataka","district":25,"district_n":"HASSAN","pc":16,"pc_name":"Hassan","ac":198,"ac_name":"Arkalgud","booth":16,"booth_name":"Govt Lower Primary School Muddanahalli"},"geometry":{"type":"Point","coordinates":[76.13928,12.7878952]}},{"type":"Feature","properties":{"state":"Karnataka","district":25,"district_n":"HASSAN","pc":16,"pc_name":"Hassan","ac":198,"ac_name":"Arkalgud","booth":30,"booth_name":"Govt Lower Primary Primary Kurubarakoppalu"},"geometry":{"type":"Point","coordinates":[76.12444,12.7807875]}},{"type":"Feature","properties":{"state":"Karnataka","district":25,"district_n":"HASSAN","pc":16,"pc_name":"Hassan","ac":198,"ac_name":"Arkalgud","booth":39,"booth_name":"Govt Junior College Arakalagudu"},"geometry":{"type":"Point","coordinates":[76.06312,12.7667456]}},{"type":"Feature","properties":{"state":"Karnataka","district":25,"district_n":"HASSAN","pc":16,"pc_name":"Hassan","ac":198,"ac_name":"Arkalgud","booth":56,"booth_name":"Govt Junior College Malllipattana"},"geometry":{"type":"Point","coordinates":[75.96626,12.7516708]}},{"type":"Feature","properties":{"state":"Karnataka","district":25,"district_n":"HASSAN","pc":16,"pc_name":"Hassan","ac":198,"ac_name":"Arkalgud","booth":67,"booth_name":"Govt Higher Primary School Tejur"},"geometry":{"type":"Point","coordinates":[76.05017,12.7319117]}},{"type":"Feature","properties":{"state":"Karnataka","district":25,"district_n":"HASSAN","pc":16,"pc_name":"Hassan","ac":198,"ac_name":"Arkalgud","booth":73,"booth_name":"Govt Higher Primary School Parasanahalli"},"geometry":{"type":"Point","coordinates":[76.09767,12.7394266]}},{"type":"Feature","properties":{"state":"Karnataka","district":25,"district_n":"HASSAN","pc":16,"pc_name":"Hassan","ac":198,"ac_name":"Arkalgud","booth":99,"booth_name":"Govt Higher Primary School Jodi Gubbi"},"geometry":{"type":"Point","coordinates":[76.1614761,12.6991644]}},{"type":"Feature","properties":{"state":"Karnataka","district":25,"district_n":"HASSAN","pc":16,"pc_name":"Hassan","ac":198,"ac_name":"Arkalgud","booth":102,"booth_name":"Govt Higher Primary School School Dummi (left Division)"},"geometry":{"type":"Point","coordinates":[76.11967,12.7120295]}},{"type":"Feature","properties":{"state":"Karnataka","district":25,"district_n":"HASSAN","pc":16,"pc_name":"Hassan","ac":198,"ac_name":"Arkalgud","booth":76,"booth_name":"Govt Lower Primary School School Rangapura"},"geometry":{"type":"Point","coordinates":[76.1433945,12.7437868]}},{"type":"Feature","properties":{"state":"Karnataka","district":25,"district_n":"HASSAN","pc":16,"pc_name":"Hassan","ac":198,"ac_name":"Arkalgud","booth":79,"booth_name":"Govt Higher Primary School Keragudu"},"geometry":{"type":"Point","coordinates":[76.17852,12.7201633]}},{"type":"Feature","properties":{"state":"Karnataka","district":25,"district_n":"HASSAN","pc":16,"pc_name":"Hassan","ac":198,"ac_name":"Arkalgud","booth":113,"booth_name":"Govt Higher Primary School Chikkabemmathi"},"geometry":{"type":"Point","coordinates":[75.98535,12.6785545]}},{"type":"Feature","properties":{"state":"Karnataka","district":25,"district_n":"HASSAN","pc":16,"pc_name":"Hassan","ac":198,"ac_name":"Arkalgud","booth":119,"booth_name":"Govt Higher Primary School Doddamagge (right Division)"},"geometry":{"type":"Point","coordinates":[76.0809555,12.6918316]}},{"type":"Feature","properties":{"state":"Karnataka","district":25,"district_n":"HASSAN","pc":16,"pc_name":"Hassan","ac":198,"ac_name":"Arkalgud","booth":93,"booth_name":"Govt Higher Primary School School Haragodanahalli"},"geometry":{"type":"Point","coordinates":[76.2190857,12.7143049]}},{"type":"Feature","properties":{"state":"Karnataka","district":25,"district_n":"HASSAN","pc":16,"pc_name":"Hassan","ac":198,"ac_name":"Arkalgud","booth":130,"booth_name":"Govt Higher Primary School Hadya"},"geometry":{"type":"Point","coordinates":[76.21537,12.6850758]}},{"type":"Feature","properties":{"state":"Karnataka","district":25,"district_n":"HASSAN","pc":16,"pc_name":"Hassan","ac":198,"ac_name":"Arkalgud","booth":133,"booth_name":"Govt Higher Primary School Hirithalalu"},"geometry":{"type":"Point","coordinates":[76.32715,12.708271]}},{"type":"Feature","properties":{"state":"Karnataka","district":25,"district_n":"HASSAN","pc":16,"pc_name":"Hassan","ac":198,"ac_name":"Arkalgud","booth":136,"booth_name":"Govt Higher Primary School Nagaranahalli"},"geometry":{"type":"Point","coordinates":[76.3405151,12.6907434]}},{"type":"Feature","properties":{"state":"Karnataka","district":25,"district_n":"HASSAN","pc":16,"pc_name":"Hassan","ac":198,"ac_name":"Arkalgud","booth":110,"booth_name":"Govt Higher Primary School Holalagodu"},"geometry":{"type":"Point","coordinates":[75.98382,12.7189207]}},{"type":"Feature","properties":{"state":"Karnataka","district":25,"district_n":"HASSAN","pc":16,"pc_name":"Hassan","ac":198,"ac_name":"Arkalgud","booth":153,"booth_name":"Govt Lower Primary School Konapura"},"geometry":{"type":"Point","coordinates":[76.0729,12.6576881]}},{"type":"Feature","properties":{"state":"Karnataka","district":25,"district_n":"HASSAN","pc":16,"pc_name":"Hassan","ac":198,"ac_name":"Arkalgud","booth":156,"booth_name":"Govt Higher Primary School Bidarur"},"geometry":{"type":"Point","coordinates":[76.0441055,12.66495]}},{"type":"Feature","properties":{"state":"Karnataka","district":25,"district_n":"HASSAN","pc":16,"pc_name":"Hassan","ac":198,"ac_name":"Arkalgud","booth":176,"booth_name":"Govt Lower Primary School Doddahalli"},"geometry":{"type":"Point","coordinates":[76.10405,12.6516314]}},{"type":"Feature","properties":{"state":"Karnataka","district":25,"district_n":"HASSAN","pc":16,"pc_name":"Hassan","ac":198,"ac_name":"Arkalgud","booth":182,"booth_name":"Govt Higher Primary School Hanagallu"},"geometry":{"type":"Point","coordinates":[76.15447,12.6343317]}},{"type":"Feature","properties":{"state":"Karnataka","district":25,"district_n":"HASSAN","pc":16,"pc_name":"Hassan","ac":198,"ac_name":"Arkalgud","booth":185,"booth_name":"Govst Higher Primary School Kuppe"},"geometry":{"type":"Point","coordinates":[76.2028,12.6466322]}},{"type":"Feature","properties":{"state":"Karnataka","district":25,"district_n":"HASSAN","pc":16,"pc_name":"Hassan","ac":198,"ac_name":"Arkalgud","booth":70,"booth_name":"Govt Higher Primary School Muthige"},"geometry":{"type":"Point","coordinates":[76.07999,12.7424145]}},{"type":"Feature","properties":{"state":"Karnataka","district":25,"district_n":"HASSAN","pc":16,"pc_name":"Hassan","ac":198,"ac_name":"Arkalgud","booth":122,"booth_name":"Govt Higher Primary School Koratikere"},"geometry":{"type":"Point","coordinates":[76.10995,12.6811409]}},{"type":"Feature","properties":{"state":"Karnataka","district":25,"district_n":"HASSAN","pc":16,"pc_name":"Hassan","ac":198,"ac_name":"Arkalgud","booth":139,"booth_name":"Govt Higher Primary School Tejur"},"geometry":{"type":"Point","coordinates":[76.24745,12.6783352]}},{"type":"Feature","properties":{"state":"Karnataka","district":25,"district_n":"HASSAN","pc":16,"pc_name":"Hassan","ac":198,"ac_name":"Arkalgud","booth":142,"booth_name":"Govt Higher Primary School Guddenahalli"},"geometry":{"type":"Point","coordinates":[76.2248459,12.6736851]}},{"type":"Feature","properties":{"state":"Karnataka","district":25,"district_n":"HASSAN","pc":16,"pc_name":"Hassan","ac":198,"ac_name":"Arkalgud","booth":47,"booth_name":"Assistant Executive Enginer No 4, Sub Division Zilla Zilla Panchayath Enginearing Enginearing Sub Division office"},"geometry":{"type":"Point","coordinates":[76.06248,12.7633333]}},{"type":"Feature","properties":{"state":"Karnataka","district":25,"district_n":"HASSAN","pc":16,"pc_name":"Hassan","ac":198,"ac_name":"Arkalgud","booth":50,"booth_name":"Govt Higher Primary School Chikkaarkalgud"},"geometry":{"type":"Point","coordinates":[76.03426,12.7776728]}},{"type":"Feature","properties":{"state":"Karnataka","district":25,"district_n":"HASSAN","pc":16,"pc_name":"Hassan","ac":198,"ac_name":"Arkalgud","booth":59,"booth_name":"Govt Lower Primary School Budanuru"},"geometry":{"type":"Point","coordinates":[75.94752,12.7386379]}},{"type":"Feature","properties":{"state":"Karnataka","district":25,"district_n":"HASSAN","pc":16,"pc_name":"Hassan","ac":198,"ac_name":"Arkalgud","booth":215,"booth_name":"Govt Lower Primary School Shiradanahalli"},"geometry":{"type":"Point","coordinates":[76.10045,12.6086235]}},{"type":"Feature","properties":{"state":"Karnataka","district":25,"district_n":"HASSAN","pc":16,"pc_name":"Hassan","ac":198,"ac_name":"Arkalgud","booth":218,"booth_name":"Govt Lower Primary School School Vadvanahosahalli"},"geometry":{"type":"Point","coordinates":[76.06434,12.6280842]}},{"type":"Feature","properties":{"state":"Karnataka","district":25,"district_n":"HASSAN","pc":16,"pc_name":"Hassan","ac":198,"ac_name":"Arkalgud","booth":221,"booth_name":"Govt Higher Primary School Siddapura"},"geometry":{"type":"Point","coordinates":[76.0143,12.6126814]}},{"type":"Feature","properties":{"state":"Karnataka","district":25,"district_n":"HASSAN","pc":16,"pc_name":"Hassan","ac":198,"ac_name":"Arkalgud","booth":223,"booth_name":"Govt Higher Primary School Bannur (right Division)"},"geometry":{"type":"Point","coordinates":[75.91541,12.6061354]}},{"type":"Feature","properties":{"state":"Karnataka","district":25,"district_n":"HASSAN","pc":16,"pc_name":"Hassan","ac":198,"ac_name":"Arkalgud","booth":226,"booth_name":"Govt Higher Primary School Tarigalale"},"geometry":{"type":"Point","coordinates":[75.95523,12.6344509]}},{"type":"Feature","properties":{"state":"Karnataka","district":25,"district_n":"HASSAN","pc":16,"pc_name":"Hassan","ac":198,"ac_name":"Arkalgud","booth":227,"booth_name":"Divya Jyothi Jyothi H R P Colony, Bellame"},"geometry":{"type":"Point","coordinates":[75.954895,12.6095133]}},{"type":"Feature","properties":{"state":"Karnataka","district":25,"district_n":"HASSAN","pc":16,"pc_name":"Hassan","ac":198,"ac_name":"Arkalgud","booth":232,"booth_name":"Govt Higher Primary School, Madapura New Building"},"geometry":{"type":"Point","coordinates":[76.03502,12.58613]}},{"type":"Feature","properties":{"state":"Karnataka","district":25,"district_n":"HASSAN","pc":16,"pc_name":"Hassan","ac":198,"ac_name":"Arkalgud","booth":214,"booth_name":"Govt Lower Primary School, Basavapattna (boy's ) Near Hospital"},"geometry":{"type":"Point","coordinates":[76.11932,12.6146069]}},{"type":"Feature","properties":{"state":"Karnataka","district":25,"district_n":"HASSAN","pc":16,"pc_name":"Hassan","ac":198,"ac_name":"Arkalgud","booth":217,"booth_name":"Govt Higher Primary School (left Division)ramanathapura"},"geometry":{"type":"Point","coordinates":[76.08478,12.6171741]}},{"type":"Feature","properties":{"state":"Karnataka","district":25,"district_n":"HASSAN","pc":16,"pc_name":"Hassan","ac":198,"ac_name":"Arkalgud","booth":256,"booth_name":"Govt Govt Higher Primary School, Basavanahalli"},"geometry":{"type":"Point","coordinates":[76.1521759,12.5864048]}},{"type":"Feature","properties":{"state":"Karnataka","district":25,"district_n":"HASSAN","pc":16,"pc_name":"Hassan","ac":198,"ac_name":"Arkalgud","booth":179,"booth_name":"Govt Lower Primary School Tattavalu"},"geometry":{"type":"Point","coordinates":[76.1299057,12.6411619]}},{"type":"Feature","properties":{"state":"Karnataka","district":25,"district_n":"HASSAN","pc":16,"pc_name":"Hassan","ac":198,"ac_name":"Arkalgud","booth":165,"booth_name":"B S S High Konanur"},"geometry":{"type":"Point","coordinates":[76.05601,12.629056]}},{"type":"Feature","properties":{"state":"Karnataka","district":25,"district_n":"HASSAN","pc":16,"pc_name":"Hassan","ac":198,"ac_name":"Arkalgud","booth":159,"booth_name":"Govt Lower Primary School Channigarayana Abbur"},"geometry":{"type":"Point","coordinates":[75.9636459,12.6534662]}},{"type":"Feature","properties":{"state":"Karnataka","district":25,"district_n":"HASSAN","pc":16,"pc_name":"Hassan","ac":198,"ac_name":"Arkalgud","booth":20,"booth_name":"Govt Lower Primary School Basavanahalli"},"geometry":{"type":"Point","coordinates":[76.15914,12.79727]}},{"type":"Feature","properties":{"state":"Karnataka","district":25,"district_n":"HASSAN","pc":16,"pc_name":"Hassan","ac":198,"ac_name":"Arkalgud","booth":21,"booth_name":"Govt Higher Primary School Havinamaranahalli"},"geometry":{"type":"Point","coordinates":[76.31967,12.761404]}},{"type":"Feature","properties":{"state":"Karnataka","district":25,"district_n":"HASSAN","pc":16,"pc_name":"Hassan","ac":198,"ac_name":"Arkalgud","booth":32,"booth_name":"Govt Higher Primary School, Devarahalli"},"geometry":{"type":"Point","coordinates":[76.1049347,12.7676554]}},{"type":"Feature","properties":{"state":"Karnataka","district":25,"district_n":"HASSAN","pc":16,"pc_name":"Hassan","ac":198,"ac_name":"Arkalgud","booth":229,"booth_name":"Govt Higher Primary School, Hosanagara"},"geometry":{"type":"Point","coordinates":[76.00103,12.5944557]}},{"type":"Feature","properties":{"state":"Karnataka","district":25,"district_n":"HASSAN","pc":16,"pc_name":"Hassan","ac":198,"ac_name":"Arkalgud","booth":230,"booth_name":"Govt Higher Primary School, Kanthenahalli"},"geometry":{"type":"Point","coordinates":[75.98684,12.5836449]}},{"type":"Feature","properties":{"state":"Karnataka","district":25,"district_n":"HASSAN","pc":16,"pc_name":"Hassan","ac":198,"ac_name":"Arkalgud","booth":91,"booth_name":"Govt Higher Primary School Tathanahalli"},"geometry":{"type":"Point","coordinates":[76.25243,12.7107248]}},{"type":"Feature","properties":{"state":"Karnataka","district":25,"district_n":"HASSAN","pc":16,"pc_name":"Hassan","ac":198,"ac_name":"Arkalgud","booth":125,"booth_name":"Govt Higher Primary School Vddarahalli"},"geometry":{"type":"Point","coordinates":[76.14172,12.6855593]}},{"type":"Feature","properties":{"state":"Karnataka","district":25,"district_n":"HASSAN","pc":16,"pc_name":"Hassan","ac":198,"ac_name":"Arkalgud","booth":145,"booth_name":"Govt Lower Primary School, Motanayakanahalli"},"geometry":{"type":"Point","coordinates":[76.20103,12.6716166]}},{"type":"Feature","properties":{"state":"Karnataka","district":25,"district_n":"HASSAN","pc":16,"pc_name":"Hassan","ac":198,"ac_name":"Arkalgud","booth":228,"booth_name":"Govt Higher Primary School, Kadanuru"},"geometry":{"type":"Point","coordinates":[75.98758,12.59554]}},{"type":"Feature","properties":{"state":"Karnataka","district":25,"district_n":"HASSAN","pc":16,"pc_name":"Hassan","ac":198,"ac_name":"Arkalgud","booth":116,"booth_name":"Govt Higher Primary School, Hegadihalli"},"geometry":{"type":"Point","coordinates":[76.02728,12.68164]}},{"type":"Feature","properties":{"state":"Karnataka","district":25,"district_n":"HASSAN","pc":16,"pc_name":"Hassan","ac":198,"ac_name":"Arkalgud","booth":184,"booth_name":"Govt Lower Primary School Padavalakoppalu"},"geometry":{"type":"Point","coordinates":[76.2028,12.6466322]}},{"type":"Feature","properties":{"state":"Karnataka","district":25,"district_n":"HASSAN","pc":16,"pc_name":"Hassan","ac":198,"ac_name":"Arkalgud","booth":186,"booth_name":"Govt Higher Primary School Bidarakka"},"geometry":{"type":"Point","coordinates":[76.2028,12.6466322]}},{"type":"Feature","properties":{"state":"Karnataka","district":25,"district_n":"HASSAN","pc":16,"pc_name":"Hassan","ac":198,"ac_name":"Arkalgud","booth":203,"booth_name":"Govt Lower Primary School Elegowdanakoppalu"},"geometry":{"type":"Point","coordinates":[76.24507,12.6471672]}},{"type":"Feature","properties":{"state":"Karnataka","district":25,"district_n":"HASSAN","pc":16,"pc_name":"Hassan","ac":198,"ac_name":"Arkalgud","booth":193,"booth_name":"Govt Lower Primary School Gohally"},"geometry":{"type":"Point","coordinates":[76.26605,12.6575937]}},{"type":"Feature","properties":{"state":"Karnataka","district":25,"district_n":"HASSAN","pc":16,"pc_name":"Hassan","ac":198,"ac_name":"Arkalgud","booth":199,"booth_name":"Govt Higher Primary School Anekannambadi"},"geometry":{"type":"Point","coordinates":[76.2993851,12.6401234]}},{"type":"Feature","properties":{"state":"Karnataka","district":25,"district_n":"HASSAN","pc":16,"pc_name":"Hassan","ac":198,"ac_name":"Arkalgud","booth":260,"booth_name":"Govt Govt Higher Primary School, Kadavinahosahalli"},"geometry":{"type":"Point","coordinates":[76.0177841,12.5759106]}},{"type":"Feature","properties":{"state":"Karnataka","district":25,"district_n":"HASSAN","pc":16,"pc_name":"Hassan","ac":198,"ac_name":"Arkalgud","booth":239,"booth_name":"Govt Lower Primary School, Jannegowdanahosahalli"},"geometry":{"type":"Point","coordinates":[76.0937347,12.59146]}},{"type":"Feature","properties":{"state":"Karnataka","district":25,"district_n":"HASSAN","pc":16,"pc_name":"Hassan","ac":198,"ac_name":"Arkalgud","booth":236,"booth_name":"Govt Higher Priamry School Gangur (left Wing)"},"geometry":{"type":"Point","coordinates":[76.08238,12.5800257]}},{"type":"Feature","properties":{"state":"Karnataka","district":25,"district_n":"HASSAN","pc":16,"pc_name":"Hassan","ac":198,"ac_name":"Arkalgud","booth":262,"booth_name":"Govt Govt Higher Primary School, Sompura"},"geometry":{"type":"Point","coordinates":[76.1152954,12.5572824]}},{"type":"Feature","properties":{"state":"Karnataka","district":25,"district_n":"HASSAN","pc":16,"pc_name":"Hassan","ac":198,"ac_name":"Arkalgud","booth":259,"booth_name":"Govt Govt Higher Primary School, Hannyalu"},"geometry":{"type":"Point","coordinates":[76.11767,12.5771627]}},{"type":"Feature","properties":{"state":"Karnataka","district":25,"district_n":"HASSAN","pc":16,"pc_name":"Hassan","ac":198,"ac_name":"Arkalgud","booth":35,"booth_name":"Govt Lower Primary School , Nelamane"},"geometry":{"type":"Point","coordinates":[76.085144,12.77761]}},{"type":"Feature","properties":{"state":"Karnataka","district":25,"district_n":"HASSAN","pc":16,"pc_name":"Hassan","ac":198,"ac_name":"Arkalgud","booth":34,"booth_name":"Govt Lower Primary School Dadadahalli"},"geometry":{"type":"Point","coordinates":[76.0931244,12.7529039]}},{"type":"Feature","properties":{"state":"Karnataka","district":25,"district_n":"HASSAN","pc":16,"pc_name":"Hassan","ac":198,"ac_name":"Arkalgud","booth":33,"booth_name":"Govt Lower Lower Primary School Shanavinakuppe"},"geometry":{"type":"Point","coordinates":[76.1055,12.750412]}},{"type":"Feature","properties":{"state":"Karnataka","district":25,"district_n":"HASSAN","pc":16,"pc_name":"Hassan","ac":198,"ac_name":"Arkalgud","booth":36,"booth_name":"Govt Higher Primary School Honnavalli"},"geometry":{"type":"Point","coordinates":[76.08348,12.7681913]}},{"type":"Feature","properties":{"state":"Karnataka","district":25,"district_n":"HASSAN","pc":16,"pc_name":"Hassan","ac":198,"ac_name":"Arkalgud","booth":264,"booth_name":"Govt Govt Lower Primary School, Kanthapura"},"geometry":{"type":"Point","coordinates":[76.14567,12.5727854]}},{"type":"Feature","properties":{"state":"Karnataka","district":25,"district_n":"HASSAN","pc":16,"pc_name":"Hassan","ac":198,"ac_name":"Arkalgud","booth":207,"booth_name":"Govt Lower Primary School Malanayakanahalli"},"geometry":{"type":"Point","coordinates":[76.16325,12.6080542]}},{"type":"Feature","properties":{"state":"Karnataka","district":25,"district_n":"HASSAN","pc":16,"pc_name":"Hassan","ac":198,"ac_name":"Arkalgud","booth":209,"booth_name":"Govt Lower Primary School, Yachanakuppe"},"geometry":{"type":"Point","coordinates":[76.1572952,12.6191216]}},{"type":"Feature","properties":{"state":"Karnataka","district":25,"district_n":"HASSAN","pc":16,"pc_name":"Hassan","ac":198,"ac_name":"Arkalgud","booth":246,"booth_name":"Govt Lower Primary School, Mangalavadi"},"geometry":{"type":"Point","coordinates":[76.25876,12.6321859]}},{"type":"Feature","properties":{"state":"Karnataka","district":25,"district_n":"HASSAN","pc":16,"pc_name":"Hassan","ac":198,"ac_name":"Arkalgud","booth":90,"booth_name":"Govt Lower Primary School C Hindalahalli"},"geometry":{"type":"Point","coordinates":[76.2874146,12.708415]}},{"type":"Feature","properties":{"state":"Karnataka","district":25,"district_n":"HASSAN","pc":16,"pc_name":"Hassan","ac":198,"ac_name":"Arkalgud","booth":96,"booth_name":"Govt Lower Primary School Gopanahalli"},"geometry":{"type":"Point","coordinates":[76.1992,12.7062912]}},{"type":"Feature","properties":{"state":"Karnataka","district":25,"district_n":"HASSAN","pc":16,"pc_name":"Hassan","ac":198,"ac_name":"Arkalgud","booth":19,"booth_name":"Govt Lower Primary School Haradoor"},"geometry":{"type":"Point","coordinates":[76.1632,12.8192663]}},{"type":"Feature","properties":{"state":"Karnataka","district":25,"district_n":"HASSAN","pc":16,"pc_name":"Hassan","ac":198,"ac_name":"Arkalgud","booth":213,"booth_name":"Government P Pu Pu College (left Division)"},"geometry":{"type":"Point","coordinates":[76.11885,12.6160583]}},{"type":"Feature","properties":{"state":"Karnataka","district":25,"district_n":"HASSAN","pc":16,"pc_name":"Hassan","ac":198,"ac_name":"Arkalgud","booth":196,"booth_name":"Govt Higher Primary School Yadegowdanahalli"},"geometry":{"type":"Point","coordinates":[76.3120651,12.6614351]}},{"type":"Feature","properties":{"state":"Karnataka","district":25,"district_n":"HASSAN","pc":16,"pc_name":"Hassan","ac":198,"ac_name":"Arkalgud","booth":10,"booth_name":"Govt Higher Primary School Athini"},"geometry":{"type":"Point","coordinates":[76.09817,12.80898]}},{"type":"Feature","properties":{"state":"Karnataka","district":25,"district_n":"HASSAN","pc":16,"pc_name":"Hassan","ac":198,"ac_name":"Arkalgud","booth":231,"booth_name":"Govt Higher Primary School, Sheegodu"},"geometry":{"type":"Point","coordinates":[76.02409,12.5977211]}},{"type":"Feature","properties":{"state":"Karnataka","district":25,"district_n":"HASSAN","pc":16,"pc_name":"Hassan","ac":198,"ac_name":"Arkalgud","booth":216,"booth_name":"Govt Higher Primary School Ramanathapura (right Division)"},"geometry":{"type":"Point","coordinates":[76.0847855,12.6172609]}}]}