{"type":"FeatureCollection","features":[{"type":"Feature","properties":{"state":"Karnataka","district":25,"district_n":"HASSAN","pc":16,"pc_name":"Hassan","ac":199,"ac_name":"Sakleshpur","booth":1,"booth_name":"Govt Higher Primary School, Devaladakere, (near Gramapanchayat Office)"},"geometry":{"type":"Point","coordinates":[75.65286,13.0054159]}},{"type":"Feature","properties":{"state":"Karnataka","district":25,"district_n":"HASSAN","pc":16,"pc_name":"Hassan","ac":199,"ac_name":"Sakleshpur","booth":2,"booth_name":"Govt Govt Higher Primary School, Hurudi"},"geometry":{"type":"Point","coordinates":[75.69531,13.03013]}},{"type":"Feature","properties":{"state":"Karnataka","district":25,"district_n":"HASSAN","pc":16,"pc_name":"Hassan","ac":199,"ac_name":"Sakleshpur","booth":4,"booth_name":"Govt Govt High School, Hanubalu"},"geometry":{"type":"Point","coordinates":[75.69896,13.005826]}},{"type":"Feature","properties":{"state":"Karnataka","district":25,"district_n":"HASSAN","pc":16,"pc_name":"Hassan","ac":199,"ac_name":"Sakleshpur","booth":5,"booth_name":"Govt Lower Primary School, Acharadi"},"geometry":{"type":"Point","coordinates":[75.7172852,13.0286427]}},{"type":"Feature","properties":{"state":"Karnataka","district":25,"district_n":"HASSAN","pc":16,"pc_name":"Hassan","ac":199,"ac_name":"Sakleshpur","booth":7,"booth_name":"Govt Lower Primary School, Madanapura"},"geometry":{"type":"Point","coordinates":[75.7331848,12.9924984]}},{"type":"Feature","properties":{"state":"Karnataka","district":25,"district_n":"HASSAN","pc":16,"pc_name":"Hassan","ac":199,"ac_name":"Sakleshpur","booth":8,"booth_name":"Govt Higher Primary School, Mavinahalli"},"geometry":{"type":"Point","coordinates":[75.74346,12.9883471]}},{"type":"Feature","properties":{"state":"Karnataka","district":25,"district_n":"HASSAN","pc":16,"pc_name":"Hassan","ac":199,"ac_name":"Sakleshpur","booth":10,"booth_name":"Govt Govt Higher Primary School, (north Wing) Kelagalale"},"geometry":{"type":"Point","coordinates":[75.7905655,12.9904318]}},{"type":"Feature","properties":{"state":"Karnataka","district":25,"district_n":"HASSAN","pc":16,"pc_name":"Hassan","ac":199,"ac_name":"Sakleshpur","booth":13,"booth_name":"Govt Govt Lower Primary School, Kallahalli Balagodu (h) Kushalanagara"},"geometry":{"type":"Point","coordinates":[75.83212,13.0128479]}},{"type":"Feature","properties":{"state":"Karnataka","district":25,"district_n":"HASSAN","pc":16,"pc_name":"Hassan","ac":199,"ac_name":"Sakleshpur","booth":16,"booth_name":"Govt Govt Higher Primary School, Hebbanahalli"},"geometry":{"type":"Point","coordinates":[75.85129,12.9962568]}},{"type":"Feature","properties":{"state":"Karnataka","district":25,"district_n":"HASSAN","pc":16,"pc_name":"Hassan","ac":199,"ac_name":"Sakleshpur","booth":19,"booth_name":"Govt Govt Lower Primary School, Belame"},"geometry":{"type":"Point","coordinates":[75.89603,12.9923239]}},{"type":"Feature","properties":{"state":"Karnataka","district":25,"district_n":"HASSAN","pc":16,"pc_name":"Hassan","ac":199,"ac_name":"Sakleshpur","booth":21,"booth_name":"Govt Govt Lower Primary School, Hunase"},"geometry":{"type":"Point","coordinates":[75.90679,13.0287952]}},{"type":"Feature","properties":{"state":"Karnataka","district":25,"district_n":"HASSAN","pc":16,"pc_name":"Hassan","ac":199,"ac_name":"Sakleshpur","booth":22,"booth_name":"Govt Govt Lower Primary School, Samudravalli"},"geometry":{"type":"Point","coordinates":[75.92619,13.0543]}},{"type":"Feature","properties":{"state":"Karnataka","district":25,"district_n":"HASSAN","pc":16,"pc_name":"Hassan","ac":199,"ac_name":"Sakleshpur","booth":24,"booth_name":"Govt Govt Lower Primary School, Thaluru"},"geometry":{"type":"Point","coordinates":[75.93675,13.0359449]}},{"type":"Feature","properties":{"state":"Karnataka","district":25,"district_n":"HASSAN","pc":16,"pc_name":"Hassan","ac":199,"ac_name":"Sakleshpur","booth":25,"booth_name":"Govt Govt Lower Primary School, Halluvalli Colony"},"geometry":{"type":"Point","coordinates":[75.94224,13.0190268]}},{"type":"Feature","properties":{"state":"Karnataka","district":25,"district_n":"HASSAN","pc":16,"pc_name":"Hassan","ac":199,"ac_name":"Sakleshpur","booth":27,"booth_name":"Govt Govt Higher Primary School, Madabalu"},"geometry":{"type":"Point","coordinates":[75.9174042,12.9882364]}},{"type":"Feature","properties":{"state":"Karnataka","district":25,"district_n":"HASSAN","pc":16,"pc_name":"Hassan","ac":199,"ac_name":"Sakleshpur","booth":28,"booth_name":"Govt Govt Higher Primary School, Muraduru"},"geometry":{"type":"Point","coordinates":[75.94028,12.9851923]}},{"type":"Feature","properties":{"state":"Karnataka","district":25,"district_n":"HASSAN","pc":16,"pc_name":"Hassan","ac":199,"ac_name":"Sakleshpur","booth":33,"booth_name":"Govt Govt Samyuktha High School, (primary School Division)doddakanagalu"},"geometry":{"type":"Point","coordinates":[76.00335,13.0190115]}},{"type":"Feature","properties":{"state":"Karnataka","district":25,"district_n":"HASSAN","pc":16,"pc_name":"Hassan","ac":199,"ac_name":"Sakleshpur","booth":36,"booth_name":"Govt Govt Lower Primary School, Kirahalli"},"geometry":{"type":"Point","coordinates":[75.9951859,12.9920835]}},{"type":"Feature","properties":{"state":"Karnataka","district":25,"district_n":"HASSAN","pc":16,"pc_name":"Hassan","ac":199,"ac_name":"Sakleshpur","booth":39,"booth_name":"Govt Govt Lower Primary School, Hosapura"},"geometry":{"type":"Point","coordinates":[76.00696,13.00642]}},{"type":"Feature","properties":{"state":"Karnataka","district":25,"district_n":"HASSAN","pc":16,"pc_name":"Hassan","ac":199,"ac_name":"Sakleshpur","booth":41,"booth_name":"Govt Higher Primary School, Rajanahalli"},"geometry":{"type":"Point","coordinates":[76.025116,13.0096312]}},{"type":"Feature","properties":{"state":"Karnataka","district":25,"district_n":"HASSAN","pc":16,"pc_name":"Hassan","ac":199,"ac_name":"Sakleshpur","booth":42,"booth_name":"Govt Govt Higher Primary School, Kavalikere"},"geometry":{"type":"Point","coordinates":[76.03364,13.0033779]}},{"type":"Feature","properties":{"state":"Karnataka","district":25,"district_n":"HASSAN","pc":16,"pc_name":"Hassan","ac":199,"ac_name":"Sakleshpur","booth":44,"booth_name":"Govt Govt Lower Primary School, (east Division) Uppalli"},"geometry":{"type":"Point","coordinates":[76.0409546,12.9690037]}},{"type":"Feature","properties":{"state":"Karnataka","district":25,"district_n":"HASSAN","pc":16,"pc_name":"Hassan","ac":199,"ac_name":"Sakleshpur","booth":45,"booth_name":"Govt Govt Higher Primary School, Kirugadalu (new Building)"},"geometry":{"type":"Point","coordinates":[76.0343857,12.96009]}},{"type":"Feature","properties":{"state":"Karnataka","district":25,"district_n":"HASSAN","pc":16,"pc_name":"Hassan","ac":199,"ac_name":"Sakleshpur","booth":47,"booth_name":"Govt Govt Lower Primary School, Rayasamudra"},"geometry":{"type":"Point","coordinates":[76.01083,12.9511]}},{"type":"Feature","properties":{"state":"Karnataka","district":25,"district_n":"HASSAN","pc":16,"pc_name":"Hassan","ac":199,"ac_name":"Sakleshpur","booth":48,"booth_name":"Govt Govt Higher Primary School, Hosuru (new Building)"},"geometry":{"type":"Point","coordinates":[76.00406,12.9582043]}},{"type":"Feature","properties":{"state":"Karnataka","district":25,"district_n":"HASSAN","pc":16,"pc_name":"Hassan","ac":199,"ac_name":"Sakleshpur","booth":50,"booth_name":"Govt Govt Urdu Higher Primary School, Alur"},"geometry":{"type":"Point","coordinates":[75.98501,12.9758873]}},{"type":"Feature","properties":{"state":"Karnataka","district":25,"district_n":"HASSAN","pc":16,"pc_name":"Hassan","ac":199,"ac_name":"Sakleshpur","booth":53,"booth_name":"Taluk Panchayath Office, Alur"},"geometry":{"type":"Point","coordinates":[75.9911041,12.9777021]}},{"type":"Feature","properties":{"state":"Karnataka","district":25,"district_n":"HASSAN","pc":16,"pc_name":"Hassan","ac":199,"ac_name":"Sakleshpur","booth":56,"booth_name":"Govt Govt Lower Primary School, Kenchanahalli"},"geometry":{"type":"Point","coordinates":[75.99523,13.1271381]}},{"type":"Feature","properties":{"state":"Karnataka","district":25,"district_n":"HASSAN","pc":16,"pc_name":"Hassan","ac":199,"ac_name":"Sakleshpur","booth":59,"booth_name":"Govt Govt Lower Primary School, Heddurga"},"geometry":{"type":"Point","coordinates":[75.91495,12.972702]}},{"type":"Feature","properties":{"state":"Karnataka","district":25,"district_n":"HASSAN","pc":16,"pc_name":"Hassan","ac":199,"ac_name":"Sakleshpur","booth":62,"booth_name":"Govt Govt Higher Primary School, Yadehalli"},"geometry":{"type":"Point","coordinates":[75.86807,12.9541349]}},{"type":"Feature","properties":{"state":"Karnataka","district":25,"district_n":"HASSAN","pc":16,"pc_name":"Hassan","ac":199,"ac_name":"Sakleshpur","booth":64,"booth_name":"Govt Govt Urdu Lower Primary School, Golagunde"},"geometry":{"type":"Point","coordinates":[75.86115,12.9730158]}},{"type":"Feature","properties":{"state":"Karnataka","district":25,"district_n":"HASSAN","pc":16,"pc_name":"Hassan","ac":199,"ac_name":"Sakleshpur","booth":65,"booth_name":"Govt Govt Higher Primary School, Kendanamane"},"geometry":{"type":"Point","coordinates":[75.8434,12.9701986]}},{"type":"Feature","properties":{"state":"Karnataka","district":25,"district_n":"HASSAN","pc":16,"pc_name":"Hassan","ac":199,"ac_name":"Sakleshpur","booth":67,"booth_name":"Govt Govt Higher Primary School, Kollahalli"},"geometry":{"type":"Point","coordinates":[75.8157654,12.9477425]}},{"type":"Feature","properties":{"state":"Karnataka","district":25,"district_n":"HASSAN","pc":16,"pc_name":"Hassan","ac":199,"ac_name":"Sakleshpur","booth":68,"booth_name":"Govt Govt Higher Primary School, Halasulige"},"geometry":{"type":"Point","coordinates":[75.8117142,12.9729013]}},{"type":"Feature","properties":{"state":"Karnataka","district":25,"district_n":"HASSAN","pc":16,"pc_name":"Hassan","ac":199,"ac_name":"Sakleshpur","booth":70,"booth_name":"Govt Govt Higher Primary School, Achangi"},"geometry":{"type":"Point","coordinates":[75.79727,12.95825]}},{"type":"Feature","properties":{"state":"Karnataka","district":25,"district_n":"HASSAN","pc":16,"pc_name":"Hassan","ac":199,"ac_name":"Sakleshpur","booth":71,"booth_name":"G H P S, kudugarahalli"},"geometry":{"type":"Point","coordinates":[75.80442,12.9552956]}},{"type":"Feature","properties":{"state":"Karnataka","district":25,"district_n":"HASSAN","pc":16,"pc_name":"Hassan","ac":199,"ac_name":"Sakleshpur","booth":73,"booth_name":"G M H P S,agrahara  (south Wing)sakaleshapura Town"},"geometry":{"type":"Point","coordinates":[75.80035,12.9475317]}},{"type":"Feature","properties":{"state":"Karnataka","district":25,"district_n":"HASSAN","pc":16,"pc_name":"Hassan","ac":199,"ac_name":"Sakleshpur","booth":76,"booth_name":"G M H P S,sakaleshapura"},"geometry":{"type":"Point","coordinates":[75.78652,12.9455624]}},{"type":"Feature","properties":{"state":"Karnataka","district":25,"district_n":"HASSAN","pc":16,"pc_name":"Hassan","ac":199,"ac_name":"Sakleshpur","booth":79,"booth_name":"St Joseph High School, Sakaleshapura"},"geometry":{"type":"Point","coordinates":[75.7789841,12.941638]}},{"type":"Feature","properties":{"state":"Karnataka","district":25,"district_n":"HASSAN","pc":16,"pc_name":"Hassan","ac":199,"ac_name":"Sakleshpur","booth":82,"booth_name":"G U B H P S Sakaleshapura Town"},"geometry":{"type":"Point","coordinates":[75.7832642,12.9430237]}},{"type":"Feature","properties":{"state":"Karnataka","district":25,"district_n":"HASSAN","pc":16,"pc_name":"Hassan","ac":199,"ac_name":"Sakleshpur","booth":84,"booth_name":"B S Nanjappa Children's Community Hall, Sakaleshapura Town"},"geometry":{"type":"Point","coordinates":[75.78586,12.9456711]}},{"type":"Feature","properties":{"state":"Karnataka","district":25,"district_n":"HASSAN","pc":16,"pc_name":"Hassan","ac":199,"ac_name":"Sakleshpur","booth":85,"booth_name":"Muncipal  Shishuvihara Building , Kushalanagara Sakaleshapura"},"geometry":{"type":"Point","coordinates":[75.7847,12.94058]}},{"type":"Feature","properties":{"state":"Karnataka","district":25,"district_n":"HASSAN","pc":16,"pc_name":"Hassan","ac":199,"ac_name":"Sakleshpur","booth":87,"booth_name":"G L P S S Dodda Nagara"},"geometry":{"type":"Point","coordinates":[75.77835,12.9587336]}},{"type":"Feature","properties":{"state":"Karnataka","district":25,"district_n":"HASSAN","pc":16,"pc_name":"Hassan","ac":199,"ac_name":"Sakleshpur","booth":88,"booth_name":"G H P S,ganadahole ( North Wing)"},"geometry":{"type":"Point","coordinates":[75.7410049,12.96072]}},{"type":"Feature","properties":{"state":"Karnataka","district":25,"district_n":"HASSAN","pc":16,"pc_name":"Hassan","ac":199,"ac_name":"Sakleshpur","booth":90,"booth_name":"G H P S, Hebbasale"},"geometry":{"type":"Point","coordinates":[75.75936,12.9414406]}},{"type":"Feature","properties":{"state":"Karnataka","district":25,"district_n":"HASSAN","pc":16,"pc_name":"Hassan","ac":199,"ac_name":"Sakleshpur","booth":91,"booth_name":"G H P S,, Ganada Hole, ( South Wing)"},"geometry":{"type":"Point","coordinates":[75.74095,12.9606314]}},{"type":"Feature","properties":{"state":"Karnataka","district":25,"district_n":"HASSAN","pc":16,"pc_name":"Hassan","ac":199,"ac_name":"Sakleshpur","booth":93,"booth_name":"G L P S,jambaradi"},"geometry":{"type":"Point","coordinates":[75.7109451,12.9769258]}},{"type":"Feature","properties":{"state":"Karnataka","district":25,"district_n":"HASSAN","pc":16,"pc_name":"Hassan","ac":199,"ac_name":"Sakleshpur","booth":96,"booth_name":"G H P S, Achanahally"},"geometry":{"type":"Point","coordinates":[75.66408,12.9879417]}},{"type":"Feature","properties":{"state":"Karnataka","district":25,"district_n":"HASSAN","pc":16,"pc_name":"Hassan","ac":199,"ac_name":"Sakleshpur","booth":99,"booth_name":"G H P S, Manjenahalli  Kadumane Estate"},"geometry":{"type":"Point","coordinates":[75.67081,12.9084806]}},{"type":"Feature","properties":{"state":"Karnataka","district":25,"district_n":"HASSAN","pc":16,"pc_name":"Hassan","ac":199,"ac_name":"Sakleshpur","booth":110,"booth_name":"G H P S,   Malali"},"geometry":{"type":"Point","coordinates":[75.7987,12.9317017]}},{"type":"Feature","properties":{"state":"Karnataka","district":25,"district_n":"HASSAN","pc":16,"pc_name":"Hassan","ac":199,"ac_name":"Sakleshpur","booth":111,"booth_name":"G L P S, Matasagara"},"geometry":{"type":"Point","coordinates":[75.83068,12.9476156]}},{"type":"Feature","properties":{"state":"Karnataka","district":25,"district_n":"HASSAN","pc":16,"pc_name":"Hassan","ac":199,"ac_name":"Sakleshpur","booth":113,"booth_name":"G H P S,   Hale Beluru"},"geometry":{"type":"Point","coordinates":[75.81626,12.9187326]}},{"type":"Feature","properties":{"state":"Karnataka","district":25,"district_n":"HASSAN","pc":16,"pc_name":"Hassan","ac":199,"ac_name":"Sakleshpur","booth":116,"booth_name":"G H,p S S Kuniganahally"},"geometry":{"type":"Point","coordinates":[75.86402,12.8975859]}},{"type":"Feature","properties":{"state":"Karnataka","district":25,"district_n":"HASSAN","pc":16,"pc_name":"Hassan","ac":199,"ac_name":"Sakleshpur","booth":119,"booth_name":"G H P S,   Bage"},"geometry":{"type":"Point","coordinates":[75.85229,12.9541273]}},{"type":"Feature","properties":{"state":"Karnataka","district":25,"district_n":"HASSAN","pc":16,"pc_name":"Hassan","ac":199,"ac_name":"Sakleshpur","booth":122,"booth_name":"G H P S   Chikkanayakana Halli"},"geometry":{"type":"Point","coordinates":[75.900444,12.9448]}},{"type":"Feature","properties":{"state":"Karnataka","district":25,"district_n":"HASSAN","pc":16,"pc_name":"Hassan","ac":199,"ac_name":"Sakleshpur","booth":124,"booth_name":"G H P S,  Nidanuru"},"geometry":{"type":"Point","coordinates":[75.91099,12.9407949]}},{"type":"Feature","properties":{"state":"Karnataka","district":25,"district_n":"HASSAN","pc":16,"pc_name":"Hassan","ac":199,"ac_name":"Sakleshpur","booth":125,"booth_name":"G H P S    Chinnahalli  ( Jinigaravalli)"},"geometry":{"type":"Point","coordinates":[75.88999,12.9082394]}},{"type":"Feature","properties":{"state":"Karnataka","district":25,"district_n":"HASSAN","pc":16,"pc_name":"Hassan","ac":199,"ac_name":"Sakleshpur","booth":127,"booth_name":"G H P S ,  Malagalale"},"geometry":{"type":"Point","coordinates":[75.88866,12.8850069]}},{"type":"Feature","properties":{"state":"Karnataka","district":25,"district_n":"HASSAN","pc":16,"pc_name":"Hassan","ac":199,"ac_name":"Sakleshpur","booth":128,"booth_name":"G L L P S Anigalale"},"geometry":{"type":"Point","coordinates":[75.8774643,12.890707]}},{"type":"Feature","properties":{"state":"Karnataka","district":25,"district_n":"HASSAN","pc":16,"pc_name":"Hassan","ac":199,"ac_name":"Sakleshpur","booth":130,"booth_name":"G L P S    Chigalur"},"geometry":{"type":"Point","coordinates":[75.92846,12.9348183]}},{"type":"Feature","properties":{"state":"Karnataka","district":25,"district_n":"HASSAN","pc":16,"pc_name":"Hassan","ac":199,"ac_name":"Sakleshpur","booth":131,"booth_name":"G H H P S (sakaleshapura Road ), Honnavalli"},"geometry":{"type":"Point","coordinates":[75.92101,12.9540186]}},{"type":"Feature","properties":{"state":"Karnataka","district":25,"district_n":"HASSAN","pc":16,"pc_name":"Hassan","ac":199,"ac_name":"Sakleshpur","booth":102,"booth_name":"G H P S, Kumbaradi"},"geometry":{"type":"Point","coordinates":[75.72709,12.9294243]}},{"type":"Feature","properties":{"state":"Karnataka","district":25,"district_n":"HASSAN","pc":16,"pc_name":"Hassan","ac":199,"ac_name":"Sakleshpur","booth":104,"booth_name":"G L P S, Kowdahalli"},"geometry":{"type":"Point","coordinates":[75.7804947,12.92985]}},{"type":"Feature","properties":{"state":"Karnataka","district":25,"district_n":"HASSAN","pc":16,"pc_name":"Hassan","ac":199,"ac_name":"Sakleshpur","booth":105,"booth_name":"G H P S,  Donigal"},"geometry":{"type":"Point","coordinates":[75.755806,12.9153709]}},{"type":"Feature","properties":{"state":"Karnataka","district":25,"district_n":"HASSAN","pc":16,"pc_name":"Hassan","ac":199,"ac_name":"Sakleshpur","booth":107,"booth_name":"G H P S,  Arekere"},"geometry":{"type":"Point","coordinates":[75.7784348,12.89231]}},{"type":"Feature","properties":{"state":"Karnataka","district":25,"district_n":"HASSAN","pc":16,"pc_name":"Hassan","ac":199,"ac_name":"Sakleshpur","booth":108,"booth_name":"G L P S    Janekere"},"geometry":{"type":"Point","coordinates":[75.78222,12.90071]}},{"type":"Feature","properties":{"state":"Karnataka","district":25,"district_n":"HASSAN","pc":16,"pc_name":"Hassan","ac":199,"ac_name":"Sakleshpur","booth":133,"booth_name":"G H P S S Nallur"},"geometry":{"type":"Point","coordinates":[75.94483,12.9086037]}},{"type":"Feature","properties":{"state":"Karnataka","district":25,"district_n":"HASSAN","pc":16,"pc_name":"Hassan","ac":199,"ac_name":"Sakleshpur","booth":134,"booth_name":"G H P S   Shingodanahalli"},"geometry":{"type":"Point","coordinates":[75.94052,12.9246492]}},{"type":"Feature","properties":{"state":"Karnataka","district":25,"district_n":"HASSAN","pc":16,"pc_name":"Hassan","ac":199,"ac_name":"Sakleshpur","booth":136,"booth_name":"G H P S S Singapura"},"geometry":{"type":"Point","coordinates":[75.96246,12.94612]}},{"type":"Feature","properties":{"state":"Karnataka","district":25,"district_n":"HASSAN","pc":16,"pc_name":"Hassan","ac":199,"ac_name":"Sakleshpur","booth":139,"booth_name":"G H P S S Sindhuvalli"},"geometry":{"type":"Point","coordinates":[75.955864,12.90245]}},{"type":"Feature","properties":{"state":"Karnataka","district":25,"district_n":"HASSAN","pc":16,"pc_name":"Hassan","ac":199,"ac_name":"Sakleshpur","booth":145,"booth_name":"G L P S   Kadabagala"},"geometry":{"type":"Point","coordinates":[75.9980545,12.9075661]}},{"type":"Feature","properties":{"state":"Karnataka","district":25,"district_n":"HASSAN","pc":16,"pc_name":"Hassan","ac":199,"ac_name":"Sakleshpur","booth":147,"booth_name":"Govt Samyuktha High School (primary School Division) Kadalu"},"geometry":{"type":"Point","coordinates":[76.0244446,12.9417515]}},{"type":"Feature","properties":{"state":"Karnataka","district":25,"district_n":"HASSAN","pc":16,"pc_name":"Hassan","ac":199,"ac_name":"Sakleshpur","booth":148,"booth_name":"G H P S,  Kallahalli"},"geometry":{"type":"Point","coordinates":[76.03601,12.890708]}},{"type":"Feature","properties":{"state":"Karnataka","district":25,"district_n":"HASSAN","pc":16,"pc_name":"Hassan","ac":199,"ac_name":"Sakleshpur","booth":150,"booth_name":"G H P S Dundanayakanahalli"},"geometry":{"type":"Point","coordinates":[76.04713,12.912962]}},{"type":"Feature","properties":{"state":"Karnataka","district":25,"district_n":"HASSAN","pc":16,"pc_name":"Hassan","ac":199,"ac_name":"Sakleshpur","booth":162,"booth_name":"G L P S   Jakkana Halli  Koppalu"},"geometry":{"type":"Point","coordinates":[76.41716,12.92864]}},{"type":"Feature","properties":{"state":"Karnataka","district":25,"district_n":"HASSAN","pc":16,"pc_name":"Hassan","ac":199,"ac_name":"Sakleshpur","booth":165,"booth_name":"G H P S Ankapura"},"geometry":{"type":"Point","coordinates":[76.1203842,12.8702]}},{"type":"Feature","properties":{"state":"Karnataka","district":25,"district_n":"HASSAN","pc":16,"pc_name":"Hassan","ac":199,"ac_name":"Sakleshpur","booth":167,"booth_name":"G H P S Malledevarapura"},"geometry":{"type":"Point","coordinates":[76.13472,12.8535786]}},{"type":"Feature","properties":{"state":"Karnataka","district":25,"district_n":"HASSAN","pc":16,"pc_name":"Hassan","ac":199,"ac_name":"Sakleshpur","booth":168,"booth_name":"G H P S Kabbathi"},"geometry":{"type":"Point","coordinates":[76.10992,12.8639717]}},{"type":"Feature","properties":{"state":"Karnataka","district":25,"district_n":"HASSAN","pc":16,"pc_name":"Hassan","ac":199,"ac_name":"Sakleshpur","booth":170,"booth_name":"G L P S Ginnenahalli"},"geometry":{"type":"Point","coordinates":[76.08108,12.8625851]}},{"type":"Feature","properties":{"state":"Karnataka","district":25,"district_n":"HASSAN","pc":16,"pc_name":"Hassan","ac":199,"ac_name":"Sakleshpur","booth":171,"booth_name":"G H P S Byadarahalli"},"geometry":{"type":"Point","coordinates":[76.084404,12.8217621]}},{"type":"Feature","properties":{"state":"Karnataka","district":25,"district_n":"HASSAN","pc":16,"pc_name":"Hassan","ac":199,"ac_name":"Sakleshpur","booth":173,"booth_name":"G H P S Kallare Koppalu ( Kattaya)"},"geometry":{"type":"Point","coordinates":[76.0741959,12.8890553]}},{"type":"Feature","properties":{"state":"Karnataka","district":25,"district_n":"HASSAN","pc":16,"pc_name":"Hassan","ac":199,"ac_name":"Sakleshpur","booth":174,"booth_name":"G L P S Muddanahalli"},"geometry":{"type":"Point","coordinates":[76.04384,12.8901834]}},{"type":"Feature","properties":{"state":"Karnataka","district":25,"district_n":"HASSAN","pc":16,"pc_name":"Hassan","ac":199,"ac_name":"Sakleshpur","booth":185,"booth_name":"G M H P S Rayara Koppalu  (north wing )"},"geometry":{"type":"Point","coordinates":[75.92484,12.8543463]}},{"type":"Feature","properties":{"state":"Karnataka","district":25,"district_n":"HASSAN","pc":16,"pc_name":"Hassan","ac":199,"ac_name":"Sakleshpur","booth":187,"booth_name":"G L  P S Bosmanahalli"},"geometry":{"type":"Point","coordinates":[75.8916855,12.8774214]}},{"type":"Feature","properties":{"state":"Karnataka","district":25,"district_n":"HASSAN","pc":16,"pc_name":"Hassan","ac":199,"ac_name":"Sakleshpur","booth":188,"booth_name":"G H P S Muthige"},"geometry":{"type":"Point","coordinates":[75.86881,12.8637228]}},{"type":"Feature","properties":{"state":"Karnataka","district":25,"district_n":"HASSAN","pc":16,"pc_name":"Hassan","ac":199,"ac_name":"Sakleshpur","booth":190,"booth_name":"G H P S Kadluru"},"geometry":{"type":"Point","coordinates":[75.86041,12.8738623]}},{"type":"Feature","properties":{"state":"Karnataka","district":25,"district_n":"HASSAN","pc":16,"pc_name":"Hassan","ac":199,"ac_name":"Sakleshpur","booth":191,"booth_name":"G H P S K Hosakote (north wing)"},"geometry":{"type":"Point","coordinates":[75.855545,12.8641815]}},{"type":"Feature","properties":{"state":"Karnataka","district":25,"district_n":"HASSAN","pc":16,"pc_name":"Hassan","ac":199,"ac_name":"Sakleshpur","booth":193,"booth_name":"G L P S, Vaduru"},"geometry":{"type":"Point","coordinates":[75.8279648,12.88741]}},{"type":"Feature","properties":{"state":"Karnataka","district":25,"district_n":"HASSAN","pc":16,"pc_name":"Hassan","ac":199,"ac_name":"Sakleshpur","booth":194,"booth_name":"G H P S ,nallulli"},"geometry":{"type":"Point","coordinates":[75.81319,12.8714266]}},{"type":"Feature","properties":{"state":"Karnataka","district":25,"district_n":"HASSAN","pc":16,"pc_name":"Hassan","ac":199,"ac_name":"Sakleshpur","booth":196,"booth_name":"G H P S,kurubhatturu (shukravara Sante)"},"geometry":{"type":"Point","coordinates":[75.7991,12.8613472]}},{"type":"Feature","properties":{"state":"Karnataka","district":25,"district_n":"HASSAN","pc":16,"pc_name":"Hassan","ac":199,"ac_name":"Sakleshpur","booth":199,"booth_name":"G L P S,haragara Halli"},"geometry":{"type":"Point","coordinates":[75.7607956,12.8603506]}},{"type":"Feature","properties":{"state":"Karnataka","district":25,"district_n":"HASSAN","pc":16,"pc_name":"Hassan","ac":199,"ac_name":"Sakleshpur","booth":176,"booth_name":"Anganavadi Kendra Muttanahalli"},"geometry":{"type":"Point","coordinates":[76.01628,12.8888807]}},{"type":"Feature","properties":{"state":"Karnataka","district":25,"district_n":"HASSAN","pc":16,"pc_name":"Hassan","ac":199,"ac_name":"Sakleshpur","booth":179,"booth_name":"G L P S Gangara"},"geometry":{"type":"Point","coordinates":[75.96119,12.8921642]}},{"type":"Feature","properties":{"state":"Karnataka","district":25,"district_n":"HASSAN","pc":16,"pc_name":"Hassan","ac":199,"ac_name":"Sakleshpur","booth":182,"booth_name":"Govt  Urdu Higher Primary School, Magge"},"geometry":{"type":"Point","coordinates":[75.93682,12.86608]}},{"type":"Feature","properties":{"state":"Karnataka","district":25,"district_n":"HASSAN","pc":16,"pc_name":"Hassan","ac":199,"ac_name":"Sakleshpur","booth":202,"booth_name":"G L P S,heggadde"},"geometry":{"type":"Point","coordinates":[75.72349,12.888423]}},{"type":"Feature","properties":{"state":"Karnataka","district":25,"district_n":"HASSAN","pc":16,"pc_name":"Hassan","ac":199,"ac_name":"Sakleshpur","booth":256,"booth_name":"G L P S,  Byagadihalli"},"geometry":{"type":"Point","coordinates":[75.75967,12.7480927]}},{"type":"Feature","properties":{"state":"Karnataka","district":25,"district_n":"HASSAN","pc":16,"pc_name":"Hassan","ac":199,"ac_name":"Sakleshpur","booth":257,"booth_name":"Anganavadi Center, Karagurudakale  Adrahalli"},"geometry":{"type":"Point","coordinates":[75.7785339,12.7482815]}},{"type":"Feature","properties":{"state":"Karnataka","district":25,"district_n":"HASSAN","pc":16,"pc_name":"Hassan","ac":199,"ac_name":"Sakleshpur","booth":259,"booth_name":"G L P S, Lakkunda"},"geometry":{"type":"Point","coordinates":[75.8101044,12.7493525]}},{"type":"Feature","properties":{"state":"Karnataka","district":25,"district_n":"HASSAN","pc":16,"pc_name":"Hassan","ac":199,"ac_name":"Sakleshpur","booth":268,"booth_name":"G L P S Kowkudi"},"geometry":{"type":"Point","coordinates":[75.84421,12.6819124]}},{"type":"Feature","properties":{"state":"Karnataka","district":25,"district_n":"HASSAN","pc":16,"pc_name":"Hassan","ac":199,"ac_name":"Sakleshpur","booth":270,"booth_name":"G L P S,heruru"},"geometry":{"type":"Point","coordinates":[75.83076,12.7233534]}},{"type":"Feature","properties":{"state":"Karnataka","district":25,"district_n":"HASSAN","pc":16,"pc_name":"Hassan","ac":199,"ac_name":"Sakleshpur","booth":271,"booth_name":"G H P S Goddu"},"geometry":{"type":"Point","coordinates":[75.77575,12.7229805]}},{"type":"Feature","properties":{"state":"Karnataka","district":25,"district_n":"HASSAN","pc":16,"pc_name":"Hassan","ac":199,"ac_name":"Sakleshpur","booth":273,"booth_name":"G H P S Kallahalli (mageri H)"},"geometry":{"type":"Point","coordinates":[75.7574,12.6915712]}},{"type":"Feature","properties":{"state":"Karnataka","district":25,"district_n":"HASSAN","pc":16,"pc_name":"Hassan","ac":199,"ac_name":"Sakleshpur","booth":262,"booth_name":"G H P S, Changadihalli"},"geometry":{"type":"Point","coordinates":[75.8477,12.73103]}},{"type":"Feature","properties":{"state":"Karnataka","district":25,"district_n":"HASSAN","pc":16,"pc_name":"Hassan","ac":199,"ac_name":"Sakleshpur","booth":265,"booth_name":"G H P S Echalabeedu"},"geometry":{"type":"Point","coordinates":[75.87334,12.7000914]}},{"type":"Feature","properties":{"state":"Karnataka","district":25,"district_n":"HASSAN","pc":16,"pc_name":"Hassan","ac":199,"ac_name":"Sakleshpur","booth":250,"booth_name":"G H P S  Attihalli"},"geometry":{"type":"Point","coordinates":[75.73344,12.7626]}},{"type":"Feature","properties":{"state":"Karnataka","district":25,"district_n":"HASSAN","pc":16,"pc_name":"Hassan","ac":199,"ac_name":"Sakleshpur","booth":251,"booth_name":"G L P S  Jatahalli Jatahalli Bobbanahalli"},"geometry":{"type":"Point","coordinates":[75.75118,12.8134594]}},{"type":"Feature","properties":{"state":"Karnataka","district":25,"district_n":"HASSAN","pc":16,"pc_name":"Hassan","ac":199,"ac_name":"Sakleshpur","booth":253,"booth_name":"G H P S  Bisle (hadlagadde)"},"geometry":{"type":"Point","coordinates":[75.70291,12.7300072]}},{"type":"Feature","properties":{"state":"Karnataka","district":25,"district_n":"HASSAN","pc":16,"pc_name":"Hassan","ac":199,"ac_name":"Sakleshpur","booth":254,"booth_name":"G H P S  Mankanahalli"},"geometry":{"type":"Point","coordinates":[75.72418,12.7260723]}},{"type":"Feature","properties":{"state":"Karnataka","district":25,"district_n":"HASSAN","pc":16,"pc_name":"Hassan","ac":199,"ac_name":"Sakleshpur","booth":236,"booth_name":"G H P S  Nayakarahalli"},"geometry":{"type":"Point","coordinates":[76.12422,12.8269215]}},{"type":"Feature","properties":{"state":"Karnataka","district":25,"district_n":"HASSAN","pc":16,"pc_name":"Hassan","ac":199,"ac_name":"Sakleshpur","booth":237,"booth_name":"G H P S Mukundur hosahalli"},"geometry":{"type":"Point","coordinates":[76.1396255,12.8291826]}},{"type":"Feature","properties":{"state":"Karnataka","district":25,"district_n":"HASSAN","pc":16,"pc_name":"Hassan","ac":199,"ac_name":"Sakleshpur","booth":239,"booth_name":"G H P S  Yasaluru"},"geometry":{"type":"Point","coordinates":[75.8580856,12.7772474]}},{"type":"Feature","properties":{"state":"Karnataka","district":25,"district_n":"HASSAN","pc":16,"pc_name":"Hassan","ac":199,"ac_name":"Sakleshpur","booth":242,"booth_name":"G H P S  Yadakere"},"geometry":{"type":"Point","coordinates":[75.813324,12.8015556]}},{"type":"Feature","properties":{"state":"Karnataka","district":25,"district_n":"HASSAN","pc":16,"pc_name":"Hassan","ac":199,"ac_name":"Sakleshpur","booth":222,"booth_name":"G H P S  Ganjigere"},"geometry":{"type":"Point","coordinates":[76.01556,12.8408451]}},{"type":"Feature","properties":{"state":"Karnataka","district":25,"district_n":"HASSAN","pc":16,"pc_name":"Hassan","ac":199,"ac_name":"Sakleshpur","booth":210,"booth_name":"G L P S  Konabanahalli"},"geometry":{"type":"Point","coordinates":[75.79676,12.8056736]}},{"type":"Feature","properties":{"state":"Karnataka","district":25,"district_n":"HASSAN","pc":16,"pc_name":"Hassan","ac":199,"ac_name":"Sakleshpur","booth":211,"booth_name":"G H P S   Adarageri"},"geometry":{"type":"Point","coordinates":[75.8135,12.8340654]}},{"type":"Feature","properties":{"state":"Karnataka","district":25,"district_n":"HASSAN","pc":16,"pc_name":"Hassan","ac":199,"ac_name":"Sakleshpur","booth":213,"booth_name":"G H P S  Kerodi"},"geometry":{"type":"Point","coordinates":[75.85492,12.8174133]}},{"type":"Feature","properties":{"state":"Karnataka","district":25,"district_n":"HASSAN","pc":16,"pc_name":"Hassan","ac":199,"ac_name":"Sakleshpur","booth":214,"booth_name":"G H P S  Harihalli"},"geometry":{"type":"Point","coordinates":[75.85932,12.8397894]}},{"type":"Feature","properties":{"state":"Karnataka","district":25,"district_n":"HASSAN","pc":16,"pc_name":"Hassan","ac":199,"ac_name":"Sakleshpur","booth":216,"booth_name":"G H P S  Hemmige"},"geometry":{"type":"Point","coordinates":[75.90698,12.8278151]}},{"type":"Feature","properties":{"state":"Karnataka","district":25,"district_n":"HASSAN","pc":16,"pc_name":"Hassan","ac":199,"ac_name":"Sakleshpur","booth":205,"booth_name":"G H P S  Hongadahalla"},"geometry":{"type":"Point","coordinates":[75.69751,12.7920952]}},{"type":"Feature","properties":{"state":"Karnataka","district":25,"district_n":"HASSAN","pc":16,"pc_name":"Hassan","ac":199,"ac_name":"Sakleshpur","booth":208,"booth_name":"G H P S Valalahalli"},"geometry":{"type":"Point","coordinates":[75.76476,12.8246136]}},{"type":"Feature","properties":{"state":"Karnataka","district":25,"district_n":"HASSAN","pc":16,"pc_name":"Hassan","ac":199,"ac_name":"Sakleshpur","booth":151,"booth_name":"G L P S S Malligevalu"},"geometry":{"type":"Point","coordinates":[76.0356445,12.922554]}},{"type":"Feature","properties":{"state":"Karnataka","district":25,"district_n":"HASSAN","pc":16,"pc_name":"Hassan","ac":199,"ac_name":"Sakleshpur","booth":153,"booth_name":"G L P S S Medarahalli"},"geometry":{"type":"Point","coordinates":[76.04829,12.9578714]}},{"type":"Feature","properties":{"state":"Karnataka","district":25,"district_n":"HASSAN","pc":16,"pc_name":"Hassan","ac":199,"ac_name":"Sakleshpur","booth":217,"booth_name":"G H P S  Hulasinahalli (kallare)"},"geometry":{"type":"Point","coordinates":[75.93791,12.8278131]}},{"type":"Feature","properties":{"state":"Karnataka","district":25,"district_n":"HASSAN","pc":16,"pc_name":"Hassan","ac":199,"ac_name":"Sakleshpur","booth":219,"booth_name":"G L P S  Madihalli"},"geometry":{"type":"Point","coordinates":[75.9687958,12.8282814]}},{"type":"Feature","properties":{"state":"Karnataka","district":25,"district_n":"HASSAN","pc":16,"pc_name":"Hassan","ac":199,"ac_name":"Sakleshpur","booth":225,"booth_name":"G H P S Gouru (east Wing)"},"geometry":{"type":"Point","coordinates":[76.06302,12.8214664]}},{"type":"Feature","properties":{"state":"Karnataka","district":25,"district_n":"HASSAN","pc":16,"pc_name":"Hassan","ac":199,"ac_name":"Sakleshpur","booth":228,"booth_name":"G H P S H R P P Colony  Gouru ( South Wing)"},"geometry":{"type":"Point","coordinates":[76.0634,12.8246737]}},{"type":"Feature","properties":{"state":"Karnataka","district":25,"district_n":"HASSAN","pc":16,"pc_name":"Hassan","ac":199,"ac_name":"Sakleshpur","booth":230,"booth_name":"G L P S  Thyagaturu"},"geometry":{"type":"Point","coordinates":[76.08391,12.823535]}},{"type":"Feature","properties":{"state":"Karnataka","district":25,"district_n":"HASSAN","pc":16,"pc_name":"Hassan","ac":199,"ac_name":"Sakleshpur","booth":231,"booth_name":"G H P S  Uduvare"},"geometry":{"type":"Point","coordinates":[76.08026,12.8360872]}},{"type":"Feature","properties":{"state":"Karnataka","district":25,"district_n":"HASSAN","pc":16,"pc_name":"Hassan","ac":199,"ac_name":"Sakleshpur","booth":233,"booth_name":"G L P S  Avverahalli"},"geometry":{"type":"Point","coordinates":[76.102684,12.83597]}},{"type":"Feature","properties":{"state":"Karnataka","district":25,"district_n":"HASSAN","pc":16,"pc_name":"Hassan","ac":199,"ac_name":"Sakleshpur","booth":234,"booth_name":"G H P S  Sattegarahalli"},"geometry":{"type":"Point","coordinates":[76.1124649,12.8440065]}},{"type":"Feature","properties":{"state":"Karnataka","district":25,"district_n":"HASSAN","pc":16,"pc_name":"Hassan","ac":199,"ac_name":"Sakleshpur","booth":227,"booth_name":"G H P S H R P P Colony  Gouru( North Wing)"},"geometry":{"type":"Point","coordinates":[76.06333,12.8246164]}},{"type":"Feature","properties":{"state":"Karnataka","district":25,"district_n":"HASSAN","pc":16,"pc_name":"Hassan","ac":199,"ac_name":"Sakleshpur","booth":235,"booth_name":"G H P S  Karle"},"geometry":{"type":"Point","coordinates":[76.48432,12.8403625]}},{"type":"Feature","properties":{"state":"Karnataka","district":25,"district_n":"HASSAN","pc":16,"pc_name":"Hassan","ac":199,"ac_name":"Sakleshpur","booth":218,"booth_name":"G L P S Bharathuru"},"geometry":{"type":"Point","coordinates":[75.93786,12.8248377]}},{"type":"Feature","properties":{"state":"Karnataka","district":25,"district_n":"HASSAN","pc":16,"pc_name":"Hassan","ac":199,"ac_name":"Sakleshpur","booth":221,"booth_name":"G H P S  Nelligere"},"geometry":{"type":"Point","coordinates":[75.9990845,12.8361788]}},{"type":"Feature","properties":{"state":"Karnataka","district":25,"district_n":"HASSAN","pc":16,"pc_name":"Hassan","ac":199,"ac_name":"Sakleshpur","booth":154,"booth_name":"G H P S Shankaranahalli"},"geometry":{"type":"Point","coordinates":[76.06431,12.9454041]}},{"type":"Feature","properties":{"state":"Karnataka","district":25,"district_n":"HASSAN","pc":16,"pc_name":"Hassan","ac":199,"ac_name":"Sakleshpur","booth":156,"booth_name":"G L P P S  Javenahalli"},"geometry":{"type":"Point","coordinates":[76.06313,12.9216166]}},{"type":"Feature","properties":{"state":"Karnataka","district":25,"district_n":"HASSAN","pc":16,"pc_name":"Hassan","ac":199,"ac_name":"Sakleshpur","booth":215,"booth_name":"G H P S  Kaganuru"},"geometry":{"type":"Point","coordinates":[75.88894,12.8384876]}},{"type":"Feature","properties":{"state":"Karnataka","district":25,"district_n":"HASSAN","pc":16,"pc_name":"Hassan","ac":199,"ac_name":"Sakleshpur","booth":224,"booth_name":"G L P S Chikkanayakana Halli"},"geometry":{"type":"Point","coordinates":[76.0732,12.8511429]}},{"type":"Feature","properties":{"state":"Karnataka","district":25,"district_n":"HASSAN","pc":16,"pc_name":"Hassan","ac":199,"ac_name":"Sakleshpur","booth":255,"booth_name":"G H P S S Vanaguru"},"geometry":{"type":"Point","coordinates":[75.74305,12.7274733]}},{"type":"Feature","properties":{"state":"Karnataka","district":25,"district_n":"HASSAN","pc":16,"pc_name":"Hassan","ac":199,"ac_name":"Sakleshpur","booth":258,"booth_name":"G L P S,karaguru"},"geometry":{"type":"Point","coordinates":[75.79352,12.74439]}},{"type":"Feature","properties":{"state":"Karnataka","district":25,"district_n":"HASSAN","pc":16,"pc_name":"Hassan","ac":199,"ac_name":"Sakleshpur","booth":261,"booth_name":"G H H P S,ulagatturu"},"geometry":{"type":"Point","coordinates":[75.79802,12.7285585]}},{"type":"Feature","properties":{"state":"Karnataka","district":25,"district_n":"HASSAN","pc":16,"pc_name":"Hassan","ac":199,"ac_name":"Sakleshpur","booth":264,"booth_name":"G H P S,santhahalli"},"geometry":{"type":"Point","coordinates":[75.83928,12.7202644]}},{"type":"Feature","properties":{"state":"Karnataka","district":25,"district_n":"HASSAN","pc":16,"pc_name":"Hassan","ac":199,"ac_name":"Sakleshpur","booth":267,"booth_name":"G H P S,kalale"},"geometry":{"type":"Point","coordinates":[75.86026,12.6955547]}},{"type":"Feature","properties":{"state":"Karnataka","district":25,"district_n":"HASSAN","pc":16,"pc_name":"Hassan","ac":199,"ac_name":"Sakleshpur","booth":238,"booth_name":"G H P S  Mukunduru"},"geometry":{"type":"Point","coordinates":[76.14763,12.8267221]}},{"type":"Feature","properties":{"state":"Karnataka","district":25,"district_n":"HASSAN","pc":16,"pc_name":"Hassan","ac":199,"ac_name":"Sakleshpur","booth":241,"booth_name":"G L P S  Doddakalluru"},"geometry":{"type":"Point","coordinates":[75.83584,12.7958317]}},{"type":"Feature","properties":{"state":"Karnataka","district":25,"district_n":"HASSAN","pc":16,"pc_name":"Hassan","ac":199,"ac_name":"Sakleshpur","booth":6,"booth_name":"Govt Higher Primary School, Hadige"},"geometry":{"type":"Point","coordinates":[75.72502,13.0122232]}},{"type":"Feature","properties":{"state":"Karnataka","district":25,"district_n":"HASSAN","pc":16,"pc_name":"Hassan","ac":199,"ac_name":"Sakleshpur","booth":9,"booth_name":"Govt Govt Higher Primary School, Kelagallale (south Wing)"},"geometry":{"type":"Point","coordinates":[75.79051,12.9902382]}},{"type":"Feature","properties":{"state":"Karnataka","district":25,"district_n":"HASSAN","pc":16,"pc_name":"Hassan","ac":199,"ac_name":"Sakleshpur","booth":12,"booth_name":"Govt Govt Higher Primary School, Udevara"},"geometry":{"type":"Point","coordinates":[75.81654,13.0158844]}},{"type":"Feature","properties":{"state":"Karnataka","district":25,"district_n":"HASSAN","pc":16,"pc_name":"Hassan","ac":199,"ac_name":"Sakleshpur","booth":15,"booth_name":"Govt Govt Lower Primary School, Masuvalli"},"geometry":{"type":"Point","coordinates":[75.8332748,12.9813614]}},{"type":"Feature","properties":{"state":"Karnataka","district":25,"district_n":"HASSAN","pc":16,"pc_name":"Hassan","ac":199,"ac_name":"Sakleshpur","booth":18,"booth_name":"Govt Govt Higher Primary School, Sankalapura"},"geometry":{"type":"Point","coordinates":[75.89118,12.9918289]}},{"type":"Feature","properties":{"state":"Karnataka","district":25,"district_n":"HASSAN","pc":16,"pc_name":"Hassan","ac":199,"ac_name":"Sakleshpur","booth":26,"booth_name":"Govt Govt Higher Primary School, Karjuvalli"},"geometry":{"type":"Point","coordinates":[75.93461,13.011364]}},{"type":"Feature","properties":{"state":"Karnataka","district":25,"district_n":"HASSAN","pc":16,"pc_name":"Hassan","ac":199,"ac_name":"Sakleshpur","booth":32,"booth_name":"Govt Govt Higher Primary School, Chikkakanagalu"},"geometry":{"type":"Point","coordinates":[75.96812,13.040967]}},{"type":"Feature","properties":{"state":"Karnataka","district":25,"district_n":"HASSAN","pc":16,"pc_name":"Hassan","ac":199,"ac_name":"Sakleshpur","booth":35,"booth_name":"Govt Govt Higher Primary School, Thoragaravalli"},"geometry":{"type":"Point","coordinates":[75.99423,13.1181288]}},{"type":"Feature","properties":{"state":"Karnataka","district":25,"district_n":"HASSAN","pc":16,"pc_name":"Hassan","ac":199,"ac_name":"Sakleshpur","booth":38,"booth_name":"Govt Govt Higher Primary School, Hunasavalli"},"geometry":{"type":"Point","coordinates":[76.004715,12.9898481]}},{"type":"Feature","properties":{"state":"Karnataka","district":25,"district_n":"HASSAN","pc":16,"pc_name":"Hassan","ac":199,"ac_name":"Sakleshpur","booth":46,"booth_name":"Govt Govt Higher Primary School, Hampana Kuppe (new Building)"},"geometry":{"type":"Point","coordinates":[76.0485153,12.9622507]}},{"type":"Feature","properties":{"state":"Karnataka","district":25,"district_n":"HASSAN","pc":16,"pc_name":"Hassan","ac":199,"ac_name":"Sakleshpur","booth":49,"booth_name":"Govt Govt Lower Primary School, Yaduru"},"geometry":{"type":"Point","coordinates":[76.01056,12.985096]}},{"type":"Feature","properties":{"state":"Karnataka","district":25,"district_n":"HASSAN","pc":16,"pc_name":"Hassan","ac":199,"ac_name":"Sakleshpur","booth":52,"booth_name":"Govt Govt Lower Primary School, Hale Alur"},"geometry":{"type":"Point","coordinates":[75.9838638,12.98431]}},{"type":"Feature","properties":{"state":"Karnataka","district":25,"district_n":"HASSAN","pc":16,"pc_name":"Hassan","ac":199,"ac_name":"Sakleshpur","booth":55,"booth_name":"Govt Govt Higher Primary School, Byrapura"},"geometry":{"type":"Point","coordinates":[75.98478,12.9608326]}},{"type":"Feature","properties":{"state":"Karnataka","district":25,"district_n":"HASSAN","pc":16,"pc_name":"Hassan","ac":199,"ac_name":"Sakleshpur","booth":58,"booth_name":"Govt Govt Higher Primary School, G Bellur"},"geometry":{"type":"Point","coordinates":[75.9317551,12.9715881]}},{"type":"Feature","properties":{"state":"Karnataka","district":25,"district_n":"HASSAN","pc":16,"pc_name":"Hassan","ac":199,"ac_name":"Sakleshpur","booth":61,"booth_name":"Govt Govt Higher Primary School, Belagodu (west Wing)"},"geometry":{"type":"Point","coordinates":[75.87571,12.9774914]}},{"type":"Feature","properties":{"state":"Karnataka","district":25,"district_n":"HASSAN","pc":16,"pc_name":"Hassan","ac":199,"ac_name":"Sakleshpur","booth":69,"booth_name":"Anganawadi Building, Hasade"},"geometry":{"type":"Point","coordinates":[75.80522,12.9683943]}},{"type":"Feature","properties":{"state":"Karnataka","district":25,"district_n":"HASSAN","pc":16,"pc_name":"Hassan","ac":199,"ac_name":"Sakleshpur","booth":72,"booth_name":"G M H P S,agrahara  (north  Wing ) Sakaleshapura Town"},"geometry":{"type":"Point","coordinates":[75.8002548,12.9474258]}},{"type":"Feature","properties":{"state":"Karnataka","district":25,"district_n":"HASSAN","pc":16,"pc_name":"Hassan","ac":199,"ac_name":"Sakleshpur","booth":75,"booth_name":"Muncipal Building, Sakaleshapura"},"geometry":{"type":"Point","coordinates":[75.78719,12.9460974]}},{"type":"Feature","properties":{"state":"Karnataka","district":25,"district_n":"HASSAN","pc":16,"pc_name":"Hassan","ac":199,"ac_name":"Sakleshpur","booth":78,"booth_name":"Range Forest Office, Sakaleshapura"},"geometry":{"type":"Point","coordinates":[75.78147,12.94517]}},{"type":"Feature","properties":{"state":"Karnataka","district":25,"district_n":"HASSAN","pc":16,"pc_name":"Hassan","ac":199,"ac_name":"Sakleshpur","booth":81,"booth_name":"Shop Siddegowda H P S Sakaleshapura Town"},"geometry":{"type":"Point","coordinates":[75.7907944,12.9447975]}},{"type":"Feature","properties":{"state":"Karnataka","district":25,"district_n":"HASSAN","pc":16,"pc_name":"Hassan","ac":199,"ac_name":"Sakleshpur","booth":89,"booth_name":"G L P S S New Building  Hennali"},"geometry":{"type":"Point","coordinates":[75.75962,12.96942]}},{"type":"Feature","properties":{"state":"Karnataka","district":25,"district_n":"HASSAN","pc":16,"pc_name":"Hassan","ac":199,"ac_name":"Sakleshpur","booth":92,"booth_name":"Grama Panchayath Office ,kyamanahalli(bellekere)"},"geometry":{"type":"Point","coordinates":[75.72862,12.9655161]}},{"type":"Feature","properties":{"state":"Karnataka","district":25,"district_n":"HASSAN","pc":16,"pc_name":"Hassan","ac":199,"ac_name":"Sakleshpur","booth":95,"booth_name":"G L P S, Agani"},"geometry":{"type":"Point","coordinates":[75.68174,12.9807053]}},{"type":"Feature","properties":{"state":"Karnataka","district":25,"district_n":"HASSAN","pc":16,"pc_name":"Hassan","ac":199,"ac_name":"Sakleshpur","booth":98,"booth_name":"G H P S,kadumane Estate (tamilu)"},"geometry":{"type":"Point","coordinates":[75.6709,12.9084473]}},{"type":"Feature","properties":{"state":"Karnataka","district":25,"district_n":"HASSAN","pc":16,"pc_name":"Hassan","ac":199,"ac_name":"Sakleshpur","booth":101,"booth_name":"G L P S, Nadahalli"},"geometry":{"type":"Point","coordinates":[75.7159042,12.92087]}},{"type":"Feature","properties":{"state":"Karnataka","district":25,"district_n":"HASSAN","pc":16,"pc_name":"Hassan","ac":199,"ac_name":"Sakleshpur","booth":109,"booth_name":"G H P S, Chikka Doddasatigala"},"geometry":{"type":"Point","coordinates":[75.78251,12.918107]}},{"type":"Feature","properties":{"state":"Karnataka","district":25,"district_n":"HASSAN","pc":16,"pc_name":"Hassan","ac":199,"ac_name":"Sakleshpur","booth":112,"booth_name":"G H P S,  Kabbinagadde"},"geometry":{"type":"Point","coordinates":[75.82817,12.9209986]}},{"type":"Feature","properties":{"state":"Karnataka","district":25,"district_n":"HASSAN","pc":16,"pc_name":"Hassan","ac":199,"ac_name":"Sakleshpur","booth":115,"booth_name":"G H P S    Ibbaddi Sullakki"},"geometry":{"type":"Point","coordinates":[75.7950745,12.89841]}},{"type":"Feature","properties":{"state":"Karnataka","district":25,"district_n":"HASSAN","pc":16,"pc_name":"Hassan","ac":199,"ac_name":"Sakleshpur","booth":118,"booth_name":"G L P S ,hosagadde"},"geometry":{"type":"Point","coordinates":[75.87228,12.9261522]}},{"type":"Feature","properties":{"state":"Karnataka","district":25,"district_n":"HASSAN","pc":16,"pc_name":"Hassan","ac":199,"ac_name":"Sakleshpur","booth":121,"booth_name":"G H P S,  Banavase"},"geometry":{"type":"Point","coordinates":[75.87932,12.94256]}},{"type":"Feature","properties":{"state":"Karnataka","district":25,"district_n":"HASSAN","pc":16,"pc_name":"Hassan","ac":199,"ac_name":"Sakleshpur","booth":132,"booth_name":"G L P S,  Dythapura"},"geometry":{"type":"Point","coordinates":[75.90833,12.8961916]}},{"type":"Feature","properties":{"state":"Karnataka","district":25,"district_n":"HASSAN","pc":16,"pc_name":"Hassan","ac":199,"ac_name":"Sakleshpur","booth":135,"booth_name":"G H P S,   Palya"},"geometry":{"type":"Point","coordinates":[75.9421844,12.9497757]}},{"type":"Feature","properties":{"state":"Karnataka","district":25,"district_n":"HASSAN","pc":16,"pc_name":"Hassan","ac":199,"ac_name":"Sakleshpur","booth":138,"booth_name":"G L P S   Balluru"},"geometry":{"type":"Point","coordinates":[75.9474945,12.8969574]}},{"type":"Feature","properties":{"state":"Karnataka","district":25,"district_n":"HASSAN","pc":16,"pc_name":"Hassan","ac":199,"ac_name":"Sakleshpur","booth":141,"booth_name":"G H P S,   Hanchuru"},"geometry":{"type":"Point","coordinates":[75.98548,12.9196091]}},{"type":"Feature","properties":{"state":"Karnataka","district":25,"district_n":"HASSAN","pc":16,"pc_name":"Hassan","ac":199,"ac_name":"Sakleshpur","booth":144,"booth_name":"G L P S S K K Hosahalli"},"geometry":{"type":"Point","coordinates":[75.99215,12.9147577]}},{"type":"Feature","properties":{"state":"Karnataka","district":25,"district_n":"HASSAN","pc":16,"pc_name":"Hassan","ac":199,"ac_name":"Sakleshpur","booth":152,"booth_name":"G L P S, Gadenahalli Koppalu"},"geometry":{"type":"Point","coordinates":[76.05224,12.942378]}},{"type":"Feature","properties":{"state":"Karnataka","district":25,"district_n":"HASSAN","pc":16,"pc_name":"Hassan","ac":199,"ac_name":"Sakleshpur","booth":155,"booth_name":"G H P S Golenahalli"},"geometry":{"type":"Point","coordinates":[76.0721359,12.9340506]}},{"type":"Feature","properties":{"state":"Karnataka","district":25,"district_n":"HASSAN","pc":16,"pc_name":"Hassan","ac":199,"ac_name":"Sakleshpur","booth":158,"booth_name":"G L P S Kattaya"},"geometry":{"type":"Point","coordinates":[76.06503,12.8958]}},{"type":"Feature","properties":{"state":"Karnataka","district":25,"district_n":"HASSAN","pc":16,"pc_name":"Hassan","ac":199,"ac_name":"Sakleshpur","booth":161,"booth_name":"G H P S Kitthane"},"geometry":{"type":"Point","coordinates":[76.1214,12.9182739]}},{"type":"Feature","properties":{"state":"Karnataka","district":25,"district_n":"HASSAN","pc":16,"pc_name":"Hassan","ac":199,"ac_name":"Sakleshpur","booth":164,"booth_name":"G H P S Jodibikanahalli"},"geometry":{"type":"Point","coordinates":[76.11091,12.8971615]}},{"type":"Feature","properties":{"state":"Karnataka","district":25,"district_n":"HASSAN","pc":16,"pc_name":"Hassan","ac":199,"ac_name":"Sakleshpur","booth":172,"booth_name":"G H P S Chowdavalli"},"geometry":{"type":"Point","coordinates":[76.03868,12.8733215]}},{"type":"Feature","properties":{"state":"Karnataka","district":25,"district_n":"HASSAN","pc":16,"pc_name":"Hassan","ac":199,"ac_name":"Sakleshpur","booth":175,"booth_name":"St Mairy Imunucation  Convent  Shettahalli"},"geometry":{"type":"Point","coordinates":[76.01955,12.8840532]}},{"type":"Feature","properties":{"state":"Karnataka","district":25,"district_n":"HASSAN","pc":16,"pc_name":"Hassan","ac":199,"ac_name":"Sakleshpur","booth":178,"booth_name":"G L P S Merve"},"geometry":{"type":"Point","coordinates":[75.891655,12.874856]}},{"type":"Feature","properties":{"state":"Karnataka","district":25,"district_n":"HASSAN","pc":16,"pc_name":"Hassan","ac":199,"ac_name":"Sakleshpur","booth":181,"booth_name":"G L  P S Sanenahalli"},"geometry":{"type":"Point","coordinates":[75.97559,12.8558607]}},{"type":"Feature","properties":{"state":"Karnataka","district":25,"district_n":"HASSAN","pc":16,"pc_name":"Hassan","ac":199,"ac_name":"Sakleshpur","booth":184,"booth_name":"G L P S  Yadehalli, Nanjapura"},"geometry":{"type":"Point","coordinates":[75.92672,12.8069248]}},{"type":"Feature","properties":{"state":"Karnataka","district":25,"district_n":"HASSAN","pc":16,"pc_name":"Hassan","ac":199,"ac_name":"Sakleshpur","booth":192,"booth_name":"G L P S Hadya"},"geometry":{"type":"Point","coordinates":[75.85511,12.8515148]}},{"type":"Feature","properties":{"state":"Karnataka","district":25,"district_n":"HASSAN","pc":16,"pc_name":"Hassan","ac":199,"ac_name":"Sakleshpur","booth":195,"booth_name":"G H P S,nidigere"},"geometry":{"type":"Point","coordinates":[75.83036,12.8436594]}},{"type":"Feature","properties":{"state":"Karnataka","district":25,"district_n":"HASSAN","pc":16,"pc_name":"Hassan","ac":199,"ac_name":"Sakleshpur","booth":198,"booth_name":"G H P S, Byakavaravalli"},"geometry":{"type":"Point","coordinates":[75.771225,12.8731041]}},{"type":"Feature","properties":{"state":"Karnataka","district":25,"district_n":"HASSAN","pc":16,"pc_name":"Hassan","ac":199,"ac_name":"Sakleshpur","booth":201,"booth_name":"G H P S,kadagaravali"},"geometry":{"type":"Point","coordinates":[75.7202454,12.8461]}},{"type":"Feature","properties":{"state":"Karnataka","district":25,"district_n":"HASSAN","pc":16,"pc_name":"Hassan","ac":199,"ac_name":"Sakleshpur","booth":204,"booth_name":"G L P S Kagenari(h) Balehalla"},"geometry":{"type":"Point","coordinates":[75.6628,12.8018675]}},{"type":"Feature","properties":{"state":"Karnataka","district":25,"district_n":"HASSAN","pc":16,"pc_name":"Hassan","ac":199,"ac_name":"Sakleshpur","booth":207,"booth_name":"G H P S Chinnahalli"},"geometry":{"type":"Point","coordinates":[75.74436,12.8237867]}},{"type":"Feature","properties":{"state":"Karnataka","district":25,"district_n":"HASSAN","pc":16,"pc_name":"Hassan","ac":199,"ac_name":"Sakleshpur","booth":3,"booth_name":"Govt Govt Higher Primary School,hanbalu"},"geometry":{"type":"Point","coordinates":[75.69778,13.00486]}},{"type":"Feature","properties":{"state":"Karnataka","district":25,"district_n":"HASSAN","pc":16,"pc_name":"Hassan","ac":199,"ac_name":"Sakleshpur","booth":11,"booth_name":"Govt Govt Lower Primary School, Biradahalli"},"geometry":{"type":"Point","coordinates":[75.7871857,12.9957457]}},{"type":"Feature","properties":{"state":"Karnataka","district":25,"district_n":"HASSAN","pc":16,"pc_name":"Hassan","ac":199,"ac_name":"Sakleshpur","booth":14,"booth_name":"Govt Govt Lower Primary School, Kesaguli"},"geometry":{"type":"Point","coordinates":[75.8358459,13.0220451]}},{"type":"Feature","properties":{"state":"Karnataka","district":25,"district_n":"HASSAN","pc":16,"pc_name":"Hassan","ac":199,"ac_name":"Sakleshpur","booth":17,"booth_name":"Govt Govt Lower Primary School, Mugali"},"geometry":{"type":"Point","coordinates":[75.86812,13.0020838]}},{"type":"Feature","properties":{"state":"Karnataka","district":25,"district_n":"HASSAN","pc":16,"pc_name":"Hassan","ac":199,"ac_name":"Sakleshpur","booth":20,"booth_name":"Govt Govt High School, Kamathi"},"geometry":{"type":"Point","coordinates":[75.9152,13.0285158]}},{"type":"Feature","properties":{"state":"Karnataka","district":25,"district_n":"HASSAN","pc":16,"pc_name":"Hassan","ac":199,"ac_name":"Sakleshpur","booth":23,"booth_name":"Govt Govt Higher Primary School, T Guddenahalli"},"geometry":{"type":"Point","coordinates":[75.95099,13.0294209]}},{"type":"Feature","properties":{"state":"Karnataka","district":25,"district_n":"HASSAN","pc":16,"pc_name":"Hassan","ac":199,"ac_name":"Sakleshpur","booth":31,"booth_name":"Govt Govt Lower Primary School, Kumbarahalli"},"geometry":{"type":"Point","coordinates":[75.96399,13.0194511]}},{"type":"Feature","properties":{"state":"Karnataka","district":25,"district_n":"HASSAN","pc":16,"pc_name":"Hassan","ac":199,"ac_name":"Sakleshpur","booth":34,"booth_name":"Govt Govt Higher Primary School, Holebellur"},"geometry":{"type":"Point","coordinates":[75.98343,13.0190277]}},{"type":"Feature","properties":{"state":"Karnataka","district":25,"district_n":"HASSAN","pc":16,"pc_name":"Hassan","ac":199,"ac_name":"Sakleshpur","booth":37,"booth_name":"Govt Govt Lower Primary School, Thogaranahalli"},"geometry":{"type":"Point","coordinates":[75.95848,12.9756479]}},{"type":"Feature","properties":{"state":"Karnataka","district":25,"district_n":"HASSAN","pc":16,"pc_name":"Hassan","ac":199,"ac_name":"Sakleshpur","booth":40,"booth_name":"Govt Govt Lower Primary School, Katihalli"},"geometry":{"type":"Point","coordinates":[76.01428,13.0283794]}},{"type":"Feature","properties":{"state":"Karnataka","district":25,"district_n":"HASSAN","pc":16,"pc_name":"Hassan","ac":199,"ac_name":"Sakleshpur","booth":43,"booth_name":"Govt Govt Lower Priamary School, Bharathavalli"},"geometry":{"type":"Point","coordinates":[76.01506,12.9757881]}},{"type":"Feature","properties":{"state":"Karnataka","district":25,"district_n":"HASSAN","pc":16,"pc_name":"Hassan","ac":199,"ac_name":"Sakleshpur","booth":51,"booth_name":"Govt Govt Higher Primary School, Marasu"},"geometry":{"type":"Point","coordinates":[75.97551,12.9729872]}},{"type":"Feature","properties":{"state":"Karnataka","district":25,"district_n":"HASSAN","pc":16,"pc_name":"Hassan","ac":199,"ac_name":"Sakleshpur","booth":54,"booth_name":"Govt Govt Model Higher Primary School, Alur"},"geometry":{"type":"Point","coordinates":[75.99269,12.9780235]}},{"type":"Feature","properties":{"state":"Karnataka","district":25,"district_n":"HASSAN","pc":16,"pc_name":"Hassan","ac":199,"ac_name":"Sakleshpur","booth":57,"booth_name":"Grama Panchayath Office, Palya"},"geometry":{"type":"Point","coordinates":[75.9420853,12.9498739]}},{"type":"Feature","properties":{"state":"Karnataka","district":25,"district_n":"HASSAN","pc":16,"pc_name":"Hassan","ac":199,"ac_name":"Sakleshpur","booth":60,"booth_name":"Govt Govt Higher Primary School, Belagodu (east Wing)"},"geometry":{"type":"Point","coordinates":[75.87582,12.9776745]}},{"type":"Feature","properties":{"state":"Karnataka","district":25,"district_n":"HASSAN","pc":16,"pc_name":"Hassan","ac":199,"ac_name":"Sakleshpur","booth":63,"booth_name":"Govt Govt Lower  Primary School, Kakanamane"},"geometry":{"type":"Point","coordinates":[75.85818,12.9627352]}},{"type":"Feature","properties":{"state":"Karnataka","district":25,"district_n":"HASSAN","pc":16,"pc_name":"Hassan","ac":199,"ac_name":"Sakleshpur","booth":66,"booth_name":"Govt Govt Higher Primary School, Gulagalale ( New Building)"},"geometry":{"type":"Point","coordinates":[75.8377151,12.9625893]}},{"type":"Feature","properties":{"state":"Karnataka","district":25,"district_n":"HASSAN","pc":16,"pc_name":"Hassan","ac":199,"ac_name":"Sakleshpur","booth":74,"booth_name":"Taluk Panchayat Samithi, Sakaleshapura"},"geometry":{"type":"Point","coordinates":[75.78644,12.9458351]}},{"type":"Feature","properties":{"state":"Karnataka","district":25,"district_n":"HASSAN","pc":16,"pc_name":"Hassan","ac":199,"ac_name":"Sakleshpur","booth":77,"booth_name":"Govt Urdu Girls Higher Priamry School, Sakalakeshapura Town"},"geometry":{"type":"Point","coordinates":[75.7830353,12.9428873]}},{"type":"Feature","properties":{"state":"Karnataka","district":25,"district_n":"HASSAN","pc":16,"pc_name":"Hassan","ac":199,"ac_name":"Sakleshpur","booth":80,"booth_name":"Rotary English School, Sakaleshapura"},"geometry":{"type":"Point","coordinates":[75.7745743,12.9443989]}},{"type":"Feature","properties":{"state":"Karnataka","district":25,"district_n":"HASSAN","pc":16,"pc_name":"Hassan","ac":199,"ac_name":"Sakleshpur","booth":83,"booth_name":"G M H P S(new Building) Sakaleshapura Town"},"geometry":{"type":"Point","coordinates":[75.78662,12.9452305]}},{"type":"Feature","properties":{"state":"Karnataka","district":25,"district_n":"HASSAN","pc":16,"pc_name":"Hassan","ac":199,"ac_name":"Sakleshpur","booth":86,"booth_name":"Anganavadi Building , Bykere"},"geometry":{"type":"Point","coordinates":[75.78242,12.9624424]}},{"type":"Feature","properties":{"state":"Karnataka","district":25,"district_n":"HASSAN","pc":16,"pc_name":"Hassan","ac":199,"ac_name":"Sakleshpur","booth":94,"booth_name":"G H P S ,kyamanahalli"},"geometry":{"type":"Point","coordinates":[75.7152557,12.9725513]}},{"type":"Feature","properties":{"state":"Karnataka","district":25,"district_n":"HASSAN","pc":16,"pc_name":"Hassan","ac":199,"ac_name":"Sakleshpur","booth":97,"booth_name":"G H P S ,maragunda  (h)  Kuntahalli"},"geometry":{"type":"Point","coordinates":[75.6271,12.98743]}},{"type":"Feature","properties":{"state":"Karnataka","district":25,"district_n":"HASSAN","pc":16,"pc_name":"Hassan","ac":199,"ac_name":"Sakleshpur","booth":100,"booth_name":"G H P S, Gudanakere"},"geometry":{"type":"Point","coordinates":[75.69179,12.9000683]}},{"type":"Feature","properties":{"state":"Karnataka","district":25,"district_n":"HASSAN","pc":16,"pc_name":"Hassan","ac":199,"ac_name":"Sakleshpur","booth":103,"booth_name":"G H P S, Anemahal"},"geometry":{"type":"Point","coordinates":[75.77041,12.9326324]}},{"type":"Feature","properties":{"state":"Karnataka","district":25,"district_n":"HASSAN","pc":16,"pc_name":"Hassan","ac":199,"ac_name":"Sakleshpur","booth":106,"booth_name":"Anganawadi Building , Kesagana Halli"},"geometry":{"type":"Point","coordinates":[75.75165,12.912941]}},{"type":"Feature","properties":{"state":"Karnataka","district":25,"district_n":"HASSAN","pc":16,"pc_name":"Hassan","ac":199,"ac_name":"Sakleshpur","booth":114,"booth_name":"G L P S , Siddapura"},"geometry":{"type":"Point","coordinates":[75.8306,12.9112291]}},{"type":"Feature","properties":{"state":"Karnataka","district":25,"district_n":"HASSAN","pc":16,"pc_name":"Hassan","ac":199,"ac_name":"Sakleshpur","booth":117,"booth_name":"G H P S   Jammanahalli"},"geometry":{"type":"Point","coordinates":[75.8632,12.9255781]}},{"type":"Feature","properties":{"state":"Karnataka","district":25,"district_n":"HASSAN","pc":16,"pc_name":"Hassan","ac":199,"ac_name":"Sakleshpur","booth":120,"booth_name":"Grama Panchayath Office, Ballupate"},"geometry":{"type":"Point","coordinates":[75.8772354,12.9451876]}},{"type":"Feature","properties":{"state":"Karnataka","district":25,"district_n":"HASSAN","pc":16,"pc_name":"Hassan","ac":199,"ac_name":"Sakleshpur","booth":123,"booth_name":"Shree Ranganatha High School, Hasugavalli"},"geometry":{"type":"Point","coordinates":[75.8911743,12.9479895]}},{"type":"Feature","properties":{"state":"Karnataka","district":25,"district_n":"HASSAN","pc":16,"pc_name":"Hassan","ac":199,"ac_name":"Sakleshpur","booth":126,"booth_name":"G L P S   Hiduvanahalli"},"geometry":{"type":"Point","coordinates":[75.89099,12.916173]}},{"type":"Feature","properties":{"state":"Karnataka","district":25,"district_n":"HASSAN","pc":16,"pc_name":"Hassan","ac":199,"ac_name":"Sakleshpur","booth":129,"booth_name":"G H P S S Abbana"},"geometry":{"type":"Point","coordinates":[75.91182,12.9156675]}},{"type":"Feature","properties":{"state":"Karnataka","district":25,"district_n":"HASSAN","pc":16,"pc_name":"Hassan","ac":199,"ac_name":"Sakleshpur","booth":137,"booth_name":"G H P S S Singatagere"},"geometry":{"type":"Point","coordinates":[75.96128,12.9138594]}},{"type":"Feature","properties":{"state":"Karnataka","district":25,"district_n":"HASSAN","pc":16,"pc_name":"Hassan","ac":199,"ac_name":"Sakleshpur","booth":140,"booth_name":"G L P S S Maniganahalli"},"geometry":{"type":"Point","coordinates":[75.97681,12.89651]}},{"type":"Feature","properties":{"state":"Karnataka","district":25,"district_n":"HASSAN","pc":16,"pc_name":"Hassan","ac":199,"ac_name":"Sakleshpur","booth":143,"booth_name":"G L P S S Byaba Colony"},"geometry":{"type":"Point","coordinates":[75.98722,12.9353914]}},{"type":"Feature","properties":{"state":"Karnataka","district":25,"district_n":"HASSAN","pc":16,"pc_name":"Hassan","ac":199,"ac_name":"Sakleshpur","booth":146,"booth_name":"G L P S, Hasaganuru"},"geometry":{"type":"Point","coordinates":[76.0106049,12.9232941]}},{"type":"Feature","properties":{"state":"Karnataka","district":25,"district_n":"HASSAN","pc":16,"pc_name":"Hassan","ac":199,"ac_name":"Sakleshpur","booth":149,"booth_name":"G H P S, Ballekere"},"geometry":{"type":"Point","coordinates":[76.03601,12.9027834]}},{"type":"Feature","properties":{"state":"Karnataka","district":25,"district_n":"HASSAN","pc":16,"pc_name":"Hassan","ac":199,"ac_name":"Sakleshpur","booth":157,"booth_name":"G H P S Doranahalli"},"geometry":{"type":"Point","coordinates":[76.04392,12.9021511]}},{"type":"Feature","properties":{"state":"Karnataka","district":25,"district_n":"HASSAN","pc":16,"pc_name":"Hassan","ac":199,"ac_name":"Sakleshpur","booth":160,"booth_name":"G H P S Hyarani"},"geometry":{"type":"Point","coordinates":[76.10121,12.9081125]}},{"type":"Feature","properties":{"state":"Karnataka","district":25,"district_n":"HASSAN","pc":16,"pc_name":"Hassan","ac":199,"ac_name":"Sakleshpur","booth":163,"booth_name":"G H P S Madupura"},"geometry":{"type":"Point","coordinates":[76.1281738,12.9071217]}},{"type":"Feature","properties":{"state":"Karnataka","district":25,"district_n":"HASSAN","pc":16,"pc_name":"Hassan","ac":199,"ac_name":"Sakleshpur","booth":166,"booth_name":"G L P S Ankapura"},"geometry":{"type":"Point","coordinates":[76.1203842,12.8702]}},{"type":"Feature","properties":{"state":"Karnataka","district":25,"district_n":"HASSAN","pc":16,"pc_name":"Hassan","ac":199,"ac_name":"Sakleshpur","booth":169,"booth_name":"G H P S Channangihalli"},"geometry":{"type":"Point","coordinates":[76.104126,12.8801537]}},{"type":"Feature","properties":{"state":"Karnataka","district":25,"district_n":"HASSAN","pc":16,"pc_name":"Hassan","ac":199,"ac_name":"Sakleshpur","booth":177,"booth_name":"St M L P S Sulagoudu"},"geometry":{"type":"Point","coordinates":[76.0044556,12.8574667]}},{"type":"Feature","properties":{"state":"Karnataka","district":25,"district_n":"HASSAN","pc":16,"pc_name":"Hassan","ac":199,"ac_name":"Sakleshpur","booth":180,"booth_name":"Govt Samyuktha High School, Kunduru"},"geometry":{"type":"Point","coordinates":[75.96912,12.8643808]}},{"type":"Feature","properties":{"state":"Karnataka","district":25,"district_n":"HASSAN","pc":16,"pc_name":"Hassan","ac":199,"ac_name":"Sakleshpur","booth":183,"booth_name":"G H P S Magge"},"geometry":{"type":"Point","coordinates":[75.9347839,12.866972]}},{"type":"Feature","properties":{"state":"Karnataka","district":25,"district_n":"HASSAN","pc":16,"pc_name":"Hassan","ac":199,"ac_name":"Sakleshpur","booth":186,"booth_name":"G M H P S Rayarakoppalu (south wing)"},"geometry":{"type":"Point","coordinates":[75.9248352,12.8542938]}},{"type":"Feature","properties":{"state":"Karnataka","district":25,"district_n":"HASSAN","pc":16,"pc_name":"Hassan","ac":199,"ac_name":"Sakleshpur","booth":189,"booth_name":"G  H P S  K Hosakote (south Wing)"},"geometry":{"type":"Point","coordinates":[75.85557,12.864337]}},{"type":"Feature","properties":{"state":"Karnataka","district":25,"district_n":"HASSAN","pc":16,"pc_name":"Hassan","ac":199,"ac_name":"Sakleshpur","booth":197,"booth_name":"G H P S,hadlahalli"},"geometry":{"type":"Point","coordinates":[75.790596,12.8396883]}},{"type":"Feature","properties":{"state":"Karnataka","district":25,"district_n":"HASSAN","pc":16,"pc_name":"Hassan","ac":199,"ac_name":"Sakleshpur","booth":200,"booth_name":"G H P S,kyanahalli"},"geometry":{"type":"Point","coordinates":[75.74984,12.8910246]}},{"type":"Feature","properties":{"state":"Karnataka","district":25,"district_n":"HASSAN","pc":16,"pc_name":"Hassan","ac":199,"ac_name":"Sakleshpur","booth":203,"booth_name":"G H P S,maranahalli  (heggadde Hamlet)"},"geometry":{"type":"Point","coordinates":[75.71762,12.8782387]}},{"type":"Feature","properties":{"state":"Karnataka","district":25,"district_n":"HASSAN","pc":16,"pc_name":"Hassan","ac":199,"ac_name":"Sakleshpur","booth":245,"booth_name":"Anganawadi Centre ,  Chikkanduru"},"geometry":{"type":"Point","coordinates":[75.8214,12.7741232]}},{"type":"Feature","properties":{"state":"Karnataka","district":25,"district_n":"HASSAN","pc":16,"pc_name":"Hassan","ac":199,"ac_name":"Sakleshpur","booth":248,"booth_name":"G H P S Hethur (north Wing)"},"geometry":{"type":"Point","coordinates":[75.78761,12.7964153]}},{"type":"Feature","properties":{"state":"Karnataka","district":25,"district_n":"HASSAN","pc":16,"pc_name":"Hassan","ac":199,"ac_name":"Sakleshpur","booth":244,"booth_name":"G H P S Doddakunduru"},"geometry":{"type":"Point","coordinates":[75.8278656,12.76551]}},{"type":"Feature","properties":{"state":"Karnataka","district":25,"district_n":"HASSAN","pc":16,"pc_name":"Hassan","ac":199,"ac_name":"Sakleshpur","booth":247,"booth_name":"G H P S Hethur (south Wing)"},"geometry":{"type":"Point","coordinates":[75.788475,12.7964144]}},{"type":"Feature","properties":{"state":"Karnataka","district":25,"district_n":"HASSAN","pc":16,"pc_name":"Hassan","ac":199,"ac_name":"Sakleshpur","booth":246,"booth_name":"G L P S Hadya"},"geometry":{"type":"Point","coordinates":[75.7992,12.7839689]}},{"type":"Feature","properties":{"state":"Karnataka","district":25,"district_n":"HASSAN","pc":16,"pc_name":"Hassan","ac":199,"ac_name":"Sakleshpur","booth":206,"booth_name":"G L P S Hiridanahalli"},"geometry":{"type":"Point","coordinates":[75.72392,12.8221951]}},{"type":"Feature","properties":{"state":"Karnataka","district":25,"district_n":"HASSAN","pc":16,"pc_name":"Hassan","ac":199,"ac_name":"Sakleshpur","booth":209,"booth_name":"G L P S  Karadigala"},"geometry":{"type":"Point","coordinates":[75.7598,12.8323145]}},{"type":"Feature","properties":{"state":"Karnataka","district":25,"district_n":"HASSAN","pc":16,"pc_name":"Hassan","ac":199,"ac_name":"Sakleshpur","booth":212,"booth_name":"G H P S  Kumbrahalli"},"geometry":{"type":"Point","coordinates":[75.835495,12.8191633]}},{"type":"Feature","properties":{"state":"Karnataka","district":25,"district_n":"HASSAN","pc":16,"pc_name":"Hassan","ac":199,"ac_name":"Sakleshpur","booth":223,"booth_name":"G L P S Bikanahalli"},"geometry":{"type":"Point","coordinates":[76.06571,12.8518944]}},{"type":"Feature","properties":{"state":"Karnataka","district":25,"district_n":"HASSAN","pc":16,"pc_name":"Hassan","ac":199,"ac_name":"Sakleshpur","booth":252,"booth_name":"G L P S   Yaragalli"},"geometry":{"type":"Point","coordinates":[75.72402,12.7574062]}},{"type":"Feature","properties":{"state":"Karnataka","district":25,"district_n":"HASSAN","pc":16,"pc_name":"Hassan","ac":199,"ac_name":"Sakleshpur","booth":260,"booth_name":"G H P S, Uchangi"},"geometry":{"type":"Point","coordinates":[75.8116455,12.7349844]}},{"type":"Feature","properties":{"state":"Karnataka","district":25,"district_n":"HASSAN","pc":16,"pc_name":"Hassan","ac":199,"ac_name":"Sakleshpur","booth":263,"booth_name":"G L P S Maragalli"},"geometry":{"type":"Point","coordinates":[75.83957,12.742877]}},{"type":"Feature","properties":{"state":"Karnataka","district":25,"district_n":"HASSAN","pc":16,"pc_name":"Hassan","ac":199,"ac_name":"Sakleshpur","booth":266,"booth_name":"G H P S Hanase"},"geometry":{"type":"Point","coordinates":[75.87773,12.6741257]}},{"type":"Feature","properties":{"state":"Karnataka","district":25,"district_n":"HASSAN","pc":16,"pc_name":"Hassan","ac":199,"ac_name":"Sakleshpur","booth":269,"booth_name":"G H P S,hosuru"},"geometry":{"type":"Point","coordinates":[75.84327,12.6898375]}},{"type":"Feature","properties":{"state":"Karnataka","district":25,"district_n":"HASSAN","pc":16,"pc_name":"Hassan","ac":199,"ac_name":"Sakleshpur","booth":272,"booth_name":"G L P S ,tambalageri"},"geometry":{"type":"Point","coordinates":[75.77551,12.69871]}},{"type":"Feature","properties":{"state":"Karnataka","district":25,"district_n":"HASSAN","pc":16,"pc_name":"Hassan","ac":199,"ac_name":"Sakleshpur","booth":240,"booth_name":"Govt  Juniour College  Yasaluru"},"geometry":{"type":"Point","coordinates":[75.8599548,12.7870855]}},{"type":"Feature","properties":{"state":"Karnataka","district":25,"district_n":"HASSAN","pc":16,"pc_name":"Hassan","ac":199,"ac_name":"Sakleshpur","booth":243,"booth_name":"G H P S  Igoor"},"geometry":{"type":"Point","coordinates":[75.8271942,12.7873955]}},{"type":"Feature","properties":{"state":"Karnataka","district":25,"district_n":"HASSAN","pc":16,"pc_name":"Hassan","ac":199,"ac_name":"Sakleshpur","booth":226,"booth_name":"G H P S Gouru (west Wing)"},"geometry":{"type":"Point","coordinates":[76.06305,12.8214693]}},{"type":"Feature","properties":{"state":"Karnataka","district":25,"district_n":"HASSAN","pc":16,"pc_name":"Hassan","ac":199,"ac_name":"Sakleshpur","booth":229,"booth_name":"G H P S  (new Building), Goruru"},"geometry":{"type":"Point","coordinates":[76.0713043,12.8292894]}},{"type":"Feature","properties":{"state":"Karnataka","district":25,"district_n":"HASSAN","pc":16,"pc_name":"Hassan","ac":199,"ac_name":"Sakleshpur","booth":232,"booth_name":"G H P S  Banavase"},"geometry":{"type":"Point","coordinates":[76.09805,12.823719]}},{"type":"Feature","properties":{"state":"Karnataka","district":25,"district_n":"HASSAN","pc":16,"pc_name":"Hassan","ac":199,"ac_name":"Sakleshpur","booth":220,"booth_name":"G L P S Thattekere"},"geometry":{"type":"Point","coordinates":[75.98922,12.8331861]}},{"type":"Feature","properties":{"state":"Karnataka","district":25,"district_n":"HASSAN","pc":16,"pc_name":"Hassan","ac":199,"ac_name":"Sakleshpur","booth":249,"booth_name":"G L P S  Hadlahalli"},"geometry":{"type":"Point","coordinates":[75.7707748,12.7993174]}}]}