{"type":"FeatureCollection","features":[{"type":"Feature","properties":{"state":"Karnataka","district":26,"district_n":"DAKSHINA KANNADA","pc":17,"pc_name":"Dakshina Kannada","ac":201,"ac_name":"Moodabidri","booth":1,"booth_name":"D K Z P Hr Pry School School Bappanadu, Mulki (north Wing)"},"geometry":{"type":"Point","coordinates":[74.79013,13.0938349]}},{"type":"Feature","properties":{"state":"Karnataka","district":26,"district_n":"DAKSHINA KANNADA","pc":17,"pc_name":"Dakshina Kannada","ac":201,"ac_name":"Moodabidri","booth":4,"booth_name":"D K Z P Hr Pry School Manampady, Mulky"},"geometry":{"type":"Point","coordinates":[74.7999039,13.095993]}},{"type":"Feature","properties":{"state":"Karnataka","district":26,"district_n":"DAKSHINA KANNADA","pc":17,"pc_name":"Dakshina Kannada","ac":201,"ac_name":"Moodabidri","booth":7,"booth_name":"D K Z P Hr Pry School School Karnire"},"geometry":{"type":"Point","coordinates":[74.82881,13.12209]}},{"type":"Feature","properties":{"state":"Karnataka","district":26,"district_n":"DAKSHINA KANNADA","pc":17,"pc_name":"Dakshina Kannada","ac":201,"ac_name":"Moodabidri","booth":10,"booth_name":"St Pauls Pauls Hr Pry School School Balkunje"},"geometry":{"type":"Point","coordinates":[74.84309,13.1171408]}},{"type":"Feature","properties":{"state":"Karnataka","district":26,"district_n":"DAKSHINA KANNADA","pc":17,"pc_name":"Dakshina Kannada","ac":201,"ac_name":"Moodabidri","booth":12,"booth_name":"D K Z P Hr Pry School School Ullepady"},"geometry":{"type":"Point","coordinates":[74.86079,13.1074066]}},{"type":"Feature","properties":{"state":"Karnataka","district":26,"district_n":"DAKSHINA KANNADA","pc":17,"pc_name":"Dakshina Kannada","ac":201,"ac_name":"Moodabidri","booth":18,"booth_name":"Little Flower Aided Hr Pry School, School, Kallamundkur Kallamundkur (west Wing )"},"geometry":{"type":"Point","coordinates":[74.89342,13.0655594]}},{"type":"Feature","properties":{"state":"Karnataka","district":26,"district_n":"DAKSHINA KANNADA","pc":17,"pc_name":"Dakshina Kannada","ac":201,"ac_name":"Moodabidri","booth":19,"booth_name":"D K Z P Hr Pry School, Mukkadappu Mukkadappu Kadandale"},"geometry":{"type":"Point","coordinates":[74.9072342,13.0948086]}},{"type":"Feature","properties":{"state":"Karnataka","district":26,"district_n":"DAKSHINA KANNADA","pc":17,"pc_name":"Dakshina Kannada","ac":201,"ac_name":"Moodabidri","booth":32,"booth_name":"Dakshina Kannada Zilla Panchayath Model Model Higher Primary School, Bannadka Padumarnadu ( West Wing )"},"geometry":{"type":"Point","coordinates":[75.0105743,13.1098728]}},{"type":"Feature","properties":{"state":"Karnataka","district":26,"district_n":"DAKSHINA KANNADA","pc":17,"pc_name":"Dakshina Kannada","ac":201,"ac_name":"Moodabidri","booth":33,"booth_name":"Shree Mahaveera Aided Hr Pry School, School, Ammanottu, Padumarnadu"},"geometry":{"type":"Point","coordinates":[75.0205154,13.0989008]}},{"type":"Feature","properties":{"state":"Karnataka","district":26,"district_n":"DAKSHINA KANNADA","pc":17,"pc_name":"Dakshina Kannada","ac":201,"ac_name":"Moodabidri","booth":35,"booth_name":"D K Z P Hr Pry School School Moodumarnadu"},"geometry":{"type":"Point","coordinates":[75.0297,13.1277246]}},{"type":"Feature","properties":{"state":"Karnataka","district":26,"district_n":"DAKSHINA KANNADA","pc":17,"pc_name":"Dakshina Kannada","ac":201,"ac_name":"Moodabidri","booth":36,"booth_name":"D K Z P Hr Pry School School Kellaputhige"},"geometry":{"type":"Point","coordinates":[75.04125,13.1159506]}},{"type":"Feature","properties":{"state":"Karnataka","district":26,"district_n":"DAKSHINA KANNADA","pc":17,"pc_name":"Dakshina Kannada","ac":201,"ac_name":"Moodabidri","booth":38,"booth_name":"D K Z P Hr Pry School School Daregudde (west wing )"},"geometry":{"type":"Point","coordinates":[75.05697,13.1217127]}},{"type":"Feature","properties":{"state":"Karnataka","district":26,"district_n":"DAKSHINA KANNADA","pc":17,"pc_name":"Dakshina Kannada","ac":201,"ac_name":"Moodabidri","booth":39,"booth_name":"D K Z P Hr Pry School School Panapilla"},"geometry":{"type":"Point","coordinates":[75.08053,13.135745]}},{"type":"Feature","properties":{"state":"Karnataka","district":26,"district_n":"DAKSHINA KANNADA","pc":17,"pc_name":"Dakshina Kannada","ac":201,"ac_name":"Moodabidri","booth":47,"booth_name":"D K Z P Hr Pry School, Aliyur, Valpady ( ( New building of West West Wing )"},"geometry":{"type":"Point","coordinates":[75.08837,13.1197653]}},{"type":"Feature","properties":{"state":"Karnataka","district":26,"district_n":"DAKSHINA KANNADA","pc":17,"pc_name":"Dakshina Kannada","ac":201,"ac_name":"Moodabidri","booth":50,"booth_name":"D K Z P Hr Hr Pry School, School, Moodukonaje ( West West Wing )"},"geometry":{"type":"Point","coordinates":[75.06772,13.0821238]}},{"type":"Feature","properties":{"state":"Karnataka","district":26,"district_n":"DAKSHINA KANNADA","pc":17,"pc_name":"Dakshina Kannada","ac":201,"ac_name":"Moodabidri","booth":52,"booth_name":"D K Z P Hr Pry School, Kotebagilu, Pranthya , Room No 1, South Wing"},"geometry":{"type":"Point","coordinates":[75.0114441,13.0774765]}},{"type":"Feature","properties":{"state":"Karnataka","district":26,"district_n":"DAKSHINA KANNADA","pc":17,"pc_name":"Dakshina Kannada","ac":201,"ac_name":"Moodabidri","booth":53,"booth_name":"St Thomas Aided Hr Pry School, School, Alangaur Alangaur Alangaur Alangaur West Wing"},"geometry":{"type":"Point","coordinates":[74.998085,13.0810966]}},{"type":"Feature","properties":{"state":"Karnataka","district":26,"district_n":"DAKSHINA KANNADA","pc":17,"pc_name":"Dakshina Kannada","ac":201,"ac_name":"Moodabidri","booth":58,"booth_name":"D K Z P Hr Pry School (main) Moodabidri ( West Building )"},"geometry":{"type":"Point","coordinates":[74.9979,13.0707531]}},{"type":"Feature","properties":{"state":"Karnataka","district":26,"district_n":"DAKSHINA KANNADA","pc":17,"pc_name":"Dakshina Kannada","ac":201,"ac_name":"Moodabidri","booth":59,"booth_name":"Jain Junior College, Moodabidri"},"geometry":{"type":"Point","coordinates":[75.00485,13.0759354]}},{"type":"Feature","properties":{"state":"Karnataka","district":26,"district_n":"DAKSHINA KANNADA","pc":17,"pc_name":"Dakshina Kannada","ac":201,"ac_name":"Moodabidri","booth":61,"booth_name":"D K Z P Hr Pry School School Prantya"},"geometry":{"type":"Point","coordinates":[75.00916,13.0614939]}},{"type":"Feature","properties":{"state":"Karnataka","district":26,"district_n":"DAKSHINA KANNADA","pc":17,"pc_name":"Dakshina Kannada","ac":201,"ac_name":"Moodabidri","booth":64,"booth_name":"D K Z P Hr Pry School, Jyothinagara, Moodabidri Moodabidri Moodabidri ( West Wing )"},"geometry":{"type":"Point","coordinates":[75.00159,13.0665579]}},{"type":"Feature","properties":{"state":"Karnataka","district":26,"district_n":"DAKSHINA KANNADA","pc":17,"pc_name":"Dakshina Kannada","ac":201,"ac_name":"Moodabidri","booth":98,"booth_name":"Shree Sharada High School Shimanthur (west Wing)"},"geometry":{"type":"Point","coordinates":[74.8303,13.0758924]}},{"type":"Feature","properties":{"state":"Karnataka","district":26,"district_n":"DAKSHINA KANNADA","pc":17,"pc_name":"Dakshina Kannada","ac":201,"ac_name":"Moodabidri","booth":99,"booth_name":"D K Z P L P School, Kenchanakere, Kilpady"},"geometry":{"type":"Point","coordinates":[74.81089,13.0722952]}},{"type":"Feature","properties":{"state":"Karnataka","district":26,"district_n":"DAKSHINA KANNADA","pc":17,"pc_name":"Dakshina Kannada","ac":201,"ac_name":"Moodabidri","booth":101,"booth_name":"D K Z P Hr Pry School, School, Kilpady"},"geometry":{"type":"Point","coordinates":[74.807724,13.0852842]}},{"type":"Feature","properties":{"state":"Karnataka","district":26,"district_n":"DAKSHINA KANNADA","pc":17,"pc_name":"Dakshina Kannada","ac":201,"ac_name":"Moodabidri","booth":102,"booth_name":"U B M C Hr Pry School , Karnadu (middle Wing)"},"geometry":{"type":"Point","coordinates":[74.79466,13.0852776]}},{"type":"Feature","properties":{"state":"Karnataka","district":26,"district_n":"DAKSHINA KANNADA","pc":17,"pc_name":"Dakshina Kannada","ac":201,"ac_name":"Moodabidri","booth":104,"booth_name":"D K Z P Hr Pry School, K S Rao Rao Nagar, Nagar, (south Wing), Karnadu"},"geometry":{"type":"Point","coordinates":[74.8029861,13.0743723]}},{"type":"Feature","properties":{"state":"Karnataka","district":26,"district_n":"DAKSHINA KANNADA","pc":17,"pc_name":"Dakshina Kannada","ac":201,"ac_name":"Moodabidri","booth":90,"booth_name":"Little Flower Hr Pry School, Kinnigoli, Kinnigoli, (south Wing),"},"geometry":{"type":"Point","coordinates":[74.85292,13.06573]}},{"type":"Feature","properties":{"state":"Karnataka","district":26,"district_n":"DAKSHINA KANNADA","pc":17,"pc_name":"Dakshina Kannada","ac":201,"ac_name":"Moodabidri","booth":93,"booth_name":"Pompai Junior College, Kinnigoli Talipady"},"geometry":{"type":"Point","coordinates":[74.86063,13.0728188]}},{"type":"Feature","properties":{"state":"Karnataka","district":26,"district_n":"DAKSHINA KANNADA","pc":17,"pc_name":"Dakshina Kannada","ac":201,"ac_name":"Moodabidri","booth":82,"booth_name":"D K Z P Hr Pry School School Aikala (east Wing)"},"geometry":{"type":"Point","coordinates":[74.8799438,13.06838]}},{"type":"Feature","properties":{"state":"Karnataka","district":26,"district_n":"DAKSHINA KANNADA","pc":17,"pc_name":"Dakshina Kannada","ac":201,"ac_name":"Moodabidri","booth":84,"booth_name":"Shree Durga Parameshwari Pre University College, Kateel Kateel ( South Wing )"},"geometry":{"type":"Point","coordinates":[74.86923,13.0452185]}},{"type":"Feature","properties":{"state":"Karnataka","district":26,"district_n":"DAKSHINA KANNADA","pc":17,"pc_name":"Dakshina Kannada","ac":201,"ac_name":"Moodabidri","booth":73,"booth_name":"D K Z P P Hr Pry School,mijar School,mijar (north Wing )"},"geometry":{"type":"Point","coordinates":[74.96814,13.0407209]}},{"type":"Feature","properties":{"state":"Karnataka","district":26,"district_n":"DAKSHINA KANNADA","pc":17,"pc_name":"Dakshina Kannada","ac":201,"ac_name":"Moodabidri","booth":75,"booth_name":"D K Z P P Hr Pry School,mijar (south Wing)"},"geometry":{"type":"Point","coordinates":[74.96795,13.0405254]}},{"type":"Feature","properties":{"state":"Karnataka","district":26,"district_n":"DAKSHINA KANNADA","pc":17,"pc_name":"Dakshina Kannada","ac":201,"ac_name":"Moodabidri","booth":76,"booth_name":"Sri Vani Vilasa Aided H Pry School Ashwathapura, Badaga Mijar"},"geometry":{"type":"Point","coordinates":[74.94456,13.0450516]}},{"type":"Feature","properties":{"state":"Karnataka","district":26,"district_n":"DAKSHINA KANNADA","pc":17,"pc_name":"Dakshina Kannada","ac":201,"ac_name":"Moodabidri","booth":13,"booth_name":"Little Flower Aided Hr Pry School, Yelinje (east Wing)"},"geometry":{"type":"Point","coordinates":[74.86852,13.0890846]}},{"type":"Feature","properties":{"state":"Karnataka","district":26,"district_n":"DAKSHINA KANNADA","pc":17,"pc_name":"Dakshina Kannada","ac":201,"ac_name":"Moodabidri","booth":15,"booth_name":"D K Z P Model Hr Pry School, Kallamundkur (north Wing)"},"geometry":{"type":"Point","coordinates":[74.92159,13.0696621]}},{"type":"Feature","properties":{"state":"Karnataka","district":26,"district_n":"DAKSHINA KANNADA","pc":17,"pc_name":"Dakshina Kannada","ac":201,"ac_name":"Moodabidri","booth":16,"booth_name":"D K Z P Model Hr Pry School, Kallamundkur (south Wing)"},"geometry":{"type":"Point","coordinates":[74.9216843,13.0697517]}},{"type":"Feature","properties":{"state":"Karnataka","district":26,"district_n":"DAKSHINA KANNADA","pc":17,"pc_name":"Dakshina Kannada","ac":201,"ac_name":"Moodabidri","booth":78,"booth_name":"Sathyanarayana Aided H Pry School, Niddodi"},"geometry":{"type":"Point","coordinates":[74.90462,13.0614033]}},{"type":"Feature","properties":{"state":"Karnataka","district":26,"district_n":"DAKSHINA KANNADA","pc":17,"pc_name":"Dakshina Kannada","ac":201,"ac_name":"Moodabidri","booth":79,"booth_name":"Old Pachayath Office Niddodi"},"geometry":{"type":"Point","coordinates":[74.91032,13.0461445]}},{"type":"Feature","properties":{"state":"Karnataka","district":26,"district_n":"DAKSHINA KANNADA","pc":17,"pc_name":"Dakshina Kannada","ac":201,"ac_name":"Moodabidri","booth":81,"booth_name":"Pompai Collage Aikala"},"geometry":{"type":"Point","coordinates":[74.86178,13.0726423]}},{"type":"Feature","properties":{"state":"Karnataka","district":26,"district_n":"DAKSHINA KANNADA","pc":17,"pc_name":"Dakshina Kannada","ac":201,"ac_name":"Moodabidri","booth":87,"booth_name":"St St Mary`s Aided Hr Pry Pry School , Kinnigoli Kinnigoli ( South Bldg of East Wing )"},"geometry":{"type":"Point","coordinates":[74.85207,13.0645733]}},{"type":"Feature","properties":{"state":"Karnataka","district":26,"district_n":"DAKSHINA KANNADA","pc":17,"pc_name":"Dakshina Kannada","ac":201,"ac_name":"Moodabidri","booth":95,"booth_name":"Bharath Matha High School Punaroor, Talipady"},"geometry":{"type":"Point","coordinates":[74.8214951,13.0638781]}},{"type":"Feature","properties":{"state":"Karnataka","district":26,"district_n":"DAKSHINA KANNADA","pc":17,"pc_name":"Dakshina Kannada","ac":201,"ac_name":"Moodabidri","booth":96,"booth_name":"Shree Sharada High School Shimanthur (east Wing)"},"geometry":{"type":"Point","coordinates":[74.83079,13.0758953]}},{"type":"Feature","properties":{"state":"Karnataka","district":26,"district_n":"DAKSHINA KANNADA","pc":17,"pc_name":"Dakshina Kannada","ac":201,"ac_name":"Moodabidri","booth":107,"booth_name":"D K Z P,hr Pry School Chitrapu"},"geometry":{"type":"Point","coordinates":[74.78544,13.0676947]}},{"type":"Feature","properties":{"state":"Karnataka","district":26,"district_n":"DAKSHINA KANNADA","pc":17,"pc_name":"Dakshina Kannada","ac":201,"ac_name":"Moodabidri","booth":110,"booth_name":"D K Z P P Model Hr Pry School, Kerekadu Bellayur"},"geometry":{"type":"Point","coordinates":[74.81277,13.0645361]}},{"type":"Feature","properties":{"state":"Karnataka","district":26,"district_n":"DAKSHINA KANNADA","pc":17,"pc_name":"Dakshina Kannada","ac":201,"ac_name":"Moodabidri","booth":113,"booth_name":"Village Panchayath Office, Public Libray,kemral (old Building)"},"geometry":{"type":"Point","coordinates":[74.82488,13.0475922]}},{"type":"Feature","properties":{"state":"Karnataka","district":26,"district_n":"DAKSHINA KANNADA","pc":17,"pc_name":"Dakshina Kannada","ac":201,"ac_name":"Moodabidri","booth":67,"booth_name":"Guddeyangadi Aided H Pry School Puthige"},"geometry":{"type":"Point","coordinates":[74.96048,13.0888519]}},{"type":"Feature","properties":{"state":"Karnataka","district":26,"district_n":"DAKSHINA KANNADA","pc":17,"pc_name":"Dakshina Kannada","ac":201,"ac_name":"Moodabidri","booth":70,"booth_name":"D K Z P Hr Pry School, Puthige"},"geometry":{"type":"Point","coordinates":[74.95853,13.0756941]}},{"type":"Feature","properties":{"state":"Karnataka","district":26,"district_n":"DAKSHINA KANNADA","pc":17,"pc_name":"Dakshina Kannada","ac":201,"ac_name":"Moodabidri","booth":56,"booth_name":"D K Z P Hr Pry School School Moodabidri Marpady ( West Wing)"},"geometry":{"type":"Point","coordinates":[74.99677,13.0674362]}},{"type":"Feature","properties":{"state":"Karnataka","district":26,"district_n":"DAKSHINA KANNADA","pc":17,"pc_name":"Dakshina Kannada","ac":201,"ac_name":"Moodabidri","booth":41,"booth_name":"D K Z P Hr Pry School, Borugudde, Nellikaru"},"geometry":{"type":"Point","coordinates":[75.09411,13.1297617]}},{"type":"Feature","properties":{"state":"Karnataka","district":26,"district_n":"DAKSHINA KANNADA","pc":17,"pc_name":"Dakshina Kannada","ac":201,"ac_name":"Moodabidri","booth":44,"booth_name":"Holy Angels Aided Hr Pry Pry School Shirthady Shirthady Shirthady Shirthady Shirthady Shirthady Shirthady Shirthady Shirthady Shirthady Shirthady Shirthady Shirthady Shirthady Shirthady Shirthady Shirthady Shirthady Shirthady Shirthady Shirthady Shirthad"},"geometry":{"type":"Point","coordinates":[75.08258,13.0843143]}},{"type":"Feature","properties":{"state":"Karnataka","district":26,"district_n":"DAKSHINA KANNADA","pc":17,"pc_name":"Dakshina Kannada","ac":201,"ac_name":"Moodabidri","booth":21,"booth_name":"D K Z P Hr Pry School, Main Kadandale Kadandale (new Building)"},"geometry":{"type":"Point","coordinates":[74.92244,13.1152163]}},{"type":"Feature","properties":{"state":"Karnataka","district":26,"district_n":"DAKSHINA KANNADA","pc":17,"pc_name":"Dakshina Kannada","ac":201,"ac_name":"Moodabidri","booth":24,"booth_name":"D K Z P L P School,kemar, Paladka,"},"geometry":{"type":"Point","coordinates":[74.95765,13.1086016]}},{"type":"Feature","properties":{"state":"Karnataka","district":26,"district_n":"DAKSHINA KANNADA","pc":17,"pc_name":"Dakshina Kannada","ac":201,"ac_name":"Moodabidri","booth":115,"booth_name":"Village Pachayath Office, Kemral, Kemral, ( Communite Communite Hall )"},"geometry":{"type":"Point","coordinates":[74.8247147,13.0479088]}},{"type":"Feature","properties":{"state":"Karnataka","district":26,"district_n":"DAKSHINA KANNADA","pc":17,"pc_name":"Dakshina Kannada","ac":201,"ac_name":"Moodabidri","booth":116,"booth_name":"Village Accountant`s Office , Nadugodu"},"geometry":{"type":"Point","coordinates":[74.8598251,13.0433111]}},{"type":"Feature","properties":{"state":"Karnataka","district":26,"district_n":"DAKSHINA KANNADA","pc":17,"pc_name":"Dakshina Kannada","ac":201,"ac_name":"Moodabidri","booth":118,"booth_name":"D K Z P Hr Pry School,badagayekkar ( South South Wing)"},"geometry":{"type":"Point","coordinates":[74.867,13.026289]}},{"type":"Feature","properties":{"state":"Karnataka","district":26,"district_n":"DAKSHINA KANNADA","pc":17,"pc_name":"Dakshina Kannada","ac":201,"ac_name":"Moodabidri","booth":119,"booth_name":"Village Panchayath Office, Yekkar"},"geometry":{"type":"Point","coordinates":[74.86953,13.0224857]}},{"type":"Feature","properties":{"state":"Karnataka","district":26,"district_n":"DAKSHINA KANNADA","pc":17,"pc_name":"Dakshina Kannada","ac":201,"ac_name":"Moodabidri","booth":121,"booth_name":"D K Z P Urdu Hr Pry School Tenkayekkar"},"geometry":{"type":"Point","coordinates":[74.88531,12.9959536]}},{"type":"Feature","properties":{"state":"Karnataka","district":26,"district_n":"DAKSHINA KANNADA","pc":17,"pc_name":"Dakshina Kannada","ac":201,"ac_name":"Moodabidri","booth":122,"booth_name":"D K Z P P Hr Pry School, Delanthabettu"},"geometry":{"type":"Point","coordinates":[74.84954,13.0327492]}},{"type":"Feature","properties":{"state":"Karnataka","district":26,"district_n":"DAKSHINA KANNADA","pc":17,"pc_name":"Dakshina Kannada","ac":201,"ac_name":"Moodabidri","booth":124,"booth_name":"D K Z P Hr Pry School, Attur, Kemral"},"geometry":{"type":"Point","coordinates":[74.8288345,13.0453978]}},{"type":"Feature","properties":{"state":"Karnataka","district":26,"district_n":"DAKSHINA KANNADA","pc":17,"pc_name":"Dakshina Kannada","ac":201,"ac_name":"Moodabidri","booth":127,"booth_name":"Narayana Sanil Pre University College, Haleyangady"},"geometry":{"type":"Point","coordinates":[74.7961655,13.0525417]}},{"type":"Feature","properties":{"state":"Karnataka","district":26,"district_n":"DAKSHINA KANNADA","pc":17,"pc_name":"Dakshina Kannada","ac":201,"ac_name":"Moodabidri","booth":130,"booth_name":"Village Panchayath Office ( Library ) Haleyangady"},"geometry":{"type":"Point","coordinates":[74.79635,13.0433664]}},{"type":"Feature","properties":{"state":"Karnataka","district":26,"district_n":"DAKSHINA KANNADA","pc":17,"pc_name":"Dakshina Kannada","ac":201,"ac_name":"Moodabidri","booth":133,"booth_name":"D K Z P P Model Hr Pry School School Sasihithlu Sasihithlu Sasihithlu (east Wing)"},"geometry":{"type":"Point","coordinates":[74.78097,13.0543327]}},{"type":"Feature","properties":{"state":"Karnataka","district":26,"district_n":"DAKSHINA KANNADA","pc":17,"pc_name":"Dakshina Kannada","ac":201,"ac_name":"Moodabidri","booth":135,"booth_name":"D K Z P P Hr Pry School, Chelairu (new Building of South Wing)"},"geometry":{"type":"Point","coordinates":[74.80699,13.0256157]}},{"type":"Feature","properties":{"state":"Karnataka","district":26,"district_n":"DAKSHINA KANNADA","pc":17,"pc_name":"Dakshina Kannada","ac":201,"ac_name":"Moodabidri","booth":136,"booth_name":"D K Z P P Hr Pry School, Chelairu (old Building Building Room No 2)"},"geometry":{"type":"Point","coordinates":[74.80701,13.0255594]}},{"type":"Feature","properties":{"state":"Karnataka","district":26,"district_n":"DAKSHINA KANNADA","pc":17,"pc_name":"Dakshina Kannada","ac":201,"ac_name":"Moodabidri","booth":138,"booth_name":"D K Z P P Hr Pry School, Soorinje Bollairu (north Wing of New Building)"},"geometry":{"type":"Point","coordinates":[74.84002,13.0214539]}},{"type":"Feature","properties":{"state":"Karnataka","district":26,"district_n":"DAKSHINA KANNADA","pc":17,"pc_name":"Dakshina Kannada","ac":201,"ac_name":"Moodabidri","booth":139,"booth_name":"D K Z P P Hr Pry School, Soorinje Bollairu (south Wing of New Building)"},"geometry":{"type":"Point","coordinates":[74.84,13.0215025]}},{"type":"Feature","properties":{"state":"Karnataka","district":26,"district_n":"DAKSHINA KANNADA","pc":17,"pc_name":"Dakshina Kannada","ac":201,"ac_name":"Moodabidri","booth":141,"booth_name":"Dkzp Hr Pry School, Mangalapete, Kuthethoor (section division)"},"geometry":{"type":"Point","coordinates":[74.83673,12.994071]}},{"type":"Feature","properties":{"state":"Karnataka","district":26,"district_n":"DAKSHINA KANNADA","pc":17,"pc_name":"Dakshina Kannada","ac":201,"ac_name":"Moodabidri","booth":142,"booth_name":"St Francis Xavier Hr Pry Pry School Permude Permude (north Wing)"},"geometry":{"type":"Point","coordinates":[74.8732452,13.0127935]}},{"type":"Feature","properties":{"state":"Karnataka","district":26,"district_n":"DAKSHINA KANNADA","pc":17,"pc_name":"Dakshina Kannada","ac":201,"ac_name":"Moodabidri","booth":144,"booth_name":"St Francis Xavier Hr Pry Pry School School Permude (south Wing)"},"geometry":{"type":"Point","coordinates":[74.87303,13.0128708]}},{"type":"Feature","properties":{"state":"Karnataka","district":26,"district_n":"DAKSHINA KANNADA","pc":17,"pc_name":"Dakshina Kannada","ac":201,"ac_name":"Moodabidri","booth":145,"booth_name":"Little Flower Aided Hr Pry School Bajpe (north Wing)"},"geometry":{"type":"Point","coordinates":[74.8870239,12.9818583]}},{"type":"Feature","properties":{"state":"Karnataka","district":26,"district_n":"DAKSHINA KANNADA","pc":17,"pc_name":"Dakshina Kannada","ac":201,"ac_name":"Moodabidri","booth":147,"booth_name":"Parokiyal Aided Higher Primary School Bajpe (east Wing Bldg)"},"geometry":{"type":"Point","coordinates":[74.88531,12.9826527]}},{"type":"Feature","properties":{"state":"Karnataka","district":26,"district_n":"DAKSHINA KANNADA","pc":17,"pc_name":"Dakshina Kannada","ac":201,"ac_name":"Moodabidri","booth":150,"booth_name":"Anganwadi Bldg Bajpe"},"geometry":{"type":"Point","coordinates":[74.88262,12.9807081]}},{"type":"Feature","properties":{"state":"Karnataka","district":26,"district_n":"DAKSHINA KANNADA","pc":17,"pc_name":"Dakshina Kannada","ac":201,"ac_name":"Moodabidri","booth":153,"booth_name":"Pejavara Church Aided Hr Hr Pry Pry School, Kalavar (right wing of Upper Building)"},"geometry":{"type":"Point","coordinates":[74.85344,12.9770927]}},{"type":"Feature","properties":{"state":"Karnataka","district":26,"district_n":"DAKSHINA KANNADA","pc":17,"pc_name":"Dakshina Kannada","ac":201,"ac_name":"Moodabidri","booth":156,"booth_name":"D K Z P P Hr Pry School, School, Boorugudde, 62 Thokur ( New Building of South Wing)"},"geometry":{"type":"Point","coordinates":[74.83136,12.9707661]}},{"type":"Feature","properties":{"state":"Karnataka","district":26,"district_n":"DAKSHINA KANNADA","pc":17,"pc_name":"Dakshina Kannada","ac":201,"ac_name":"Moodabidri","booth":158,"booth_name":"D K Z P Model Hry Primary School,jokatte ( Middle Portion )"},"geometry":{"type":"Point","coordinates":[74.84667,12.9642439]}},{"type":"Feature","properties":{"state":"Karnataka","district":26,"district_n":"DAKSHINA KANNADA","pc":17,"pc_name":"Dakshina Kannada","ac":201,"ac_name":"Moodabidri","booth":159,"booth_name":"D K Z P Model Hry Primary School,jokatte ( South Wing)"},"geometry":{"type":"Point","coordinates":[74.84647,12.9640265]}},{"type":"Feature","properties":{"state":"Karnataka","district":26,"district_n":"DAKSHINA KANNADA","pc":17,"pc_name":"Dakshina Kannada","ac":201,"ac_name":"Moodabidri","booth":161,"booth_name":"D K Z P Model Hr Pry School, Jokatte, Jokatte, ( Room of North Wing)"},"geometry":{"type":"Point","coordinates":[74.84671,12.9640541]}},{"type":"Feature","properties":{"state":"Karnataka","district":26,"district_n":"DAKSHINA KANNADA","pc":17,"pc_name":"Dakshina Kannada","ac":201,"ac_name":"Moodabidri","booth":162,"booth_name":"D K Z P P Hr Pry School, Porkodi, Kenjar (north Wing)"},"geometry":{"type":"Point","coordinates":[74.86129,12.9650068]}},{"type":"Feature","properties":{"state":"Karnataka","district":26,"district_n":"DAKSHINA KANNADA","pc":17,"pc_name":"Dakshina Kannada","ac":201,"ac_name":"Moodabidri","booth":164,"booth_name":"Shree Mukya Prana Aided Hr Pry School School Kenjar Kenjar (east Wing)"},"geometry":{"type":"Point","coordinates":[74.84657,12.9538689]}},{"type":"Feature","properties":{"state":"Karnataka","district":26,"district_n":"DAKSHINA KANNADA","pc":17,"pc_name":"Dakshina Kannada","ac":201,"ac_name":"Moodabidri","booth":165,"booth_name":"Shree Mukya Prana Aided Hr Pry School School Kenjar Kenjar (west Wing)"},"geometry":{"type":"Point","coordinates":[74.84663,12.9539537]}},{"type":"Feature","properties":{"state":"Karnataka","district":26,"district_n":"DAKSHINA KANNADA","pc":17,"pc_name":"Dakshina Kannada","ac":201,"ac_name":"Moodabidri","booth":167,"booth_name":"D K Z P P Hr Pry School, Karmbar Karmbar (east wing of South Building)"},"geometry":{"type":"Point","coordinates":[74.87091,12.9570618]}},{"type":"Feature","properties":{"state":"Karnataka","district":26,"district_n":"DAKSHINA KANNADA","pc":17,"pc_name":"Dakshina Kannada","ac":201,"ac_name":"Moodabidri","booth":170,"booth_name":"Nethaji Subhash Chandra Bos Govt High School, Moodushedde (south Portion of Main Building )"},"geometry":{"type":"Point","coordinates":[74.8876953,12.9309826]}},{"type":"Feature","properties":{"state":"Karnataka","district":26,"district_n":"DAKSHINA KANNADA","pc":17,"pc_name":"Dakshina Kannada","ac":201,"ac_name":"Moodabidri","booth":173,"booth_name":"D K Z P P Hry Primary School,moodushedde"},"geometry":{"type":"Point","coordinates":[74.88748,12.9316387]}},{"type":"Feature","properties":{"state":"Karnataka","district":26,"district_n":"DAKSHINA KANNADA","pc":17,"pc_name":"Dakshina Kannada","ac":201,"ac_name":"Moodabidri","booth":176,"booth_name":"Grama Panchayath Office, Moodushedde ( Meeting Hall )"},"geometry":{"type":"Point","coordinates":[74.89248,12.9281273]}},{"type":"Feature","properties":{"state":"Karnataka","district":26,"district_n":"DAKSHINA KANNADA","pc":17,"pc_name":"Dakshina Kannada","ac":201,"ac_name":"Moodabidri","booth":178,"booth_name":"D K Z P Hr Pry School, Neerkere Neerkere (middle Wing)"},"geometry":{"type":"Point","coordinates":[74.94032,13.0282488]}},{"type":"Feature","properties":{"state":"Karnataka","district":26,"district_n":"DAKSHINA KANNADA","pc":17,"pc_name":"Dakshina Kannada","ac":201,"ac_name":"Moodabidri","booth":179,"booth_name":"D K Z P Hr Pry School, Nerkere (east Wing)"},"geometry":{"type":"Point","coordinates":[74.94035,13.0282125]}},{"type":"Feature","properties":{"state":"Karnataka","district":26,"district_n":"DAKSHINA KANNADA","pc":17,"pc_name":"Dakshina Kannada","ac":201,"ac_name":"Moodabidri","booth":181,"booth_name":"D K Z P Hr Pry School, Thodar (middle Wing)"},"geometry":{"type":"Point","coordinates":[74.9850845,13.0324726]}},{"type":"Feature","properties":{"state":"Karnataka","district":26,"district_n":"DAKSHINA KANNADA","pc":17,"pc_name":"Dakshina Kannada","ac":201,"ac_name":"Moodabidri","booth":182,"booth_name":"D K Z P Hr Pry School, Thodar (west Wing)"},"geometry":{"type":"Point","coordinates":[74.98481,13.0325632]}},{"type":"Feature","properties":{"state":"Karnataka","district":26,"district_n":"DAKSHINA KANNADA","pc":17,"pc_name":"Dakshina Kannada","ac":201,"ac_name":"Moodabidri","booth":184,"booth_name":"St St Sabestian Aided Hr Pry School School Hosabettu (east Wing)"},"geometry":{"type":"Point","coordinates":[75.00828,13.0280628]}},{"type":"Feature","properties":{"state":"Karnataka","district":26,"district_n":"DAKSHINA KANNADA","pc":17,"pc_name":"Dakshina Kannada","ac":201,"ac_name":"Moodabidri","booth":185,"booth_name":"D K Z P Hr Pry School School Kallabettu Kallabettu (new Building South Wing)"},"geometry":{"type":"Point","coordinates":[75.03704,13.0637321]}},{"type":"Feature","properties":{"state":"Karnataka","district":26,"district_n":"DAKSHINA KANNADA","pc":17,"pc_name":"Dakshina Kannada","ac":201,"ac_name":"Moodabidri","booth":187,"booth_name":"D K Z P Hr Pry School , Kallabettu (north Wing of Old Building)"},"geometry":{"type":"Point","coordinates":[75.0379639,13.063735]}},{"type":"Feature","properties":{"state":"Karnataka","district":26,"district_n":"DAKSHINA KANNADA","pc":17,"pc_name":"Dakshina Kannada","ac":201,"ac_name":"Moodabidri","booth":190,"booth_name":"D K Z P Hr Pry School, Shanthiraj Colony Puchamogaru"},"geometry":{"type":"Point","coordinates":[75.0394745,13.0206709]}},{"type":"Feature","properties":{"state":"Karnataka","district":26,"district_n":"DAKSHINA KANNADA","pc":17,"pc_name":"Dakshina Kannada","ac":201,"ac_name":"Moodabidri","booth":106,"booth_name":"D K Z P,hr Pry School , K S Rao Rao Nagar, Nagar, Karnadu ( North Wing )"},"geometry":{"type":"Point","coordinates":[74.80263,13.0743408]}},{"type":"Feature","properties":{"state":"Karnataka","district":26,"district_n":"DAKSHINA KANNADA","pc":17,"pc_name":"Dakshina Kannada","ac":201,"ac_name":"Moodabidri","booth":132,"booth_name":"United Basel Mission Church H P S,haleyangady ( West Wing )"},"geometry":{"type":"Point","coordinates":[74.79616,13.0440874]}},{"type":"Feature","properties":{"state":"Karnataka","district":26,"district_n":"DAKSHINA KANNADA","pc":17,"pc_name":"Dakshina Kannada","ac":201,"ac_name":"Moodabidri","booth":140,"booth_name":"Village Accountants Office, Kuthethoor"},"geometry":{"type":"Point","coordinates":[74.848,13.0049763]}},{"type":"Feature","properties":{"state":"Karnataka","district":26,"district_n":"DAKSHINA KANNADA","pc":17,"pc_name":"Dakshina Kannada","ac":201,"ac_name":"Moodabidri","booth":152,"booth_name":"Village Panchayath Office , Bajpe(office Building )"},"geometry":{"type":"Point","coordinates":[74.88279,12.98087]}},{"type":"Feature","properties":{"state":"Karnataka","district":26,"district_n":"DAKSHINA KANNADA","pc":17,"pc_name":"Dakshina Kannada","ac":201,"ac_name":"Moodabidri","booth":72,"booth_name":"Aided Hr Pry School, Sampige Puthige (east Wing )"},"geometry":{"type":"Point","coordinates":[74.94186,13.0652208]}},{"type":"Feature","properties":{"state":"Karnataka","district":26,"district_n":"DAKSHINA KANNADA","pc":17,"pc_name":"Dakshina Kannada","ac":201,"ac_name":"Moodabidri","booth":80,"booth_name":"St St Francis Xevier Aided Hr Pry School ,nirude ,nirude Niddodi"},"geometry":{"type":"Point","coordinates":[74.9070053,13.0274649]}},{"type":"Feature","properties":{"state":"Karnataka","district":26,"district_n":"DAKSHINA KANNADA","pc":17,"pc_name":"Dakshina Kannada","ac":201,"ac_name":"Moodabidri","booth":86,"booth_name":"St St Mary`s Aided Aided Hr Pry Pry School, Kinnigoli Kinnigoli (south Wing of Right Building)"},"geometry":{"type":"Point","coordinates":[74.85208,13.064393]}},{"type":"Feature","properties":{"state":"Karnataka","district":26,"district_n":"DAKSHINA KANNADA","pc":17,"pc_name":"Dakshina Kannada","ac":201,"ac_name":"Moodabidri","booth":112,"booth_name":"Sri Subrahmanya Hr Pry School ,10 Thokur"},"geometry":{"type":"Point","coordinates":[74.8086243,13.047967]}},{"type":"Feature","properties":{"state":"Karnataka","district":26,"district_n":"DAKSHINA KANNADA","pc":17,"pc_name":"Dakshina Kannada","ac":201,"ac_name":"Moodabidri","booth":120,"booth_name":"Village Panchayath Office, Yekkar Yekkar Yekkar (meeting Hall)"},"geometry":{"type":"Point","coordinates":[74.86957,13.0224648]}},{"type":"Feature","properties":{"state":"Karnataka","district":26,"district_n":"DAKSHINA KANNADA","pc":17,"pc_name":"Dakshina Kannada","ac":201,"ac_name":"Moodabidri","booth":123,"booth_name":"D K Z P Hr Pry School, School, Kilinjoor"},"geometry":{"type":"Point","coordinates":[74.8404846,13.0330162]}},{"type":"Feature","properties":{"state":"Karnataka","district":26,"district_n":"DAKSHINA KANNADA","pc":17,"pc_name":"Dakshina Kannada","ac":201,"ac_name":"Moodabidri","booth":126,"booth_name":"D K Z P Hr Pry School, Koikude"},"geometry":{"type":"Point","coordinates":[74.8221741,13.0394535]}},{"type":"Feature","properties":{"state":"Karnataka","district":26,"district_n":"DAKSHINA KANNADA","pc":17,"pc_name":"Dakshina Kannada","ac":201,"ac_name":"Moodabidri","booth":129,"booth_name":"D K Z P P Model Hr Pry School ,bolluru, Indiranagar, Haleyangady"},"geometry":{"type":"Point","coordinates":[74.80484,13.046031]}},{"type":"Feature","properties":{"state":"Karnataka","district":26,"district_n":"DAKSHINA KANNADA","pc":17,"pc_name":"Dakshina Kannada","ac":201,"ac_name":"Moodabidri","booth":143,"booth_name":"St Francis Xavier Hr Pry Pry School Permude Permude (middle Wing)"},"geometry":{"type":"Point","coordinates":[74.8729248,13.0128]}},{"type":"Feature","properties":{"state":"Karnataka","district":26,"district_n":"DAKSHINA KANNADA","pc":17,"pc_name":"Dakshina Kannada","ac":201,"ac_name":"Moodabidri","booth":146,"booth_name":"Little Flower Aided Hr Pry School Bajpe (south Wing)"},"geometry":{"type":"Point","coordinates":[74.8868942,12.9818239]}},{"type":"Feature","properties":{"state":"Karnataka","district":26,"district_n":"DAKSHINA KANNADA","pc":17,"pc_name":"Dakshina Kannada","ac":201,"ac_name":"Moodabidri","booth":149,"booth_name":"Anganwadi Bldg, Shanthigudde Bajpe"},"geometry":{"type":"Point","coordinates":[74.8591,12.9790392]}},{"type":"Feature","properties":{"state":"Karnataka","district":26,"district_n":"DAKSHINA KANNADA","pc":17,"pc_name":"Dakshina Kannada","ac":201,"ac_name":"Moodabidri","booth":155,"booth_name":"Panchayath Office, (hall) Bala"},"geometry":{"type":"Point","coordinates":[74.84,12.9916887]}},{"type":"Feature","properties":{"state":"Karnataka","district":26,"district_n":"DAKSHINA KANNADA","pc":17,"pc_name":"Dakshina Kannada","ac":201,"ac_name":"Moodabidri","booth":163,"booth_name":"Shree Devi Engineering College, Kenjar (ground Floor )"},"geometry":{"type":"Point","coordinates":[74.8708954,12.9529095]}},{"type":"Feature","properties":{"state":"Karnataka","district":26,"district_n":"DAKSHINA KANNADA","pc":17,"pc_name":"Dakshina Kannada","ac":201,"ac_name":"Moodabidri","booth":109,"booth_name":"Bharath Nirman Rajeeva Gandhi Seva Kendra,new Building Padupanambur (east Wing)"},"geometry":{"type":"Point","coordinates":[74.7967,13.0557766]}},{"type":"Feature","properties":{"state":"Karnataka","district":26,"district_n":"DAKSHINA KANNADA","pc":17,"pc_name":"Dakshina Kannada","ac":201,"ac_name":"Moodabidri","booth":166,"booth_name":"D K Z P P Hr Pry School, Siddarthanagar"},"geometry":{"type":"Point","coordinates":[74.88858,12.96995]}},{"type":"Feature","properties":{"state":"Karnataka","district":26,"district_n":"DAKSHINA KANNADA","pc":17,"pc_name":"Dakshina Kannada","ac":201,"ac_name":"Moodabidri","booth":169,"booth_name":"D K Z P P Hr Primary School,moodushedde (south Portion of Main Building )"},"geometry":{"type":"Point","coordinates":[74.88718,12.9315357]}},{"type":"Feature","properties":{"state":"Karnataka","district":26,"district_n":"DAKSHINA KANNADA","pc":17,"pc_name":"Dakshina Kannada","ac":201,"ac_name":"Moodabidri","booth":27,"booth_name":"D K Z P Hr Pry School Beluvai (room No 1)"},"geometry":{"type":"Point","coordinates":[74.9947739,13.1410379]}},{"type":"Feature","properties":{"state":"Karnataka","district":26,"district_n":"DAKSHINA KANNADA","pc":17,"pc_name":"Dakshina Kannada","ac":201,"ac_name":"Moodabidri","booth":30,"booth_name":"D K Z P Model Hr Pry School, School, Kesarugadde Main (south Wing)"},"geometry":{"type":"Point","coordinates":[74.99555,13.11659]}},{"type":"Feature","properties":{"state":"Karnataka","district":26,"district_n":"DAKSHINA KANNADA","pc":17,"pc_name":"Dakshina Kannada","ac":201,"ac_name":"Moodabidri","booth":6,"booth_name":"D K Z P Hr Hr Pry School School School Mailottu"},"geometry":{"type":"Point","coordinates":[74.81377,13.1043978]}},{"type":"Feature","properties":{"state":"Karnataka","district":26,"district_n":"DAKSHINA KANNADA","pc":17,"pc_name":"Dakshina Kannada","ac":201,"ac_name":"Moodabidri","booth":37,"booth_name":"D K Z P Hr Pry School School Daregudde (east wing )"},"geometry":{"type":"Point","coordinates":[75.05672,13.121666]}},{"type":"Feature","properties":{"state":"Karnataka","district":26,"district_n":"DAKSHINA KANNADA","pc":17,"pc_name":"Dakshina Kannada","ac":201,"ac_name":"Moodabidri","booth":40,"booth_name":"D K Z P Hr Pry School School Nellikaru"},"geometry":{"type":"Point","coordinates":[75.09501,13.157095]}},{"type":"Feature","properties":{"state":"Karnataka","district":26,"district_n":"DAKSHINA KANNADA","pc":17,"pc_name":"Dakshina Kannada","ac":201,"ac_name":"Moodabidri","booth":66,"booth_name":"D K Z P Hr Pry School, Handelu Puthige ( New Bldg )"},"geometry":{"type":"Point","coordinates":[74.9735,13.0586624]}},{"type":"Feature","properties":{"state":"Karnataka","district":26,"district_n":"DAKSHINA KANNADA","pc":17,"pc_name":"Dakshina Kannada","ac":201,"ac_name":"Moodabidri","booth":9,"booth_name":"D K Z P Hr Pry School School Kavathar (west (west Wing )"},"geometry":{"type":"Point","coordinates":[74.82206,13.1082983]}},{"type":"Feature","properties":{"state":"Karnataka","district":26,"district_n":"DAKSHINA KANNADA","pc":17,"pc_name":"Dakshina Kannada","ac":201,"ac_name":"Moodabidri","booth":17,"booth_name":"Little Flower Aided Hr Pry School, School, Kallamundkur Kallamundkur Kallamundkur (east Wing )"},"geometry":{"type":"Point","coordinates":[74.8933258,13.0654364]}},{"type":"Feature","properties":{"state":"Karnataka","district":26,"district_n":"DAKSHINA KANNADA","pc":17,"pc_name":"Dakshina Kannada","ac":201,"ac_name":"Moodabidri","booth":20,"booth_name":"D K Z P Hr Pry School, Main Kadandale (old Building)"},"geometry":{"type":"Point","coordinates":[74.92235,13.1153326]}},{"type":"Feature","properties":{"state":"Karnataka","district":26,"district_n":"DAKSHINA KANNADA","pc":17,"pc_name":"Dakshina Kannada","ac":201,"ac_name":"Moodabidri","booth":23,"booth_name":"D K Z P Hr Pry School School Varnabettu, Paladka"},"geometry":{"type":"Point","coordinates":[74.93999,13.1137247]}},{"type":"Feature","properties":{"state":"Karnataka","district":26,"district_n":"DAKSHINA KANNADA","pc":17,"pc_name":"Dakshina Kannada","ac":201,"ac_name":"Moodabidri","booth":26,"booth_name":"D K Z P P Hr Pry School , Beluvai (south Wing)"},"geometry":{"type":"Point","coordinates":[74.995575,13.1276045]}},{"type":"Feature","properties":{"state":"Karnataka","district":26,"district_n":"DAKSHINA KANNADA","pc":17,"pc_name":"Dakshina Kannada","ac":201,"ac_name":"Moodabidri","booth":29,"booth_name":"D K Z P Model Hr Pry School, School, Kesarugadde Main (north Wing)"},"geometry":{"type":"Point","coordinates":[74.9953842,13.1166859]}},{"type":"Feature","properties":{"state":"Karnataka","district":26,"district_n":"DAKSHINA KANNADA","pc":17,"pc_name":"Dakshina Kannada","ac":201,"ac_name":"Moodabidri","booth":43,"booth_name":"D K Z P Hr Pry School School Hompettu, Mantrady, Old Building (east)"},"geometry":{"type":"Point","coordinates":[75.10922,13.1226006]}},{"type":"Feature","properties":{"state":"Karnataka","district":26,"district_n":"DAKSHINA KANNADA","pc":17,"pc_name":"Dakshina Kannada","ac":201,"ac_name":"Moodabidri","booth":69,"booth_name":"D K Z P Hr Pry School, Puthige"},"geometry":{"type":"Point","coordinates":[74.95871,13.075798]}},{"type":"Feature","properties":{"state":"Karnataka","district":26,"district_n":"DAKSHINA KANNADA","pc":17,"pc_name":"Dakshina Kannada","ac":201,"ac_name":"Moodabidri","booth":89,"booth_name":"Village Panchayath Office Mennabettu Kinnigoli"},"geometry":{"type":"Point","coordinates":[74.84954,13.0588417]}},{"type":"Feature","properties":{"state":"Karnataka","district":26,"district_n":"DAKSHINA KANNADA","pc":17,"pc_name":"Dakshina Kannada","ac":201,"ac_name":"Moodabidri","booth":92,"booth_name":"D K Z P Hr Pry School, Guthakadu, Kinnigoli"},"geometry":{"type":"Point","coordinates":[74.84543,13.0855827]}},{"type":"Feature","properties":{"state":"Karnataka","district":26,"district_n":"DAKSHINA KANNADA","pc":17,"pc_name":"Dakshina Kannada","ac":201,"ac_name":"Moodabidri","booth":103,"booth_name":"Town Pachayath Office, Mulky (meeting Hall)"},"geometry":{"type":"Point","coordinates":[74.7973,13.0844746]}},{"type":"Feature","properties":{"state":"Karnataka","district":26,"district_n":"DAKSHINA KANNADA","pc":17,"pc_name":"Dakshina Kannada","ac":201,"ac_name":"Moodabidri","booth":49,"booth_name":"D K Z P Hr Hr Pry School, School, Moodukonaje ( East Wing)"},"geometry":{"type":"Point","coordinates":[75.0670853,13.0818176]}},{"type":"Feature","properties":{"state":"Karnataka","district":26,"district_n":"DAKSHINA KANNADA","pc":17,"pc_name":"Dakshina Kannada","ac":201,"ac_name":"Moodabidri","booth":193,"booth_name":"D K Z P Hr Pr School,iruvail(new School,iruvail(new Building)"},"geometry":{"type":"Point","coordinates":[75.0097961,12.9976521]}},{"type":"Feature","properties":{"state":"Karnataka","district":26,"district_n":"DAKSHINA KANNADA","pc":17,"pc_name":"Dakshina Kannada","ac":201,"ac_name":"Moodabidri","booth":172,"booth_name":"D K Z P P Hr Pry School, Moodushedde Moodushedde ( Main Bldg Bldg of West Wing )"},"geometry":{"type":"Point","coordinates":[74.88727,12.931715]}},{"type":"Feature","properties":{"state":"Karnataka","district":26,"district_n":"DAKSHINA KANNADA","pc":17,"pc_name":"Dakshina Kannada","ac":201,"ac_name":"Moodabidri","booth":175,"booth_name":"Grama Panchayath Office, Moodushedde"},"geometry":{"type":"Point","coordinates":[74.89247,12.9281149]}},{"type":"Feature","properties":{"state":"Karnataka","district":26,"district_n":"DAKSHINA KANNADA","pc":17,"pc_name":"Dakshina Kannada","ac":201,"ac_name":"Moodabidri","booth":183,"booth_name":"St St Sabestian Aided Hr Pry School School Hosabettu (west Wing)"},"geometry":{"type":"Point","coordinates":[75.00825,13.02819]}},{"type":"Feature","properties":{"state":"Karnataka","district":26,"district_n":"DAKSHINA KANNADA","pc":17,"pc_name":"Dakshina Kannada","ac":201,"ac_name":"Moodabidri","booth":186,"booth_name":"D K Z P Hr Pry School School Kallabettu Kallabettu (south Wing of Old Building)"},"geometry":{"type":"Point","coordinates":[75.03807,13.0635815]}},{"type":"Feature","properties":{"state":"Karnataka","district":26,"district_n":"DAKSHINA KANNADA","pc":17,"pc_name":"Dakshina Kannada","ac":201,"ac_name":"Moodabidri","booth":189,"booth_name":"Dakshina Kannada Zilla Panchayath Higher Primary School, Nethodi, Maroor"},"geometry":{"type":"Point","coordinates":[75.0586243,13.0405655]}},{"type":"Feature","properties":{"state":"Karnataka","district":26,"district_n":"DAKSHINA KANNADA","pc":17,"pc_name":"Dakshina Kannada","ac":201,"ac_name":"Moodabidri","booth":192,"booth_name":"D K Z P Hr Pr School, Iruvail Iruvail Iruvail (old Building)"},"geometry":{"type":"Point","coordinates":[75.00975,12.9975986]}},{"type":"Feature","properties":{"state":"Karnataka","district":26,"district_n":"DAKSHINA KANNADA","pc":17,"pc_name":"Dakshina Kannada","ac":201,"ac_name":"Moodabidri","booth":111,"booth_name":"D K Z P H P S, S, ( Hindustani )10 )10 Thokur Thokur (east Wing)"},"geometry":{"type":"Point","coordinates":[74.80851,13.056139]}},{"type":"Feature","properties":{"state":"Karnataka","district":26,"district_n":"DAKSHINA KANNADA","pc":17,"pc_name":"Dakshina Kannada","ac":201,"ac_name":"Moodabidri","booth":168,"booth_name":"Manel Shrinivas Nayak Memorial Basent Institute of Post Graduate Studies, Bondel, Padushedde"},"geometry":{"type":"Point","coordinates":[74.86998,12.9244909]}},{"type":"Feature","properties":{"state":"Karnataka","district":26,"district_n":"DAKSHINA KANNADA","pc":17,"pc_name":"Dakshina Kannada","ac":201,"ac_name":"Moodabidri","booth":171,"booth_name":"D K Z P P Hr Pry School, Moodushedde ( Main Bldg Bldg of East Wing )"},"geometry":{"type":"Point","coordinates":[74.88725,12.9315653]}},{"type":"Feature","properties":{"state":"Karnataka","district":26,"district_n":"DAKSHINA KANNADA","pc":17,"pc_name":"Dakshina Kannada","ac":201,"ac_name":"Moodabidri","booth":174,"booth_name":"Nethaji Subhash Chandra Bos Govt High School, Moodushedde (north (north Portion of Main Building )"},"geometry":{"type":"Point","coordinates":[74.8876,12.93095]}},{"type":"Feature","properties":{"state":"Karnataka","district":26,"district_n":"DAKSHINA KANNADA","pc":17,"pc_name":"Dakshina Kannada","ac":201,"ac_name":"Moodabidri","booth":177,"booth_name":"D K Z P Hr Pry School, Neerkere Neerkere (west Wing)"},"geometry":{"type":"Point","coordinates":[74.9403458,13.0284424]}},{"type":"Feature","properties":{"state":"Karnataka","district":26,"district_n":"DAKSHINA KANNADA","pc":17,"pc_name":"Dakshina Kannada","ac":201,"ac_name":"Moodabidri","booth":180,"booth_name":"D K Z P Hr Pry School, Thodar (east Wing)"},"geometry":{"type":"Point","coordinates":[74.98487,13.0325212]}},{"type":"Feature","properties":{"state":"Karnataka","district":26,"district_n":"DAKSHINA KANNADA","pc":17,"pc_name":"Dakshina Kannada","ac":201,"ac_name":"Moodabidri","booth":188,"booth_name":"D K Z P Hr Pry School School Marooru Hosangady Hosangady (south Wing"},"geometry":{"type":"Point","coordinates":[75.0760651,13.049263]}},{"type":"Feature","properties":{"state":"Karnataka","district":26,"district_n":"DAKSHINA KANNADA","pc":17,"pc_name":"Dakshina Kannada","ac":201,"ac_name":"Moodabidri","booth":191,"booth_name":"Shree Nithyananda Aided Hr Pry School Puchamogaru, Gulambavadabailu"},"geometry":{"type":"Point","coordinates":[75.02525,13.014143]}},{"type":"Feature","properties":{"state":"Karnataka","district":26,"district_n":"DAKSHINA KANNADA","pc":17,"pc_name":"Dakshina Kannada","ac":201,"ac_name":"Moodabidri","booth":108,"booth_name":"Bharth Nirman Rajeeva Gandi Seva Kendra, New Building Padupanambur (west Wing)"},"geometry":{"type":"Point","coordinates":[74.79682,13.05589]}},{"type":"Feature","properties":{"state":"Karnataka","district":26,"district_n":"DAKSHINA KANNADA","pc":17,"pc_name":"Dakshina Kannada","ac":201,"ac_name":"Moodabidri","booth":131,"booth_name":"United Basel Mission Church H P S,haleyangady ( East Wing )"},"geometry":{"type":"Point","coordinates":[74.79628,13.0440855]}},{"type":"Feature","properties":{"state":"Karnataka","district":26,"district_n":"DAKSHINA KANNADA","pc":17,"pc_name":"Dakshina Kannada","ac":201,"ac_name":"Moodabidri","booth":151,"booth_name":"Village Panchayath Office , Bajpe(meeting Hall)"},"geometry":{"type":"Point","coordinates":[74.8828049,12.9807711]}},{"type":"Feature","properties":{"state":"Karnataka","district":26,"district_n":"DAKSHINA KANNADA","pc":17,"pc_name":"Dakshina Kannada","ac":201,"ac_name":"Moodabidri","booth":157,"booth_name":"D K Z P P Hr Pry School, School, Boorugudde,62 Thokur (east Wing )"},"geometry":{"type":"Point","coordinates":[74.83119,12.9707518]}},{"type":"Feature","properties":{"state":"Karnataka","district":26,"district_n":"DAKSHINA KANNADA","pc":17,"pc_name":"Dakshina Kannada","ac":201,"ac_name":"Moodabidri","booth":160,"booth_name":"D K Z P Model Hr Pry School, Jokatte, ( 2nd 2nd Room of South Wing)"},"geometry":{"type":"Point","coordinates":[74.84656,12.9641428]}},{"type":"Feature","properties":{"state":"Karnataka","district":26,"district_n":"DAKSHINA KANNADA","pc":17,"pc_name":"Dakshina Kannada","ac":201,"ac_name":"Moodabidri","booth":71,"booth_name":"Aided Hr Pry School, Sampige Puthige"},"geometry":{"type":"Point","coordinates":[74.94189,13.0651188]}},{"type":"Feature","properties":{"state":"Karnataka","district":26,"district_n":"DAKSHINA KANNADA","pc":17,"pc_name":"Dakshina Kannada","ac":201,"ac_name":"Moodabidri","booth":88,"booth_name":"St St Mary`s Aided Hr Pry Pry School , Kinnigoli Kinnigoli ( South Bldg of West Wing )"},"geometry":{"type":"Point","coordinates":[74.852,13.0645275]}},{"type":"Feature","properties":{"state":"Karnataka","district":26,"district_n":"DAKSHINA KANNADA","pc":17,"pc_name":"Dakshina Kannada","ac":201,"ac_name":"Moodabidri","booth":94,"booth_name":"D K Z P Hr Pry School, Padmanoor Talipady"},"geometry":{"type":"Point","coordinates":[74.83539,13.0600529]}},{"type":"Feature","properties":{"state":"Karnataka","district":26,"district_n":"DAKSHINA KANNADA","pc":17,"pc_name":"Dakshina Kannada","ac":201,"ac_name":"Moodabidri","booth":105,"booth_name":"D K Z P,hr Pry School , K S Rao Rao Nagar Nagar (new Bldg of Right Wing)"},"geometry":{"type":"Point","coordinates":[74.80312,13.074132]}},{"type":"Feature","properties":{"state":"Karnataka","district":26,"district_n":"DAKSHINA KANNADA","pc":17,"pc_name":"Dakshina Kannada","ac":201,"ac_name":"Moodabidri","booth":114,"booth_name":"Village Panchayath Office, Kemral, Kemral, ( New Bldg )"},"geometry":{"type":"Point","coordinates":[74.82484,13.0474873]}},{"type":"Feature","properties":{"state":"Karnataka","district":26,"district_n":"DAKSHINA KANNADA","pc":17,"pc_name":"Dakshina Kannada","ac":201,"ac_name":"Moodabidri","booth":117,"booth_name":"D K Z P P Hr Pry School, Badagayekkar Badagayekkar (north Wing)"},"geometry":{"type":"Point","coordinates":[74.86705,13.0263052]}},{"type":"Feature","properties":{"state":"Karnataka","district":26,"district_n":"DAKSHINA KANNADA","pc":17,"pc_name":"Dakshina Kannada","ac":201,"ac_name":"Moodabidri","booth":125,"booth_name":"D K Z P Hr Hr Pry School, Panja"},"geometry":{"type":"Point","coordinates":[74.81993,13.0325146]}},{"type":"Feature","properties":{"state":"Karnataka","district":26,"district_n":"DAKSHINA KANNADA","pc":17,"pc_name":"Dakshina Kannada","ac":201,"ac_name":"Moodabidri","booth":128,"booth_name":"Govt First Grade College, Indiranagar Indiranagar Haleyangady"},"geometry":{"type":"Point","coordinates":[74.80403,13.0478621]}},{"type":"Feature","properties":{"state":"Karnataka","district":26,"district_n":"DAKSHINA KANNADA","pc":17,"pc_name":"Dakshina Kannada","ac":201,"ac_name":"Moodabidri","booth":134,"booth_name":"D K Z P P Model Hr Pry School School Sasihithlu (west Wing)"},"geometry":{"type":"Point","coordinates":[74.78112,13.0545883]}},{"type":"Feature","properties":{"state":"Karnataka","district":26,"district_n":"DAKSHINA KANNADA","pc":17,"pc_name":"Dakshina Kannada","ac":201,"ac_name":"Moodabidri","booth":137,"booth_name":"D K Z P P Higher Primary School, Madya"},"geometry":{"type":"Point","coordinates":[74.81291,13.0164576]}},{"type":"Feature","properties":{"state":"Karnataka","district":26,"district_n":"DAKSHINA KANNADA","pc":17,"pc_name":"Dakshina Kannada","ac":201,"ac_name":"Moodabidri","booth":148,"booth_name":"Parokiyal Aided Higher Primary School Bajpe (west Wing Bldg)"},"geometry":{"type":"Point","coordinates":[74.88545,12.9826384]}},{"type":"Feature","properties":{"state":"Karnataka","district":26,"district_n":"DAKSHINA KANNADA","pc":17,"pc_name":"Dakshina Kannada","ac":201,"ac_name":"Moodabidri","booth":154,"booth_name":"Panchayath Office, Bala"},"geometry":{"type":"Point","coordinates":[74.84,12.9916248]}},{"type":"Feature","properties":{"state":"Karnataka","district":26,"district_n":"DAKSHINA KANNADA","pc":17,"pc_name":"Dakshina Kannada","ac":201,"ac_name":"Moodabidri","booth":83,"booth_name":"Shree Durga Parameshwari Pre University College, Kateel Kateel ( North Wing )"},"geometry":{"type":"Point","coordinates":[74.8691254,13.0451412]}},{"type":"Feature","properties":{"state":"Karnataka","district":26,"district_n":"DAKSHINA KANNADA","pc":17,"pc_name":"Dakshina Kannada","ac":201,"ac_name":"Moodabidri","booth":3,"booth_name":"Govt Jr College Mulki Mulki Mulki Mulki Mulki Mulki Mulki Mulki Mulki Mulki Mulki Mulki Mulki Mulki Mulki Mulki Mulki Mulki Mulki Mulki Mulki Mulki Mulki Mulki Mulki Mulki Mulki Mulki Mulki Mulki Mulki Mulki Mulki Mulki Mulki Mulki Mulki Mulki Mulki Mulk"},"geometry":{"type":"Point","coordinates":[74.79944,13.0863543]}},{"type":"Feature","properties":{"state":"Karnataka","district":26,"district_n":"DAKSHINA KANNADA","pc":17,"pc_name":"Dakshina Kannada","ac":201,"ac_name":"Moodabidri","booth":46,"booth_name":"D K Z P Hr Pry School, Aliyur, Valpady ( ( New building of North North Wing )"},"geometry":{"type":"Point","coordinates":[75.08851,13.1198406]}},{"type":"Feature","properties":{"state":"Karnataka","district":26,"district_n":"DAKSHINA KANNADA","pc":17,"pc_name":"Dakshina Kannada","ac":201,"ac_name":"Moodabidri","booth":57,"booth_name":"Town Municipal Office, Moodabidri"},"geometry":{"type":"Point","coordinates":[74.9949646,13.0668774]}},{"type":"Feature","properties":{"state":"Karnataka","district":26,"district_n":"DAKSHINA KANNADA","pc":17,"pc_name":"Dakshina Kannada","ac":201,"ac_name":"Moodabidri","booth":100,"booth_name":"D K Z P L P School, Kenchanakere, Kilpady"},"geometry":{"type":"Point","coordinates":[74.81101,13.0721874]}},{"type":"Feature","properties":{"state":"Karnataka","district":26,"district_n":"DAKSHINA KANNADA","pc":17,"pc_name":"Dakshina Kannada","ac":201,"ac_name":"Moodabidri","booth":60,"booth_name":"Aided Digambara Jain H P School Prantya"},"geometry":{"type":"Point","coordinates":[74.99971,13.074439]}},{"type":"Feature","properties":{"state":"Karnataka","district":26,"district_n":"DAKSHINA KANNADA","pc":17,"pc_name":"Dakshina Kannada","ac":201,"ac_name":"Moodabidri","booth":63,"booth_name":"D K Z P Hr Pry School, Jyothinagara, Moodabidri Moodabidri Old Bldg Bldg )"},"geometry":{"type":"Point","coordinates":[75.00147,13.0666571]}},{"type":"Feature","properties":{"state":"Karnataka","district":26,"district_n":"DAKSHINA KANNADA","pc":17,"pc_name":"Dakshina Kannada","ac":201,"ac_name":"Moodabidri","booth":45,"booth_name":"Holy Angels Aided Hr Pry Pry School , Shirthady Shirthady Shirthady Shirthady Shirthady Shirthady Shirthady Shirthady Shirthady Shirthady Shirthady Shirthady Shirthady Shirthady Shirthady Shirthady Shirthady Shirthady Shirthady Shirthady Shirthady Shirth"},"geometry":{"type":"Point","coordinates":[75.0826,13.0845346]}},{"type":"Feature","properties":{"state":"Karnataka","district":26,"district_n":"DAKSHINA KANNADA","pc":17,"pc_name":"Dakshina Kannada","ac":201,"ac_name":"Moodabidri","booth":51,"booth_name":"D K Z P H Pry School School Padukonaje (new Building )"},"geometry":{"type":"Point","coordinates":[75.05588,13.075139]}},{"type":"Feature","properties":{"state":"Karnataka","district":26,"district_n":"DAKSHINA KANNADA","pc":17,"pc_name":"Dakshina Kannada","ac":201,"ac_name":"Moodabidri","booth":25,"booth_name":"D K Z P P Hr Pry School,belvai (north Wing)"},"geometry":{"type":"Point","coordinates":[74.99551,13.1278563]}},{"type":"Feature","properties":{"state":"Karnataka","district":26,"district_n":"DAKSHINA KANNADA","pc":17,"pc_name":"Dakshina Kannada","ac":201,"ac_name":"Moodabidri","booth":77,"booth_name":"Sri Vani Vilasa Aided H Pry School Ashwathapura, (east Wing )"},"geometry":{"type":"Point","coordinates":[74.94461,13.0451641]}},{"type":"Feature","properties":{"state":"Karnataka","district":26,"district_n":"DAKSHINA KANNADA","pc":17,"pc_name":"Dakshina Kannada","ac":201,"ac_name":"Moodabidri","booth":85,"booth_name":"St St Mary`s Aided Aided Hr Pry Pry School, Kinnigoli (south Wing of Left Building)"},"geometry":{"type":"Point","coordinates":[74.85215,13.0644884]}},{"type":"Feature","properties":{"state":"Karnataka","district":26,"district_n":"DAKSHINA KANNADA","pc":17,"pc_name":"Dakshina Kannada","ac":201,"ac_name":"Moodabidri","booth":2,"booth_name":"D K Z P Hr Pry School School Mulki Mulki Mulki Mulki Mulki Mulki Mulki Mulki Mulki Mulki Mulki Mulki Mulki Mulki Mulki Mulki Mulki Mulki Mulki Mulki Mulki Mulki Mulki Mulki Mulki Mulki Mulki Mulki Mulki Mulki Mulki Mulki Mulki Mulki Mulki Mulki Mulki Mul"},"geometry":{"type":"Point","coordinates":[74.79004,13.0942221]}},{"type":"Feature","properties":{"state":"Karnataka","district":26,"district_n":"DAKSHINA KANNADA","pc":17,"pc_name":"Dakshina Kannada","ac":201,"ac_name":"Moodabidri","booth":22,"booth_name":"St Ignetious Aided Aided Hr Pry School School Paladka"},"geometry":{"type":"Point","coordinates":[74.93335,13.0941124]}},{"type":"Feature","properties":{"state":"Karnataka","district":26,"district_n":"DAKSHINA KANNADA","pc":17,"pc_name":"Dakshina Kannada","ac":201,"ac_name":"Moodabidri","booth":5,"booth_name":"Community Hall Hall Mailottu"},"geometry":{"type":"Point","coordinates":[74.8139648,13.10445]}},{"type":"Feature","properties":{"state":"Karnataka","district":26,"district_n":"DAKSHINA KANNADA","pc":17,"pc_name":"Dakshina Kannada","ac":201,"ac_name":"Moodabidri","booth":31,"booth_name":"Dakshina Kannada Zilla Panchayath Model Model Higher Primary School, Bannadka Padumarnadu (east Wing )"},"geometry":{"type":"Point","coordinates":[74.99752,13.1000834]}},{"type":"Feature","properties":{"state":"Karnataka","district":26,"district_n":"DAKSHINA KANNADA","pc":17,"pc_name":"Dakshina Kannada","ac":201,"ac_name":"Moodabidri","booth":42,"booth_name":"D K Z P Hr Pry School School Hompettu, Mantrady ,new Building( West)"},"geometry":{"type":"Point","coordinates":[75.10924,13.1225824]}},{"type":"Feature","properties":{"state":"Karnataka","district":26,"district_n":"DAKSHINA KANNADA","pc":17,"pc_name":"Dakshina Kannada","ac":201,"ac_name":"Moodabidri","booth":8,"booth_name":"D K Z P Hr Pry School School Kavathar (east Wing )"},"geometry":{"type":"Point","coordinates":[74.8219147,13.1083746]}},{"type":"Feature","properties":{"state":"Karnataka","district":26,"district_n":"DAKSHINA KANNADA","pc":17,"pc_name":"Dakshina Kannada","ac":201,"ac_name":"Moodabidri","booth":11,"booth_name":"D K Z P Hr Pry School School Kollur"},"geometry":{"type":"Point","coordinates":[74.8503,13.1012115]}},{"type":"Feature","properties":{"state":"Karnataka","district":26,"district_n":"DAKSHINA KANNADA","pc":17,"pc_name":"Dakshina Kannada","ac":201,"ac_name":"Moodabidri","booth":14,"booth_name":"Little Flower Aided Hr Pry School, Yelinje (west Wing)"},"geometry":{"type":"Point","coordinates":[74.86845,13.0889673]}},{"type":"Feature","properties":{"state":"Karnataka","district":26,"district_n":"DAKSHINA KANNADA","pc":17,"pc_name":"Dakshina Kannada","ac":201,"ac_name":"Moodabidri","booth":28,"booth_name":"D K Z P Hr Pry School School Beluvai Beluvai (room No 2)"},"geometry":{"type":"Point","coordinates":[74.99487,13.1407337]}},{"type":"Feature","properties":{"state":"Karnataka","district":26,"district_n":"DAKSHINA KANNADA","pc":17,"pc_name":"Dakshina Kannada","ac":201,"ac_name":"Moodabidri","booth":34,"booth_name":"D K Z P Lower Pry School, Tandrakere, Moodumarnadu"},"geometry":{"type":"Point","coordinates":[75.03505,13.1083164]}},{"type":"Feature","properties":{"state":"Karnataka","district":26,"district_n":"DAKSHINA KANNADA","pc":17,"pc_name":"Dakshina Kannada","ac":201,"ac_name":"Moodabidri","booth":48,"booth_name":"D K Z P Hr Pry School, Peribettu , Valpady"},"geometry":{"type":"Point","coordinates":[75.0695648,13.09536]}},{"type":"Feature","properties":{"state":"Karnataka","district":26,"district_n":"DAKSHINA KANNADA","pc":17,"pc_name":"Dakshina Kannada","ac":201,"ac_name":"Moodabidri","booth":54,"booth_name":"St Thomas Aided Hr Pry School, School, Alangar Alangar Alangar Alangar ( West Room )"},"geometry":{"type":"Point","coordinates":[75.00511,13.0745029]}},{"type":"Feature","properties":{"state":"Karnataka","district":26,"district_n":"DAKSHINA KANNADA","pc":17,"pc_name":"Dakshina Kannada","ac":201,"ac_name":"Moodabidri","booth":62,"booth_name":"Holy Rosary High School, Moodabidri"},"geometry":{"type":"Point","coordinates":[74.99976,13.0642948]}},{"type":"Feature","properties":{"state":"Karnataka","district":26,"district_n":"DAKSHINA KANNADA","pc":17,"pc_name":"Dakshina Kannada","ac":201,"ac_name":"Moodabidri","booth":65,"booth_name":"D K Z P Hr Pry School, Handelu Handelu ( East )puttige"},"geometry":{"type":"Point","coordinates":[74.9776459,13.062439]}},{"type":"Feature","properties":{"state":"Karnataka","district":26,"district_n":"DAKSHINA KANNADA","pc":17,"pc_name":"Dakshina Kannada","ac":201,"ac_name":"Moodabidri","booth":68,"booth_name":"Aided H Pry School Puthige Guddeyangadi (west Wing )"},"geometry":{"type":"Point","coordinates":[74.9604645,13.0888872]}},{"type":"Feature","properties":{"state":"Karnataka","district":26,"district_n":"DAKSHINA KANNADA","pc":17,"pc_name":"Dakshina Kannada","ac":201,"ac_name":"Moodabidri","booth":74,"booth_name":"D K Z P P Hr Pry School,mijar School,mijar (west Wing)"},"geometry":{"type":"Point","coordinates":[74.96815,13.0405455]}},{"type":"Feature","properties":{"state":"Karnataka","district":26,"district_n":"DAKSHINA KANNADA","pc":17,"pc_name":"Dakshina Kannada","ac":201,"ac_name":"Moodabidri","booth":91,"booth_name":"Little Flower Hr Pry School, Kinnigoli, Kinnigoli, (west Wing)"},"geometry":{"type":"Point","coordinates":[74.8528748,13.06578]}},{"type":"Feature","properties":{"state":"Karnataka","district":26,"district_n":"DAKSHINA KANNADA","pc":17,"pc_name":"Dakshina Kannada","ac":201,"ac_name":"Moodabidri","booth":97,"booth_name":"Shree Sharada High School Shimanthur Shimanthur (west Wing)"},"geometry":{"type":"Point","coordinates":[74.83039,13.0756807]}}]}