{"type":"FeatureCollection","features":[{"type":"Feature","properties":{"state":"Karnataka","district":26,"district_n":"DAKSHINA KANNADA","pc":17,"pc_name":"Dakshina Kannada","ac":202,"ac_name":"Mangalore City North","booth":2,"booth_name":"Anjuman English Medium High School School Mukka (north Portion)"},"geometry":{"type":"Point","coordinates":[74.789856,13.0223236]}},{"type":"Feature","properties":{"state":"Karnataka","district":26,"district_n":"DAKSHINA KANNADA","pc":17,"pc_name":"Dakshina Kannada","ac":202,"ac_name":"Mangalore City North","booth":3,"booth_name":"Karnataka Regional Engineering College Aided Higher Primary School Surathkal (west Wing) Newbuilding"},"geometry":{"type":"Point","coordinates":[74.7934647,13.0132875]}},{"type":"Feature","properties":{"state":"Karnataka","district":26,"district_n":"DAKSHINA KANNADA","pc":17,"pc_name":"Dakshina Kannada","ac":202,"ac_name":"Mangalore City North","booth":5,"booth_name":"Karnataka Regional Engineering College , Aided Higher Primary School, Surathkal, Surathkal, (north Portion)"},"geometry":{"type":"Point","coordinates":[74.79329,13.0134468]}},{"type":"Feature","properties":{"state":"Karnataka","district":26,"district_n":"DAKSHINA KANNADA","pc":17,"pc_name":"Dakshina Kannada","ac":202,"ac_name":"Mangalore City North","booth":8,"booth_name":"Dakshina Kannada Zilla Panchayath Model Higher Primary School, (west wing of North Building)"},"geometry":{"type":"Point","coordinates":[74.7970047,12.9958944]}},{"type":"Feature","properties":{"state":"Karnataka","district":26,"district_n":"DAKSHINA KANNADA","pc":17,"pc_name":"Dakshina Kannada","ac":202,"ac_name":"Mangalore City North","booth":16,"booth_name":"D K Z Panchayath Model Muslim Higher Primary School, Katipalla, 7th Block West West (south room of West"},"geometry":{"type":"Point","coordinates":[74.8154755,12.9954233]}},{"type":"Feature","properties":{"state":"Karnataka","district":26,"district_n":"DAKSHINA KANNADA","pc":17,"pc_name":"Dakshina Kannada","ac":202,"ac_name":"Mangalore City North","booth":11,"booth_name":"D K Zilla Panchayath Model Higher Primary School, Katipalla, 8th block (south blding of east wing)"},"geometry":{"type":"Point","coordinates":[74.80682,12.996542]}},{"type":"Feature","properties":{"state":"Karnataka","district":26,"district_n":"DAKSHINA KANNADA","pc":17,"pc_name":"Dakshina Kannada","ac":202,"ac_name":"Mangalore City North","booth":19,"booth_name":"Govt Govt Compositive High School, Katipalla 5th Block, (east (east Room of South Wing )"},"geometry":{"type":"Point","coordinates":[74.8220444,13.0019808]}},{"type":"Feature","properties":{"state":"Karnataka","district":26,"district_n":"DAKSHINA KANNADA","pc":17,"pc_name":"Dakshina Kannada","ac":202,"ac_name":"Mangalore City North","booth":20,"booth_name":"Govt Govt Compositive High School, Katipalla 5th Block, (middle Wing of North Room)"},"geometry":{"type":"Point","coordinates":[74.82249,13.0022058]}},{"type":"Feature","properties":{"state":"Karnataka","district":26,"district_n":"DAKSHINA KANNADA","pc":17,"pc_name":"Dakshina Kannada","ac":202,"ac_name":"Mangalore City North","booth":22,"booth_name":"Dakshina Kannada Zilla Panchayath Higher Primary School School Katipalla, 2nd Block (west Portion room)"},"geometry":{"type":"Point","coordinates":[74.83106,13.0003252]}},{"type":"Feature","properties":{"state":"Karnataka","district":26,"district_n":"DAKSHINA KANNADA","pc":17,"pc_name":"Dakshina Kannada","ac":202,"ac_name":"Mangalore City North","booth":25,"booth_name":"Dakshina Kannada Zilla Panchayath Higher Primary School, Katipalla, 2nd 2nd Block (east building South Portion Room)"},"geometry":{"type":"Point","coordinates":[74.83143,13.0006771]}},{"type":"Feature","properties":{"state":"Karnataka","district":26,"district_n":"DAKSHINA KANNADA","pc":17,"pc_name":"Dakshina Kannada","ac":202,"ac_name":"Mangalore City North","booth":28,"booth_name":"Chaitanya Public Public School, Katipalla, 4th Block Block ( North Wing Room )"},"geometry":{"type":"Point","coordinates":[74.821846,12.9976187]}},{"type":"Feature","properties":{"state":"Karnataka","district":26,"district_n":"DAKSHINA KANNADA","pc":17,"pc_name":"Dakshina Kannada","ac":202,"ac_name":"Mangalore City North","booth":31,"booth_name":"Sri Mahalingeshwara Eng Med High School, Idya (north Wing)"},"geometry":{"type":"Point","coordinates":[74.79924,12.9847851]}},{"type":"Feature","properties":{"state":"Karnataka","district":26,"district_n":"DAKSHINA KANNADA","pc":17,"pc_name":"Dakshina Kannada","ac":202,"ac_name":"Mangalore City North","booth":37,"booth_name":"Dakshina Kannada Zilla Panchayath Higher Primary School, Kanakatla, Idya( Sourth Wing Room )"},"geometry":{"type":"Point","coordinates":[74.82065,12.9896708]}},{"type":"Feature","properties":{"state":"Karnataka","district":26,"district_n":"DAKSHINA KANNADA","pc":17,"pc_name":"Dakshina Kannada","ac":202,"ac_name":"Mangalore City North","booth":39,"booth_name":"Vidyadayini Aided Higher Primary Primary School, Surathkal ( West Wing )"},"geometry":{"type":"Point","coordinates":[74.8025,12.9827747]}},{"type":"Feature","properties":{"state":"Karnataka","district":26,"district_n":"DAKSHINA KANNADA","pc":17,"pc_name":"Dakshina Kannada","ac":202,"ac_name":"Mangalore City North","booth":40,"booth_name":"Vidhyadayani Aided Higher Primary Primary Primary School School Surathkal Surathkal ( East Wing )"},"geometry":{"type":"Point","coordinates":[74.8023758,12.9830017]}},{"type":"Feature","properties":{"state":"Karnataka","district":26,"district_n":"DAKSHINA KANNADA","pc":17,"pc_name":"Dakshina Kannada","ac":202,"ac_name":"Mangalore City North","booth":48,"booth_name":"Sri Venkatramana Aided Higher Primary School School Kulaigudde Kulaigudde ( South Portion of of East Building )"},"geometry":{"type":"Point","coordinates":[74.80802,12.9691353]}},{"type":"Feature","properties":{"state":"Karnataka","district":26,"district_n":"DAKSHINA KANNADA","pc":17,"pc_name":"Dakshina Kannada","ac":202,"ac_name":"Mangalore City North","booth":51,"booth_name":"Govt Govt Compositive High School, Chithrapura, Kulai (middle Room)"},"geometry":{"type":"Point","coordinates":[74.80087,12.9582453]}},{"type":"Feature","properties":{"state":"Karnataka","district":26,"district_n":"DAKSHINA KANNADA","pc":17,"pc_name":"Dakshina Kannada","ac":202,"ac_name":"Mangalore City North","booth":57,"booth_name":"Govt Govt Compositive High School, Baikampady, Meenakaliya Meenakaliya Meenakaliya ( Hall )"},"geometry":{"type":"Point","coordinates":[74.80527,12.948576]}},{"type":"Feature","properties":{"state":"Karnataka","district":26,"district_n":"DAKSHINA KANNADA","pc":17,"pc_name":"Dakshina Kannada","ac":202,"ac_name":"Mangalore City North","booth":59,"booth_name":"Dakshina Kannada Zilla Panchayath Higher Primary School, Panambur Panambur Panambur (middle Wing)"},"geometry":{"type":"Point","coordinates":[74.8173447,12.9438391]}},{"type":"Feature","properties":{"state":"Karnataka","district":26,"district_n":"DAKSHINA KANNADA","pc":17,"pc_name":"Dakshina Kannada","ac":202,"ac_name":"Mangalore City North","booth":60,"booth_name":"Dakshina Kannada Zilla Panchayath Higher Primary School,, Tannirbhavi"},"geometry":{"type":"Point","coordinates":[74.81498,12.8943443]}},{"type":"Feature","properties":{"state":"Karnataka","district":26,"district_n":"DAKSHINA KANNADA","pc":17,"pc_name":"Dakshina Kannada","ac":202,"ac_name":"Mangalore City North","booth":68,"booth_name":"Govt Govt P U U College, Gandhinagar, Kavoor (new building of West Portion)"},"geometry":{"type":"Point","coordinates":[74.8533859,12.9225721]}},{"type":"Feature","properties":{"state":"Karnataka","district":26,"district_n":"DAKSHINA KANNADA","pc":17,"pc_name":"Dakshina Kannada","ac":202,"ac_name":"Mangalore City North","booth":71,"booth_name":"Vidya Jyothi Jyothi Primary Primary School, Jyothinagara ( North Side Side Side East Portion )"},"geometry":{"type":"Point","coordinates":[74.85607,12.9308929]}},{"type":"Feature","properties":{"state":"Karnataka","district":26,"district_n":"DAKSHINA KANNADA","pc":17,"pc_name":"Dakshina Kannada","ac":202,"ac_name":"Mangalore City North","booth":77,"booth_name":"Nobel English High School, Marakada, (north Wing)"},"geometry":{"type":"Point","coordinates":[74.85667,12.9383459]}},{"type":"Feature","properties":{"state":"Karnataka","district":26,"district_n":"DAKSHINA KANNADA","pc":17,"pc_name":"Dakshina Kannada","ac":202,"ac_name":"Mangalore City North","booth":79,"booth_name":"Dakshina Kannada Zilla Panchayath Model Higher Primary School, Marakada( 4th Room of Old Building)"},"geometry":{"type":"Point","coordinates":[74.85621,12.9375343]}},{"type":"Feature","properties":{"state":"Karnataka","district":26,"district_n":"DAKSHINA KANNADA","pc":17,"pc_name":"Dakshina Kannada","ac":202,"ac_name":"Mangalore City North","booth":85,"booth_name":"Dakshina Kannada Zilla Panchayath Higher Primary school, Kavoor, (new Building North Side)"},"geometry":{"type":"Point","coordinates":[74.85135,12.9132872]}},{"type":"Feature","properties":{"state":"Karnataka","district":26,"district_n":"DAKSHINA KANNADA","pc":17,"pc_name":"Dakshina Kannada","ac":202,"ac_name":"Mangalore City North","booth":86,"booth_name":"Dakshina Kannada zilla Panchayath Higher Primary School, Kavoor, (old Building of Middle Portion)"},"geometry":{"type":"Point","coordinates":[74.8515549,12.9141245]}},{"type":"Feature","properties":{"state":"Karnataka","district":26,"district_n":"DAKSHINA KANNADA","pc":17,"pc_name":"Dakshina Kannada","ac":202,"ac_name":"Mangalore City North","booth":88,"booth_name":"Infant Jesus Higher Primary School, Maryhill, Kavoor, (west Wing of Middle Building)"},"geometry":{"type":"Point","coordinates":[74.86161,12.9083109]}},{"type":"Feature","properties":{"state":"Karnataka","district":26,"district_n":"DAKSHINA KANNADA","pc":17,"pc_name":"Dakshina Kannada","ac":202,"ac_name":"Mangalore City North","booth":91,"booth_name":"D D K K Zilla Panchayath Panchayath Model Higher Primary School, Kodikal, Sarva Shikshana Abhiyana (new Building)"},"geometry":{"type":"Point","coordinates":[74.83854,12.9023476]}},{"type":"Feature","properties":{"state":"Karnataka","district":26,"district_n":"DAKSHINA KANNADA","pc":17,"pc_name":"Dakshina Kannada","ac":202,"ac_name":"Mangalore City North","booth":97,"booth_name":"Dakshina kannada Zilla Panchayath Model higher Primary School, Kodikal, (south Portion)"},"geometry":{"type":"Point","coordinates":[74.84449,12.9189653]}},{"type":"Feature","properties":{"state":"Karnataka","district":26,"district_n":"DAKSHINA KANNADA","pc":17,"pc_name":"Dakshina Kannada","ac":202,"ac_name":"Mangalore City North","booth":102,"booth_name":"Holy Family Higher Primary school, Derebail, (south Wing)"},"geometry":{"type":"Point","coordinates":[74.86382,12.9437]}},{"type":"Feature","properties":{"state":"Karnataka","district":26,"district_n":"DAKSHINA KANNADA","pc":17,"pc_name":"Dakshina Kannada","ac":202,"ac_name":"Mangalore City North","booth":105,"booth_name":"St St Anns Pvt Pvt High School, Kuntikana (south Wing)"},"geometry":{"type":"Point","coordinates":[74.86382,12.9437]}},{"type":"Feature","properties":{"state":"Karnataka","district":26,"district_n":"DAKSHINA KANNADA","pc":17,"pc_name":"Dakshina Kannada","ac":202,"ac_name":"Mangalore City North","booth":108,"booth_name":"Government Junior Technical School, Kadri, (middle Portion of North Building)"},"geometry":{"type":"Point","coordinates":[74.85423,12.8867912]}},{"type":"Feature","properties":{"state":"Karnataka","district":26,"district_n":"DAKSHINA KANNADA","pc":17,"pc_name":"Dakshina Kannada","ac":202,"ac_name":"Mangalore City North","booth":111,"booth_name":"Government Junior Technical School, Kadri, (east Building)"},"geometry":{"type":"Point","coordinates":[74.85423,12.8867912]}},{"type":"Feature","properties":{"state":"Karnataka","district":26,"district_n":"DAKSHINA KANNADA","pc":17,"pc_name":"Dakshina Kannada","ac":202,"ac_name":"Mangalore City North","booth":114,"booth_name":"Sri Ramashrama higher Primary School, Konchadi, (norht Bldng of Right Side)"},"geometry":{"type":"Point","coordinates":[74.84528,12.9332724]}},{"type":"Feature","properties":{"state":"Karnataka","district":26,"district_n":"DAKSHINA KANNADA","pc":17,"pc_name":"Dakshina Kannada","ac":202,"ac_name":"Mangalore City North","booth":120,"booth_name":"Mangala Jyothi Samagra School, Vamanjoor, Kudupu"},"geometry":{"type":"Point","coordinates":[74.8947144,12.9103365]}},{"type":"Feature","properties":{"state":"Karnataka","district":26,"district_n":"DAKSHINA KANNADA","pc":17,"pc_name":"Dakshina Kannada","ac":202,"ac_name":"Mangalore City North","booth":131,"booth_name":"Aided New Higher Primary School, Kandavara, (west Wing)"},"geometry":{"type":"Point","coordinates":[74.9146042,12.952013]}},{"type":"Feature","properties":{"state":"Karnataka","district":26,"district_n":"DAKSHINA KANNADA","pc":17,"pc_name":"Dakshina Kannada","ac":202,"ac_name":"Mangalore City North","booth":134,"booth_name":"Sri Niranjana Swamy College, Sunkadakatte, (room no 108, South Wing)"},"geometry":{"type":"Point","coordinates":[74.9126,12.9846411]}},{"type":"Feature","properties":{"state":"Karnataka","district":26,"district_n":"DAKSHINA KANNADA","pc":17,"pc_name":"Dakshina Kannada","ac":202,"ac_name":"Mangalore City North","booth":142,"booth_name":"Dakshina Kannada Zilla Panchayath Higher Primary School, Muchuru"},"geometry":{"type":"Point","coordinates":[74.92027,13.0236444]}},{"type":"Feature","properties":{"state":"Karnataka","district":26,"district_n":"DAKSHINA KANNADA","pc":17,"pc_name":"Dakshina Kannada","ac":202,"ac_name":"Mangalore City North","booth":143,"booth_name":"Dakshina Kannada Zilla Panchayath Higher Primary School, Daddi, Badaga Edapadavu,(west wing of Old Build)"},"geometry":{"type":"Point","coordinates":[74.95188,13.0126553]}},{"type":"Feature","properties":{"state":"Karnataka","district":26,"district_n":"DAKSHINA KANNADA","pc":17,"pc_name":"Dakshina Kannada","ac":202,"ac_name":"Mangalore City North","booth":146,"booth_name":"St Francis Aided Higher Priamary School, Muduperar, (east Wing)"},"geometry":{"type":"Point","coordinates":[74.9546051,12.9878235]}},{"type":"Feature","properties":{"state":"Karnataka","district":26,"district_n":"DAKSHINA KANNADA","pc":17,"pc_name":"Dakshina Kannada","ac":202,"ac_name":"Mangalore City North","booth":148,"booth_name":"Dakshina Kannada Zilla Panchayath Model Urdu Higher Primary School, Gurukambala, (south Wing)"},"geometry":{"type":"Point","coordinates":[74.9299545,12.9674177]}},{"type":"Feature","properties":{"state":"Karnataka","district":26,"district_n":"DAKSHINA KANNADA","pc":17,"pc_name":"Dakshina Kannada","ac":202,"ac_name":"Mangalore City North","booth":157,"booth_name":"Dakshina Kannada Zilla Panchayath Higher Primary School, Kolavuru"},"geometry":{"type":"Point","coordinates":[74.98909,12.956358]}},{"type":"Feature","properties":{"state":"Karnataka","district":26,"district_n":"DAKSHINA KANNADA","pc":17,"pc_name":"Dakshina Kannada","ac":202,"ac_name":"Mangalore City North","booth":162,"booth_name":"Grama Panchayath Office, (meeting Hall), Ganjimata, (west Wing)"},"geometry":{"type":"Point","coordinates":[74.95165,12.9767351]}},{"type":"Feature","properties":{"state":"Karnataka","district":26,"district_n":"DAKSHINA KANNADA","pc":17,"pc_name":"Dakshina Kannada","ac":202,"ac_name":"Mangalore City North","booth":163,"booth_name":"Dakshina Kannada Zilla Panchayath Higher Primary School, Suralpaday, (north Wing)"},"geometry":{"type":"Point","coordinates":[74.94101,12.9690495]}},{"type":"Feature","properties":{"state":"Karnataka","district":26,"district_n":"DAKSHINA KANNADA","pc":17,"pc_name":"Dakshina Kannada","ac":202,"ac_name":"Mangalore City North","booth":168,"booth_name":"Dakshina Kannada Zilla Panchayath Higher Primary School, Tarakariya, Adduru"},"geometry":{"type":"Point","coordinates":[74.93459,12.932622]}},{"type":"Feature","properties":{"state":"Karnataka","district":26,"district_n":"DAKSHINA KANNADA","pc":17,"pc_name":"Dakshina Kannada","ac":202,"ac_name":"Mangalore City North","booth":169,"booth_name":"Dakshina Kannada Zilla Panchayath Higher Primary School, School, Adduru, (east Wing of New Building)"},"geometry":{"type":"Point","coordinates":[74.95217,12.925355]}},{"type":"Feature","properties":{"state":"Karnataka","district":26,"district_n":"DAKSHINA KANNADA","pc":17,"pc_name":"Dakshina Kannada","ac":202,"ac_name":"Mangalore City North","booth":54,"booth_name":"Dakshina Kannada Zilla Panchayath Panchayath Muslim Higher Primary Primary School, Baikampady(north Portion Room)"},"geometry":{"type":"Point","coordinates":[74.8177,12.95697]}},{"type":"Feature","properties":{"state":"Karnataka","district":26,"district_n":"DAKSHINA KANNADA","pc":17,"pc_name":"Dakshina Kannada","ac":202,"ac_name":"Mangalore City North","booth":74,"booth_name":"Dakshina Kannada zilla Panchayath Model Higher Primary School, Kavoor, (middle wing of South Building)"},"geometry":{"type":"Point","coordinates":[74.85732,12.9267025]}},{"type":"Feature","properties":{"state":"Karnataka","district":26,"district_n":"DAKSHINA KANNADA","pc":17,"pc_name":"Dakshina Kannada","ac":202,"ac_name":"Mangalore City North","booth":80,"booth_name":"Dakshina Kannada Zilla Panchayath Model Higher Primary School, Marakada, (new Building)"},"geometry":{"type":"Point","coordinates":[74.8561,12.9373789]}},{"type":"Feature","properties":{"state":"Karnataka","district":26,"district_n":"DAKSHINA KANNADA","pc":17,"pc_name":"Dakshina Kannada","ac":202,"ac_name":"Mangalore City North","booth":82,"booth_name":"Womens Polytechnic, Bondel, (3rd Room)"},"geometry":{"type":"Point","coordinates":[74.86766,12.9241962]}},{"type":"Feature","properties":{"state":"Karnataka","district":26,"district_n":"DAKSHINA KANNADA","pc":17,"pc_name":"Dakshina Kannada","ac":202,"ac_name":"Mangalore City North","booth":83,"booth_name":"D D K Zilla Panchayath Model Higher Primary School, Parapade, Kavoor, (north Portion of West Building)"},"geometry":{"type":"Point","coordinates":[74.84079,12.9142094]}},{"type":"Feature","properties":{"state":"Karnataka","district":26,"district_n":"DAKSHINA KANNADA","pc":17,"pc_name":"Dakshina Kannada","ac":202,"ac_name":"Mangalore City North","booth":94,"booth_name":"D K Z P Model Higher Primary School, Kodikal, (2n Room in South Wing of New Building)"},"geometry":{"type":"Point","coordinates":[74.83857,12.9023514]}},{"type":"Feature","properties":{"state":"Karnataka","district":26,"district_n":"DAKSHINA KANNADA","pc":17,"pc_name":"Dakshina Kannada","ac":202,"ac_name":"Mangalore City North","booth":99,"booth_name":"Dakshina Kannada Zilla Panchayath Model Higher Primary School, Kodikal"},"geometry":{"type":"Point","coordinates":[74.83857,12.9023514]}},{"type":"Feature","properties":{"state":"Karnataka","district":26,"district_n":"DAKSHINA KANNADA","pc":17,"pc_name":"Dakshina Kannada","ac":202,"ac_name":"Mangalore City North","booth":100,"booth_name":"Saint Anns Private High School, Kuntikana, (north Wing)"},"geometry":{"type":"Point","coordinates":[74.83857,12.9023514]}},{"type":"Feature","properties":{"state":"Karnataka","district":26,"district_n":"DAKSHINA KANNADA","pc":17,"pc_name":"Dakshina Kannada","ac":202,"ac_name":"Mangalore City North","booth":180,"booth_name":"St Jokim Aided Higher Primary School, Kelarai, (east wing)"},"geometry":{"type":"Point","coordinates":[74.90921,12.900547]}},{"type":"Feature","properties":{"state":"Karnataka","district":26,"district_n":"DAKSHINA KANNADA","pc":17,"pc_name":"Dakshina Kannada","ac":202,"ac_name":"Mangalore City North","booth":185,"booth_name":"Sahyadri Technical Mahavidhyalaya, Adyar, (north Wing)"},"geometry":{"type":"Point","coordinates":[74.92487,12.8660116]}},{"type":"Feature","properties":{"state":"Karnataka","district":26,"district_n":"DAKSHINA KANNADA","pc":17,"pc_name":"Dakshina Kannada","ac":202,"ac_name":"Mangalore City North","booth":186,"booth_name":"Sahyadri Technical Mahavidyalaya, Adyar, (east Wing)"},"geometry":{"type":"Point","coordinates":[74.92511,12.8660135]}},{"type":"Feature","properties":{"state":"Karnataka","district":26,"district_n":"DAKSHINA KANNADA","pc":17,"pc_name":"Dakshina Kannada","ac":202,"ac_name":"Mangalore City North","booth":191,"booth_name":"Sri Rama Aided Higher Primary School, Arkula, Parangipete, (west Wing)"},"geometry":{"type":"Point","coordinates":[74.95426,12.8735676]}},{"type":"Feature","properties":{"state":"Karnataka","district":26,"district_n":"DAKSHINA KANNADA","pc":17,"pc_name":"Dakshina Kannada","ac":202,"ac_name":"Mangalore City North","booth":160,"booth_name":"Dakshina Kannada Zilla Panchayath Panchayath High School, Malali"},"geometry":{"type":"Point","coordinates":[74.95795,12.9522505]}},{"type":"Feature","properties":{"state":"Karnataka","district":26,"district_n":"DAKSHINA KANNADA","pc":17,"pc_name":"Dakshina Kannada","ac":202,"ac_name":"Mangalore City North","booth":165,"booth_name":"Asaruddin Kambla Urdu High School, Suralpady"},"geometry":{"type":"Point","coordinates":[74.93672,12.9665794]}},{"type":"Feature","properties":{"state":"Karnataka","district":26,"district_n":"DAKSHINA KANNADA","pc":17,"pc_name":"Dakshina Kannada","ac":202,"ac_name":"Mangalore City North","booth":166,"booth_name":"Dakshina Kannada Zilla Panchayath Higher Primary School, Malali,( South Wing)"},"geometry":{"type":"Point","coordinates":[74.95772,12.9522734]}},{"type":"Feature","properties":{"state":"Karnataka","district":26,"district_n":"DAKSHINA KANNADA","pc":17,"pc_name":"Dakshina Kannada","ac":202,"ac_name":"Mangalore City North","booth":62,"booth_name":"Kulur Church Higher Primary Primary Primary School, Kulur ,(middle ,(middle Wing)"},"geometry":{"type":"Point","coordinates":[74.82855,12.927556]}},{"type":"Feature","properties":{"state":"Karnataka","district":26,"district_n":"DAKSHINA KANNADA","pc":17,"pc_name":"Dakshina Kannada","ac":202,"ac_name":"Mangalore City North","booth":63,"booth_name":"Kulur Church Higher Primary Primary School, Kulur (north Wing)"},"geometry":{"type":"Point","coordinates":[74.83382,12.9200287]}},{"type":"Feature","properties":{"state":"Karnataka","district":26,"district_n":"DAKSHINA KANNADA","pc":17,"pc_name":"Dakshina Kannada","ac":202,"ac_name":"Mangalore City North","booth":177,"booth_name":"St Thomas Aided Higher Primary School, Bondanthila"},"geometry":{"type":"Point","coordinates":[74.93062,12.9045982]}},{"type":"Feature","properties":{"state":"Karnataka","district":26,"district_n":"DAKSHINA KANNADA","pc":17,"pc_name":"Dakshina Kannada","ac":202,"ac_name":"Mangalore City North","booth":182,"booth_name":"Grama Panchyath Office, Neerumarga"},"geometry":{"type":"Point","coordinates":[74.90955,12.8939]}},{"type":"Feature","properties":{"state":"Karnataka","district":26,"district_n":"DAKSHINA KANNADA","pc":17,"pc_name":"Dakshina Kannada","ac":202,"ac_name":"Mangalore City North","booth":189,"booth_name":"Dakshina Kannada Zilla Panchayath Higher Primary School, Valachill, (west Wing)"},"geometry":{"type":"Point","coordinates":[74.93828,12.8697929]}},{"type":"Feature","properties":{"state":"Karnataka","district":26,"district_n":"DAKSHINA KANNADA","pc":17,"pc_name":"Dakshina Kannada","ac":202,"ac_name":"Mangalore City North","booth":23,"booth_name":"Dakshina Kannada Zilla Panchayath Higher Primary School School Katipalla, 2nd Block ( South Wing of Middle room )"},"geometry":{"type":"Point","coordinates":[74.83124,13.0007238]}},{"type":"Feature","properties":{"state":"Karnataka","district":26,"district_n":"DAKSHINA KANNADA","pc":17,"pc_name":"Dakshina Kannada","ac":202,"ac_name":"Mangalore City North","booth":188,"booth_name":"Rajeshwar Aided Hgih School, Adyarupadavu,( West Wing)"},"geometry":{"type":"Point","coordinates":[74.92572,12.8791]}},{"type":"Feature","properties":{"state":"Karnataka","district":26,"district_n":"DAKSHINA KANNADA","pc":17,"pc_name":"Dakshina Kannada","ac":202,"ac_name":"Mangalore City North","booth":50,"booth_name":"Sri Venkatramana Aided Higher Primary Primary Primary School School Kulaigudde Kulaigudde ( South Portion of of West Building )"},"geometry":{"type":"Point","coordinates":[74.80804,12.9688873]}},{"type":"Feature","properties":{"state":"Karnataka","district":26,"district_n":"DAKSHINA KANNADA","pc":17,"pc_name":"Dakshina Kannada","ac":202,"ac_name":"Mangalore City North","booth":119,"booth_name":"St Lawrence Aided Higher Primary School, Bondel"},"geometry":{"type":"Point","coordinates":[74.86928,12.9166584]}},{"type":"Feature","properties":{"state":"Karnataka","district":26,"district_n":"DAKSHINA KANNADA","pc":17,"pc_name":"Dakshina Kannada","ac":202,"ac_name":"Mangalore City North","booth":70,"booth_name":"Vidyajyothi Vidyajyothi Higher Primary Primary School, Jyothinagara Jyothinagara (new building North Side)"},"geometry":{"type":"Point","coordinates":[74.85597,12.93094]}},{"type":"Feature","properties":{"state":"Karnataka","district":26,"district_n":"DAKSHINA KANNADA","pc":17,"pc_name":"Dakshina Kannada","ac":202,"ac_name":"Mangalore City North","booth":13,"booth_name":"Dakshina Kannada Zilla Panchayath Panchayath Higher Primary School, Katipalla, Katipalla, Katipalla, Katipalla, Katipalla, Katipalla, Katipalla, Katipalla, Katipalla, Katipalla, 6th Block (east portion of North wing)"},"geometry":{"type":"Point","coordinates":[74.81374,12.9965725]}},{"type":"Feature","properties":{"state":"Karnataka","district":26,"district_n":"DAKSHINA KANNADA","pc":17,"pc_name":"Dakshina Kannada","ac":202,"ac_name":"Mangalore City North","booth":167,"booth_name":"Bhami English Medium School, Kajila, Polali Dwara"},"geometry":{"type":"Point","coordinates":[74.9366,12.9429388]}},{"type":"Feature","properties":{"state":"Karnataka","district":26,"district_n":"DAKSHINA KANNADA","pc":17,"pc_name":"Dakshina Kannada","ac":202,"ac_name":"Mangalore City North","booth":24,"booth_name":"Dkzp Hr Pry School, Katipalla, 2nd Block (east building North Portion Room)"},"geometry":{"type":"Point","coordinates":[74.83132,13.0009289]}},{"type":"Feature","properties":{"state":"Karnataka","district":26,"district_n":"DAKSHINA KANNADA","pc":17,"pc_name":"Dakshina Kannada","ac":202,"ac_name":"Mangalore City North","booth":84,"booth_name":"D K K Zilla Panchayath Model Higher Primary School, Parapade, Kavoor, (south Portion of West Builidng)"},"geometry":{"type":"Point","coordinates":[74.8675,12.9244194]}},{"type":"Feature","properties":{"state":"Karnataka","district":26,"district_n":"DAKSHINA KANNADA","pc":17,"pc_name":"Dakshina Kannada","ac":202,"ac_name":"Mangalore City North","booth":87,"booth_name":"Infant Jesus Higher Primary School, Maryhill, Kavoor, (east portion of South Building)"},"geometry":{"type":"Point","coordinates":[74.86122,12.9086189]}},{"type":"Feature","properties":{"state":"Karnataka","district":26,"district_n":"DAKSHINA KANNADA","pc":17,"pc_name":"Dakshina Kannada","ac":202,"ac_name":"Mangalore City North","booth":90,"booth_name":"Dakshina Kannada Zilla Panchayath Model Higher Primary School, Kodikal, (north wing of East portion)"},"geometry":{"type":"Point","coordinates":[74.83854,12.9023476]}},{"type":"Feature","properties":{"state":"Karnataka","district":26,"district_n":"DAKSHINA KANNADA","pc":17,"pc_name":"Dakshina Kannada","ac":202,"ac_name":"Mangalore City North","booth":116,"booth_name":"St Lawrence Aided Higher Primary School, School, Bondel , Pachanadi,"},"geometry":{"type":"Point","coordinates":[74.8692551,12.9166422]}},{"type":"Feature","properties":{"state":"Karnataka","district":26,"district_n":"DAKSHINA KANNADA","pc":17,"pc_name":"Dakshina Kannada","ac":202,"ac_name":"Mangalore City North","booth":147,"booth_name":"St Francis Aided Higher Priamary School, Muduperar, (west Wing)"},"geometry":{"type":"Point","coordinates":[74.94379,12.9937239]}},{"type":"Feature","properties":{"state":"Karnataka","district":26,"district_n":"DAKSHINA KANNADA","pc":17,"pc_name":"Dakshina Kannada","ac":202,"ac_name":"Mangalore City North","booth":103,"booth_name":"Holy Family Higher Primary School, Derebail, (middle Portion)"},"geometry":{"type":"Point","coordinates":[74.86382,12.9437]}},{"type":"Feature","properties":{"state":"Karnataka","district":26,"district_n":"DAKSHINA KANNADA","pc":17,"pc_name":"Dakshina Kannada","ac":202,"ac_name":"Mangalore City North","booth":106,"booth_name":"Vidya Higher Primary School, Konchadi, Derebail (north (north Wing)"},"geometry":{"type":"Point","coordinates":[74.8496857,12.9073734]}},{"type":"Feature","properties":{"state":"Karnataka","district":26,"district_n":"DAKSHINA KANNADA","pc":17,"pc_name":"Dakshina Kannada","ac":202,"ac_name":"Mangalore City North","booth":149,"booth_name":"Dakshina Kannada Zilla Panchayath Model Urdu Higher Primary School, Gurukambala, (east Wing)"},"geometry":{"type":"Point","coordinates":[74.93086,12.9670773]}},{"type":"Feature","properties":{"state":"Karnataka","district":26,"district_n":"DAKSHINA KANNADA","pc":17,"pc_name":"Dakshina Kannada","ac":202,"ac_name":"Mangalore City North","booth":151,"booth_name":"Swamy Vivekananda Pre Univercity College, Yadapadavu, (middle Side)"},"geometry":{"type":"Point","coordinates":[74.96296,12.9978733]}},{"type":"Feature","properties":{"state":"Karnataka","district":26,"district_n":"DAKSHINA KANNADA","pc":17,"pc_name":"Dakshina Kannada","ac":202,"ac_name":"Mangalore City North","booth":154,"booth_name":"Dakshina Kannada Zilla Panchayath Higher Primary School, Kalladi, Kilenjaru"},"geometry":{"type":"Point","coordinates":[75.00135,12.9856339]}},{"type":"Feature","properties":{"state":"Karnataka","district":26,"district_n":"DAKSHINA KANNADA","pc":17,"pc_name":"Dakshina Kannada","ac":202,"ac_name":"Mangalore City North","booth":174,"booth_name":"Sri Sharada Aided Higher Primary School, School, Permanki"},"geometry":{"type":"Point","coordinates":[74.94153,12.9158764]}},{"type":"Feature","properties":{"state":"Karnataka","district":26,"district_n":"DAKSHINA KANNADA","pc":17,"pc_name":"Dakshina Kannada","ac":202,"ac_name":"Mangalore City North","booth":173,"booth_name":"Dakshina Kannada Zilla Panchayath Higher Primary School, School, Ulayibettu, (north Wing)"},"geometry":{"type":"Point","coordinates":[74.92689,12.9248419]}},{"type":"Feature","properties":{"state":"Karnataka","district":26,"district_n":"DAKSHINA KANNADA","pc":17,"pc_name":"Dakshina Kannada","ac":202,"ac_name":"Mangalore City North","booth":73,"booth_name":"Dakshina Kannada Zilla Panchayath Model Higher Primary school, Kavoor, (middle wing of North Building)"},"geometry":{"type":"Point","coordinates":[74.8574142,12.9264669]}},{"type":"Feature","properties":{"state":"Karnataka","district":26,"district_n":"DAKSHINA KANNADA","pc":17,"pc_name":"Dakshina Kannada","ac":202,"ac_name":"Mangalore City North","booth":93,"booth_name":"Dakshina Kannada Zilla Panchayath model Higher Primary School, Kodikal , (old Building of Middle Wing)"},"geometry":{"type":"Point","coordinates":[74.83854,12.9023476]}},{"type":"Feature","properties":{"state":"Karnataka","district":26,"district_n":"DAKSHINA KANNADA","pc":17,"pc_name":"Dakshina Kannada","ac":202,"ac_name":"Mangalore City North","booth":96,"booth_name":"Dakshina Kannada Zilla Panchayath Model Higher Primary School, Kodikal, (south Wing)"},"geometry":{"type":"Point","coordinates":[74.83857,12.9023514]}},{"type":"Feature","properties":{"state":"Karnataka","district":26,"district_n":"DAKSHINA KANNADA","pc":17,"pc_name":"Dakshina Kannada","ac":202,"ac_name":"Mangalore City North","booth":107,"booth_name":"Vidya Higher Primary School, Konchadi, Derebail, (south Wing)"},"geometry":{"type":"Point","coordinates":[74.84849,12.9066744]}},{"type":"Feature","properties":{"state":"Karnataka","district":26,"district_n":"DAKSHINA KANNADA","pc":17,"pc_name":"Dakshina Kannada","ac":202,"ac_name":"Mangalore City North","booth":150,"booth_name":"Swamy Vivekananda Pre Univercity College, Yadapadavu, (west Wing)"},"geometry":{"type":"Point","coordinates":[74.9631348,12.9976645]}},{"type":"Feature","properties":{"state":"Karnataka","district":26,"district_n":"DAKSHINA KANNADA","pc":17,"pc_name":"Dakshina Kannada","ac":202,"ac_name":"Mangalore City North","booth":156,"booth_name":"Dakshina Kannada Zilla Panchayath Higher Higher Primary School, School, Boliya, Kolavuru Village"},"geometry":{"type":"Point","coordinates":[75.00535,12.958231]}},{"type":"Feature","properties":{"state":"Karnataka","district":26,"district_n":"DAKSHINA KANNADA","pc":17,"pc_name":"Dakshina Kannada","ac":202,"ac_name":"Mangalore City North","booth":53,"booth_name":"Dakshina Kannada Zilla Panchayath Fisheries Fisheries Higher Primary Primary School, Chitrapura, Kulai (south Portion East wing Room)"},"geometry":{"type":"Point","coordinates":[74.80126,12.9617653]}},{"type":"Feature","properties":{"state":"Karnataka","district":26,"district_n":"DAKSHINA KANNADA","pc":17,"pc_name":"Dakshina Kannada","ac":202,"ac_name":"Mangalore City North","booth":76,"booth_name":"Dakshina Kannada Zilla Panchayath Model Higher Primary School, Marakada, (old Building)"},"geometry":{"type":"Point","coordinates":[74.85652,12.9374819]}},{"type":"Feature","properties":{"state":"Karnataka","district":26,"district_n":"DAKSHINA KANNADA","pc":17,"pc_name":"Dakshina Kannada","ac":202,"ac_name":"Mangalore City North","booth":125,"booth_name":"St Joseph Workers Aided Higher Primary School, Vamanjur, (south Wing)"},"geometry":{"type":"Point","coordinates":[74.8975449,12.9113235]}},{"type":"Feature","properties":{"state":"Karnataka","district":26,"district_n":"DAKSHINA KANNADA","pc":17,"pc_name":"Dakshina Kannada","ac":202,"ac_name":"Mangalore City North","booth":126,"booth_name":"St Joseph Workers Aided Higher Primary School, Vamnjur, (north Wing)"},"geometry":{"type":"Point","coordinates":[74.89748,12.9110537]}},{"type":"Feature","properties":{"state":"Karnataka","district":26,"district_n":"DAKSHINA KANNADA","pc":17,"pc_name":"Dakshina Kannada","ac":202,"ac_name":"Mangalore City North","booth":128,"booth_name":"Government Pre Unviercity College, Gurupura, (room no 3)"},"geometry":{"type":"Point","coordinates":[74.92622,12.9364586]}},{"type":"Feature","properties":{"state":"Karnataka","district":26,"district_n":"DAKSHINA KANNADA","pc":17,"pc_name":"Dakshina Kannada","ac":202,"ac_name":"Mangalore City North","booth":129,"booth_name":"Government Pre University College, Gurupura, (room no 5)"},"geometry":{"type":"Point","coordinates":[74.9259644,12.9366159]}},{"type":"Feature","properties":{"state":"Karnataka","district":26,"district_n":"DAKSHINA KANNADA","pc":17,"pc_name":"Dakshina Kannada","ac":202,"ac_name":"Mangalore City North","booth":171,"booth_name":"Dakshina Kannada Zilla Panchayath Higher Primary School, Adduru,( Meeting Hall of Old Building)"},"geometry":{"type":"Point","coordinates":[74.95205,12.9253435]}},{"type":"Feature","properties":{"state":"Karnataka","district":26,"district_n":"DAKSHINA KANNADA","pc":17,"pc_name":"Dakshina Kannada","ac":202,"ac_name":"Mangalore City North","booth":127,"booth_name":"Hindu Aided Higher Primary School, Gurupura, (south Wing)"},"geometry":{"type":"Point","coordinates":[74.9302,12.9393787]}},{"type":"Feature","properties":{"state":"Karnataka","district":26,"district_n":"DAKSHINA KANNADA","pc":17,"pc_name":"Dakshina Kannada","ac":202,"ac_name":"Mangalore City North","booth":170,"booth_name":"Dakshina Kannada Zilla Panchayath Higher Primary School, Adduru, (middle Room of West Wing)"},"geometry":{"type":"Point","coordinates":[74.95217,12.925519]}},{"type":"Feature","properties":{"state":"Karnataka","district":26,"district_n":"DAKSHINA KANNADA","pc":17,"pc_name":"Dakshina Kannada","ac":202,"ac_name":"Mangalore City North","booth":178,"booth_name":"St Thomas Aided Higher Primary School, Bondanthila, (west Wing)"},"geometry":{"type":"Point","coordinates":[74.93051,12.90457]}},{"type":"Feature","properties":{"state":"Karnataka","district":26,"district_n":"DAKSHINA KANNADA","pc":17,"pc_name":"Dakshina Kannada","ac":202,"ac_name":"Mangalore City North","booth":137,"booth_name":"Grama Panchayath Office, Padu perar"},"geometry":{"type":"Point","coordinates":[74.9127,12.9846668]}},{"type":"Feature","properties":{"state":"Karnataka","district":26,"district_n":"DAKSHINA KANNADA","pc":17,"pc_name":"Dakshina Kannada","ac":202,"ac_name":"Mangalore City North","booth":140,"booth_name":"Dakshina Kannada Zilla Panchayath higher Primary School, Kompadavu"},"geometry":{"type":"Point","coordinates":[74.9239349,13.0081272]}},{"type":"Feature","properties":{"state":"Karnataka","district":26,"district_n":"DAKSHINA KANNADA","pc":17,"pc_name":"Dakshina Kannada","ac":202,"ac_name":"Mangalore City North","booth":145,"booth_name":"D K Z P Model Higher Primary Shool, Badaga Yedapadavu, Bellachar, (north Wing)"},"geometry":{"type":"Point","coordinates":[74.9677658,13.0166674]}},{"type":"Feature","properties":{"state":"Karnataka","district":26,"district_n":"DAKSHINA KANNADA","pc":17,"pc_name":"Dakshina Kannada","ac":202,"ac_name":"Mangalore City North","booth":42,"booth_name":"Dakshina Kannada Zilla Panchayath Higher Primary School, Hosabettu Hosabettu (east Wing)"},"geometry":{"type":"Point","coordinates":[74.79871,12.9748831]}},{"type":"Feature","properties":{"state":"Karnataka","district":26,"district_n":"DAKSHINA KANNADA","pc":17,"pc_name":"Dakshina Kannada","ac":202,"ac_name":"Mangalore City North","booth":43,"booth_name":"Dakshina Kannada Zilla Panchayath Higher Primary School, Hosabettu (middle wing room of East wing )"},"geometry":{"type":"Point","coordinates":[74.798645,12.9746428]}},{"type":"Feature","properties":{"state":"Karnataka","district":26,"district_n":"DAKSHINA KANNADA","pc":17,"pc_name":"Dakshina Kannada","ac":202,"ac_name":"Mangalore City North","booth":45,"booth_name":"M D S P U Compositive College, Vidhya Nagar,kulai Nagar,kulai (north Portion of Meeting Hall)"},"geometry":{"type":"Point","coordinates":[74.81244,12.9676914]}},{"type":"Feature","properties":{"state":"Karnataka","district":26,"district_n":"DAKSHINA KANNADA","pc":17,"pc_name":"Dakshina Kannada","ac":202,"ac_name":"Mangalore City North","booth":46,"booth_name":"M D S P U Compositive College, Vidhya Nagar,kulai (south Portion of Meeting Hall)"},"geometry":{"type":"Point","coordinates":[74.81285,12.9674931]}},{"type":"Feature","properties":{"state":"Karnataka","district":26,"district_n":"DAKSHINA KANNADA","pc":17,"pc_name":"Dakshina Kannada","ac":202,"ac_name":"Mangalore City North","booth":139,"booth_name":"Dakshina Kannada Zilla Panchayath Higher Primary School, Kompadavu"},"geometry":{"type":"Point","coordinates":[74.92436,13.0083609]}},{"type":"Feature","properties":{"state":"Karnataka","district":26,"district_n":"DAKSHINA KANNADA","pc":17,"pc_name":"Dakshina Kannada","ac":202,"ac_name":"Mangalore City North","booth":183,"booth_name":"St Ligory's, Aided Higher Primary Shcool, Merlapadavu, Neerumarga"},"geometry":{"type":"Point","coordinates":[74.9262543,12.8793116]}},{"type":"Feature","properties":{"state":"Karnataka","district":26,"district_n":"DAKSHINA KANNADA","pc":17,"pc_name":"Dakshina Kannada","ac":202,"ac_name":"Mangalore City North","booth":17,"booth_name":"Dakshina Kannada Zilla Panchayath Panchayath Model Muslim Higher Primary School Katipalla,7th Katipalla,7th Block Block ( Meeting Room)"},"geometry":{"type":"Point","coordinates":[74.8155,12.9954033]}},{"type":"Feature","properties":{"state":"Karnataka","district":26,"district_n":"DAKSHINA KANNADA","pc":17,"pc_name":"Dakshina Kannada","ac":202,"ac_name":"Mangalore City North","booth":18,"booth_name":"Dakshina Kannada Zilla Panchayath Panchayath Model Muslim Higher Primary School Katipalla, 7th 7th Block ( Main building west Room)"},"geometry":{"type":"Point","coordinates":[74.81535,12.9956627]}},{"type":"Feature","properties":{"state":"Karnataka","district":26,"district_n":"DAKSHINA KANNADA","pc":17,"pc_name":"Dakshina Kannada","ac":202,"ac_name":"Mangalore City North","booth":153,"booth_name":"Dakshina Kannada Zilla Panchayath Model Higher Primary School, School, Daddi, Badagayedapadav Badagayedapadav (west Wing of Old Building)"},"geometry":{"type":"Point","coordinates":[74.96315,12.9977932]}},{"type":"Feature","properties":{"state":"Karnataka","district":26,"district_n":"DAKSHINA KANNADA","pc":17,"pc_name":"Dakshina Kannada","ac":202,"ac_name":"Mangalore City North","booth":179,"booth_name":"St Jokim Higher Primary School, Kelarai"},"geometry":{"type":"Point","coordinates":[74.90922,12.9006405]}},{"type":"Feature","properties":{"state":"Karnataka","district":26,"district_n":"DAKSHINA KANNADA","pc":17,"pc_name":"Dakshina Kannada","ac":202,"ac_name":"Mangalore City North","booth":10,"booth_name":"Dakshina Kannada Zilla Panchayath Model Higher Primary Primary School, Surathkal (west wing of south Bldng)"},"geometry":{"type":"Point","coordinates":[74.79695,12.9956532]}},{"type":"Feature","properties":{"state":"Karnataka","district":26,"district_n":"DAKSHINA KANNADA","pc":17,"pc_name":"Dakshina Kannada","ac":202,"ac_name":"Mangalore City North","booth":21,"booth_name":"Bramhashri Narayana Guru Industrial Training Centre, 9th Block, Katipalla, Katipalla, South Wing"},"geometry":{"type":"Point","coordinates":[74.82373,13.0102549]}},{"type":"Feature","properties":{"state":"Karnataka","district":26,"district_n":"DAKSHINA KANNADA","pc":17,"pc_name":"Dakshina Kannada","ac":202,"ac_name":"Mangalore City North","booth":27,"booth_name":"Dakshina Kannada Zilla Panchayath Higher Primary School, Katipalla, 3rd Block (meeting Hall)"},"geometry":{"type":"Point","coordinates":[74.82932,12.9947987]}},{"type":"Feature","properties":{"state":"Karnataka","district":26,"district_n":"DAKSHINA KANNADA","pc":17,"pc_name":"Dakshina Kannada","ac":202,"ac_name":"Mangalore City North","booth":9,"booth_name":"Dakshina Kannada Zilla Panchayath Model Hfigher Primary School, Surathkal (middle wing)"},"geometry":{"type":"Point","coordinates":[74.79692,12.9957151]}},{"type":"Feature","properties":{"state":"Karnataka","district":26,"district_n":"DAKSHINA KANNADA","pc":17,"pc_name":"Dakshina Kannada","ac":202,"ac_name":"Mangalore City North","booth":58,"booth_name":"Govt Govt Compositive High School, Baikampady, Meenakaliya( South Portion of North Bldg )"},"geometry":{"type":"Point","coordinates":[74.80524,12.94874]}},{"type":"Feature","properties":{"state":"Karnataka","district":26,"district_n":"DAKSHINA KANNADA","pc":17,"pc_name":"Dakshina Kannada","ac":202,"ac_name":"Mangalore City North","booth":65,"booth_name":"Kulur Church Higher Primary Primary Primary School, Kulur (middle Wing of North )"},"geometry":{"type":"Point","coordinates":[74.83465,12.921176]}},{"type":"Feature","properties":{"state":"Karnataka","district":26,"district_n":"DAKSHINA KANNADA","pc":17,"pc_name":"Dakshina Kannada","ac":202,"ac_name":"Mangalore City North","booth":66,"booth_name":"Dakshina Kannada Zilla Panchayath Panchayath Model Higher Primary Primary School, Panjimogaru (east Wing)"},"geometry":{"type":"Point","coordinates":[74.84387,12.9261618]}},{"type":"Feature","properties":{"state":"Karnataka","district":26,"district_n":"DAKSHINA KANNADA","pc":17,"pc_name":"Dakshina Kannada","ac":202,"ac_name":"Mangalore City North","booth":117,"booth_name":"St Lawrence Aided Higher Primary School, Bondel , Pachanadi"},"geometry":{"type":"Point","coordinates":[74.86915,12.9168167]}},{"type":"Feature","properties":{"state":"Karnataka","district":26,"district_n":"DAKSHINA KANNADA","pc":17,"pc_name":"Dakshina Kannada","ac":202,"ac_name":"Mangalore City North","booth":122,"booth_name":"Dakshina Kannada Zilla Panchayath Higher Primary School, Thiruvail, (middle Wing)"},"geometry":{"type":"Point","coordinates":[74.90618,12.9207077]}},{"type":"Feature","properties":{"state":"Karnataka","district":26,"district_n":"DAKSHINA KANNADA","pc":17,"pc_name":"Dakshina Kannada","ac":202,"ac_name":"Mangalore City North","booth":123,"booth_name":"Dakshina Kannada Zilla Panchayath Modelhigher Primary School, Thiruvail, (south Wing)"},"geometry":{"type":"Point","coordinates":[74.906105,12.92088]}},{"type":"Feature","properties":{"state":"Karnataka","district":26,"district_n":"DAKSHINA KANNADA","pc":17,"pc_name":"Dakshina Kannada","ac":202,"ac_name":"Mangalore City North","booth":64,"booth_name":"Kulur Church Higher Primary Primary Primary School, Kulur (north Wing)"},"geometry":{"type":"Point","coordinates":[74.83548,12.9223242]}},{"type":"Feature","properties":{"state":"Karnataka","district":26,"district_n":"DAKSHINA KANNADA","pc":17,"pc_name":"Dakshina Kannada","ac":202,"ac_name":"Mangalore City North","booth":133,"booth_name":"Sri Niranjana Swamy College, Sunkadakatte, (room no 104 of North Wing)"},"geometry":{"type":"Point","coordinates":[74.90068,12.9796677]}},{"type":"Feature","properties":{"state":"Karnataka","district":26,"district_n":"DAKSHINA KANNADA","pc":17,"pc_name":"Dakshina Kannada","ac":202,"ac_name":"Mangalore City North","booth":67,"booth_name":"Dakshina Kannada Zilla Panchayath Model Higher Primary School, Panjimogaru Panjimogaru ( West Wing )"},"geometry":{"type":"Point","coordinates":[74.84394,12.9261494]}},{"type":"Feature","properties":{"state":"Karnataka","district":26,"district_n":"DAKSHINA KANNADA","pc":17,"pc_name":"Dakshina Kannada","ac":202,"ac_name":"Mangalore City North","booth":141,"booth_name":"Dakshina Kannada Zilla Panchayath Higher Primary School, Muchuru Muchuru (north Wing)"},"geometry":{"type":"Point","coordinates":[74.92022,13.02332]}},{"type":"Feature","properties":{"state":"Karnataka","district":26,"district_n":"DAKSHINA KANNADA","pc":17,"pc_name":"Dakshina Kannada","ac":202,"ac_name":"Mangalore City North","booth":98,"booth_name":"Dakshina Kannada Zilla Panchayath Model Higher Primary School, Kodikal"},"geometry":{"type":"Point","coordinates":[74.83857,12.9023514]}},{"type":"Feature","properties":{"state":"Karnataka","district":26,"district_n":"DAKSHINA KANNADA","pc":17,"pc_name":"Dakshina Kannada","ac":202,"ac_name":"Mangalore City North","booth":41,"booth_name":"Dakshina Kannada Zilla Panchayath Higher Primary School, Hosabettu (right wing of North Building)"},"geometry":{"type":"Point","coordinates":[74.79861,12.9747248]}},{"type":"Feature","properties":{"state":"Karnataka","district":26,"district_n":"DAKSHINA KANNADA","pc":17,"pc_name":"Dakshina Kannada","ac":202,"ac_name":"Mangalore City North","booth":69,"booth_name":"Govt Govt First Grade College Gandhinagar (new building of East Portion)"},"geometry":{"type":"Point","coordinates":[74.85369,12.92243]}},{"type":"Feature","properties":{"state":"Karnataka","district":26,"district_n":"DAKSHINA KANNADA","pc":17,"pc_name":"Dakshina Kannada","ac":202,"ac_name":"Mangalore City North","booth":29,"booth_name":"Chaitanya Public Public School, Katipalla, 4th Block Block ( South Wing Room )"},"geometry":{"type":"Point","coordinates":[74.82186,12.9973307]}},{"type":"Feature","properties":{"state":"Karnataka","district":26,"district_n":"DAKSHINA KANNADA","pc":17,"pc_name":"Dakshina Kannada","ac":202,"ac_name":"Mangalore City North","booth":35,"booth_name":"Mahalingeshwara English Medium Higher Primary School, School, Surathkal (north Building of North wing)"},"geometry":{"type":"Point","coordinates":[74.80196,12.9868336]}},{"type":"Feature","properties":{"state":"Karnataka","district":26,"district_n":"DAKSHINA KANNADA","pc":17,"pc_name":"Dakshina Kannada","ac":202,"ac_name":"Mangalore City North","booth":6,"booth_name":"Kendriya Model Vasathi School, School, Middle Surathkal, East Building (north Room)"},"geometry":{"type":"Point","coordinates":[74.8130951,13.0151405]}},{"type":"Feature","properties":{"state":"Karnataka","district":26,"district_n":"DAKSHINA KANNADA","pc":17,"pc_name":"Dakshina Kannada","ac":202,"ac_name":"Mangalore City North","booth":26,"booth_name":"Sri Narayana Guru English Medium Higher Primary Primary School , Block Block 3 Kattipalla Kattipalla (main Building East Portion room)"},"geometry":{"type":"Point","coordinates":[74.83181,12.9938412]}},{"type":"Feature","properties":{"state":"Karnataka","district":26,"district_n":"DAKSHINA KANNADA","pc":17,"pc_name":"Dakshina Kannada","ac":202,"ac_name":"Mangalore City North","booth":32,"booth_name":"Sri Govindas College, Surthkal (south Building East Portion room)"},"geometry":{"type":"Point","coordinates":[74.8026,12.9848309]}},{"type":"Feature","properties":{"state":"Karnataka","district":26,"district_n":"DAKSHINA KANNADA","pc":17,"pc_name":"Dakshina Kannada","ac":202,"ac_name":"Mangalore City North","booth":172,"booth_name":"Grama Panchayath Office, Ulayibettu"},"geometry":{"type":"Point","coordinates":[74.9349442,12.9211187]}},{"type":"Feature","properties":{"state":"Karnataka","district":26,"district_n":"DAKSHINA KANNADA","pc":17,"pc_name":"Dakshina Kannada","ac":202,"ac_name":"Mangalore City North","booth":175,"booth_name":"Dakshina Kannada Zilla Panchayath Higher Primary School, Badriya Nagar, Malluru"},"geometry":{"type":"Point","coordinates":[74.95174,12.9091129]}},{"type":"Feature","properties":{"state":"Karnataka","district":26,"district_n":"DAKSHINA KANNADA","pc":17,"pc_name":"Dakshina Kannada","ac":202,"ac_name":"Mangalore City North","booth":187,"booth_name":"Rajeshwar Aided High School, Adyarypadavu, (east Wing)"},"geometry":{"type":"Point","coordinates":[74.92601,12.8790064]}},{"type":"Feature","properties":{"state":"Karnataka","district":26,"district_n":"DAKSHINA KANNADA","pc":17,"pc_name":"Dakshina Kannada","ac":202,"ac_name":"Mangalore City North","booth":38,"booth_name":"Vidyadayini Aided High School, Surathkal"},"geometry":{"type":"Point","coordinates":[74.8029556,12.9827642]}},{"type":"Feature","properties":{"state":"Karnataka","district":26,"district_n":"DAKSHINA KANNADA","pc":17,"pc_name":"Dakshina Kannada","ac":202,"ac_name":"Mangalore City North","booth":49,"booth_name":"Sri Venkatramana Aided Higher Primary School School Kulaigudde Kulaigudde ( North Portion of of West Building )"},"geometry":{"type":"Point","coordinates":[74.80799,12.9689608]}},{"type":"Feature","properties":{"state":"Karnataka","district":26,"district_n":"DAKSHINA KANNADA","pc":17,"pc_name":"Dakshina Kannada","ac":202,"ac_name":"Mangalore City North","booth":61,"booth_name":"Kulur Church Higher Primary Primary School, Kulur Kulur (south Wing)"},"geometry":{"type":"Point","coordinates":[74.82163,12.9327879]}},{"type":"Feature","properties":{"state":"Karnataka","district":26,"district_n":"DAKSHINA KANNADA","pc":17,"pc_name":"Dakshina Kannada","ac":202,"ac_name":"Mangalore City North","booth":72,"booth_name":"Dakshina Kannada Zilla Panchayath Higher Primary School, Kavoor Kavoor Kavoor (north Wing)"},"geometry":{"type":"Point","coordinates":[74.8530655,12.9229412]}},{"type":"Feature","properties":{"state":"Karnataka","district":26,"district_n":"DAKSHINA KANNADA","pc":17,"pc_name":"Dakshina Kannada","ac":202,"ac_name":"Mangalore City North","booth":78,"booth_name":"Dakshina Kannada Zilla Panchayath Model Higher Primary School, Marakada, (2nd room of Old Building)"},"geometry":{"type":"Point","coordinates":[74.85612,12.9380054]}},{"type":"Feature","properties":{"state":"Karnataka","district":26,"district_n":"DAKSHINA KANNADA","pc":17,"pc_name":"Dakshina Kannada","ac":202,"ac_name":"Mangalore City North","booth":95,"booth_name":"Dakshina Kannada Zilla Panchayath Model higher Primary School, Kodikal, (middle portion of East Bldng)"},"geometry":{"type":"Point","coordinates":[74.83857,12.9023514]}},{"type":"Feature","properties":{"state":"Karnataka","district":26,"district_n":"DAKSHINA KANNADA","pc":17,"pc_name":"Dakshina Kannada","ac":202,"ac_name":"Mangalore City North","booth":101,"booth_name":"Saint Anns Private High School, Kuntikana, (south Wing)"},"geometry":{"type":"Point","coordinates":[74.83857,12.9023514]}},{"type":"Feature","properties":{"state":"Karnataka","district":26,"district_n":"DAKSHINA KANNADA","pc":17,"pc_name":"Dakshina Kannada","ac":202,"ac_name":"Mangalore City North","booth":112,"booth_name":"Sri Ramashrama Higher Primary School, Konchadi, Dashamanotsava Building, (north Blding of Middle wing)"},"geometry":{"type":"Point","coordinates":[74.84528,12.9332724]}},{"type":"Feature","properties":{"state":"Karnataka","district":26,"district_n":"DAKSHINA KANNADA","pc":17,"pc_name":"Dakshina Kannada","ac":202,"ac_name":"Mangalore City North","booth":115,"booth_name":"St Lawrence Aided Higher Primary School, Bondel , Pachanadi"},"geometry":{"type":"Point","coordinates":[74.86919,12.9166756]}},{"type":"Feature","properties":{"state":"Karnataka","district":26,"district_n":"DAKSHINA KANNADA","pc":17,"pc_name":"Dakshina Kannada","ac":202,"ac_name":"Mangalore City North","booth":124,"booth_name":"St Joseph Workers Aided Higher Primary School, Vamanjur, (east Wing)"},"geometry":{"type":"Point","coordinates":[74.89766,12.9110346]}},{"type":"Feature","properties":{"state":"Karnataka","district":26,"district_n":"DAKSHINA KANNADA","pc":17,"pc_name":"Dakshina Kannada","ac":202,"ac_name":"Mangalore City North","booth":135,"booth_name":"Dakshina Kannada Zilla Panchayath Panchayath Higher Primary School, Kinnikambala, (east Wing)"},"geometry":{"type":"Point","coordinates":[74.92779,12.9681625]}},{"type":"Feature","properties":{"state":"Karnataka","district":26,"district_n":"DAKSHINA KANNADA","pc":17,"pc_name":"Dakshina Kannada","ac":202,"ac_name":"Mangalore City North","booth":138,"booth_name":"Sri Vanivilas Aided Higher Primary School, kattalasar, Padu Perar"},"geometry":{"type":"Point","coordinates":[74.9011,12.9992714]}},{"type":"Feature","properties":{"state":"Karnataka","district":26,"district_n":"DAKSHINA KANNADA","pc":17,"pc_name":"Dakshina Kannada","ac":202,"ac_name":"Mangalore City North","booth":152,"booth_name":"Swamy Vivekananda Pre Univercity College, Yadapadavu, (right Wing)"},"geometry":{"type":"Point","coordinates":[74.9630051,12.9977169]}},{"type":"Feature","properties":{"state":"Karnataka","district":26,"district_n":"DAKSHINA KANNADA","pc":17,"pc_name":"Dakshina Kannada","ac":202,"ac_name":"Mangalore City North","booth":181,"booth_name":"Dakshina Kannada Zilla Panchayath Higher Primary School, Pedumale, Neerumarga"},"geometry":{"type":"Point","coordinates":[74.90293,12.8883057]}},{"type":"Feature","properties":{"state":"Karnataka","district":26,"district_n":"DAKSHINA KANNADA","pc":17,"pc_name":"Dakshina Kannada","ac":202,"ac_name":"Mangalore City North","booth":184,"booth_name":"St Ligory's Aided Higher Primary School, Merlapadavu, Neerumarga, (old Building Right Wing)"},"geometry":{"type":"Point","coordinates":[74.92644,12.8792772]}},{"type":"Feature","properties":{"state":"Karnataka","district":26,"district_n":"DAKSHINA KANNADA","pc":17,"pc_name":"Dakshina Kannada","ac":202,"ac_name":"Mangalore City North","booth":34,"booth_name":"Mahalingeshwara English Medium Higher Primary School, School, Surathkal Surathkal (south building East portion)"},"geometry":{"type":"Point","coordinates":[74.80212,12.9863491]}},{"type":"Feature","properties":{"state":"Karnataka","district":26,"district_n":"DAKSHINA KANNADA","pc":17,"pc_name":"Dakshina Kannada","ac":202,"ac_name":"Mangalore City North","booth":4,"booth_name":"Karnataka Regional Engineering Aided Higher Primary School Surathkal (east Portion of new building S"},"geometry":{"type":"Point","coordinates":[74.79358,13.0134554]}},{"type":"Feature","properties":{"state":"Karnataka","district":26,"district_n":"DAKSHINA KANNADA","pc":17,"pc_name":"Dakshina Kannada","ac":202,"ac_name":"Mangalore City North","booth":7,"booth_name":"Dakshina Kannada Zilla Panchayath Panchayath Lower Primary School , Krishnapura (munchuru Old Building)"},"geometry":{"type":"Point","coordinates":[74.80657,13.0084114]}},{"type":"Feature","properties":{"state":"Karnataka","district":26,"district_n":"DAKSHINA KANNADA","pc":17,"pc_name":"Dakshina Kannada","ac":202,"ac_name":"Mangalore City North","booth":30,"booth_name":"Mangalore City Corporation Corporation Sub Office, Surathkal, Iddya Iddya (office Room)"},"geometry":{"type":"Point","coordinates":[74.79927,12.9921494]}},{"type":"Feature","properties":{"state":"Karnataka","district":26,"district_n":"DAKSHINA KANNADA","pc":17,"pc_name":"Dakshina Kannada","ac":202,"ac_name":"Mangalore City North","booth":33,"booth_name":"Vidyadayini English Medium Higher Primary School Idya Surathkal Surathkal ( North Room of West Building )"},"geometry":{"type":"Point","coordinates":[74.80132,12.9789085]}},{"type":"Feature","properties":{"state":"Karnataka","district":26,"district_n":"DAKSHINA KANNADA","pc":17,"pc_name":"Dakshina Kannada","ac":202,"ac_name":"Mangalore City North","booth":113,"booth_name":"Sri Ramashrama Higher Primary School, Konchadi, (left Wing of North Building)"},"geometry":{"type":"Point","coordinates":[74.84528,12.9332724]}},{"type":"Feature","properties":{"state":"Karnataka","district":26,"district_n":"DAKSHINA KANNADA","pc":17,"pc_name":"Dakshina Kannada","ac":202,"ac_name":"Mangalore City North","booth":130,"booth_name":"Pompai Aided Higher Primary School, Kandavara, (east Wing)"},"geometry":{"type":"Point","coordinates":[74.92838,12.9578247]}},{"type":"Feature","properties":{"state":"Karnataka","district":26,"district_n":"DAKSHINA KANNADA","pc":17,"pc_name":"Dakshina Kannada","ac":202,"ac_name":"Mangalore City North","booth":159,"booth_name":"Aided Mogaru Higher Primary School, Mogaru"},"geometry":{"type":"Point","coordinates":[74.9708,12.9659672]}},{"type":"Feature","properties":{"state":"Karnataka","district":26,"district_n":"DAKSHINA KANNADA","pc":17,"pc_name":"Dakshina Kannada","ac":202,"ac_name":"Mangalore City North","booth":176,"booth_name":"Palguni Aided Higher Primary School, Malluru, (right Wing)"},"geometry":{"type":"Point","coordinates":[74.96196,12.907279]}},{"type":"Feature","properties":{"state":"Karnataka","district":26,"district_n":"DAKSHINA KANNADA","pc":17,"pc_name":"Dakshina Kannada","ac":202,"ac_name":"Mangalore City North","booth":190,"booth_name":"Dakshina Kannada Zilla Panchayath Higher Primary School, Valachill, (middle Wing)"},"geometry":{"type":"Point","coordinates":[74.9381561,12.8698988]}},{"type":"Feature","properties":{"state":"Karnataka","district":26,"district_n":"DAKSHINA KANNADA","pc":17,"pc_name":"Dakshina Kannada","ac":202,"ac_name":"Mangalore City North","booth":121,"booth_name":"Dakshina Kannada Zilla Panchayath Higher Primary School, Kudupu, (south Wing)"},"geometry":{"type":"Point","coordinates":[74.89254,12.8998165]}},{"type":"Feature","properties":{"state":"Karnataka","district":26,"district_n":"DAKSHINA KANNADA","pc":17,"pc_name":"Dakshina Kannada","ac":202,"ac_name":"Mangalore City North","booth":132,"booth_name":"Dakshina Kannada Zilla Panchayath Higher Primary School, Adyampadi"},"geometry":{"type":"Point","coordinates":[74.88966,12.9518309]}},{"type":"Feature","properties":{"state":"Karnataka","district":26,"district_n":"DAKSHINA KANNADA","pc":17,"pc_name":"Dakshina Kannada","ac":202,"ac_name":"Mangalore City North","booth":89,"booth_name":"Dakshina Kannada Zilla Panchayath Higher Primary school, Kodikal, (balavadi Building)"},"geometry":{"type":"Point","coordinates":[74.83854,12.9023476]}},{"type":"Feature","properties":{"state":"Karnataka","district":26,"district_n":"DAKSHINA KANNADA","pc":17,"pc_name":"Dakshina Kannada","ac":202,"ac_name":"Mangalore City North","booth":118,"booth_name":"St St Lawrence Aided Higher Primary School, Bondel , Pachanadi, (west Wing)"},"geometry":{"type":"Point","coordinates":[74.86948,12.916688]}},{"type":"Feature","properties":{"state":"Karnataka","district":26,"district_n":"DAKSHINA KANNADA","pc":17,"pc_name":"Dakshina Kannada","ac":202,"ac_name":"Mangalore City North","booth":158,"booth_name":"Government Pre University College, Mutturu,"},"geometry":{"type":"Point","coordinates":[74.9895,12.9541264]}},{"type":"Feature","properties":{"state":"Karnataka","district":26,"district_n":"DAKSHINA KANNADA","pc":17,"pc_name":"Dakshina Kannada","ac":202,"ac_name":"Mangalore City North","booth":161,"booth_name":"Grama Panchayath Office (meeting Hall) Ganjimata, (east Wing)"},"geometry":{"type":"Point","coordinates":[74.9510651,12.9763489]}},{"type":"Feature","properties":{"state":"Karnataka","district":26,"district_n":"DAKSHINA KANNADA","pc":17,"pc_name":"Dakshina Kannada","ac":202,"ac_name":"Mangalore City North","booth":164,"booth_name":"Dakshina Kannada Zilla Panchayath Higher Primary School, Suralpady, Middle Wing"},"geometry":{"type":"Point","coordinates":[74.9416046,12.9681835]}},{"type":"Feature","properties":{"state":"Karnataka","district":26,"district_n":"DAKSHINA KANNADA","pc":17,"pc_name":"Dakshina Kannada","ac":202,"ac_name":"Mangalore City North","booth":109,"booth_name":"Government Junior Techinical School, Kadri,j (east Portion of north Building)"},"geometry":{"type":"Point","coordinates":[74.85423,12.8867912]}},{"type":"Feature","properties":{"state":"Karnataka","district":26,"district_n":"DAKSHINA KANNADA","pc":17,"pc_name":"Dakshina Kannada","ac":202,"ac_name":"Mangalore City North","booth":110,"booth_name":"Government Junior Technical School, Kadri, (west Portion of of North Building)"},"geometry":{"type":"Point","coordinates":[74.85423,12.8867912]}},{"type":"Feature","properties":{"state":"Karnataka","district":26,"district_n":"DAKSHINA KANNADA","pc":17,"pc_name":"Dakshina Kannada","ac":202,"ac_name":"Mangalore City North","booth":56,"booth_name":"Govt Govt Compositive High School, Angaragundi, Baikampady Village(south Portion Room)"},"geometry":{"type":"Point","coordinates":[74.81777,12.9570112]}},{"type":"Feature","properties":{"state":"Karnataka","district":26,"district_n":"DAKSHINA KANNADA","pc":17,"pc_name":"Dakshina Kannada","ac":202,"ac_name":"Mangalore City North","booth":104,"booth_name":"Holy Family Higher Primary school, Derebail, Building Building (west (west wing)"},"geometry":{"type":"Point","coordinates":[74.86382,12.9437]}},{"type":"Feature","properties":{"state":"Karnataka","district":26,"district_n":"DAKSHINA KANNADA","pc":17,"pc_name":"Dakshina Kannada","ac":202,"ac_name":"Mangalore City North","booth":52,"booth_name":"Dakshina Kannada Zilla Panchayath Fisheries Fisheries Higher Primary Primary School, Chitrapura, Kulai Kulai (west Portion Middle Room)"},"geometry":{"type":"Point","coordinates":[74.8016,12.9615421]}},{"type":"Feature","properties":{"state":"Karnataka","district":26,"district_n":"DAKSHINA KANNADA","pc":17,"pc_name":"Dakshina Kannada","ac":202,"ac_name":"Mangalore City North","booth":75,"booth_name":"Dakshina Kannada Zilla Panchayath Model Higher Primary School, Marakada, (new building)"},"geometry":{"type":"Point","coordinates":[74.8562241,12.9374809]}},{"type":"Feature","properties":{"state":"Karnataka","district":26,"district_n":"DAKSHINA KANNADA","pc":17,"pc_name":"Dakshina Kannada","ac":202,"ac_name":"Mangalore City North","booth":55,"booth_name":"Govt Govt Compositive High School, Angaragundi, Baikampady Village (north Portion Room)"},"geometry":{"type":"Point","coordinates":[74.81781,12.9571018]}},{"type":"Feature","properties":{"state":"Karnataka","district":26,"district_n":"DAKSHINA KANNADA","pc":17,"pc_name":"Dakshina Kannada","ac":202,"ac_name":"Mangalore City North","booth":81,"booth_name":"Womens Polytechinc, Bondel , (1st Room)"},"geometry":{"type":"Point","coordinates":[74.86771,12.9239855]}},{"type":"Feature","properties":{"state":"Karnataka","district":26,"district_n":"DAKSHINA KANNADA","pc":17,"pc_name":"Dakshina Kannada","ac":202,"ac_name":"Mangalore City North","booth":92,"booth_name":"Dakshina Kannada Zilla Panchayath Model Higher Primary School, kodikal, (south Wing of East Portion)"},"geometry":{"type":"Point","coordinates":[74.83854,12.9023476]}},{"type":"Feature","properties":{"state":"Karnataka","district":26,"district_n":"DAKSHINA KANNADA","pc":17,"pc_name":"Dakshina Kannada","ac":202,"ac_name":"Mangalore City North","booth":155,"booth_name":"Dakshina Kannada Zilla Panchayath Higher Primary Shcool, Kilenjaru"},"geometry":{"type":"Point","coordinates":[74.98751,12.9735928]}},{"type":"Feature","properties":{"state":"Karnataka","district":26,"district_n":"DAKSHINA KANNADA","pc":17,"pc_name":"Dakshina Kannada","ac":202,"ac_name":"Mangalore City North","booth":14,"booth_name":"Dakshina Kannada Zilla Panchayath Higher Primary School, Katipalla, 6th Block (west Wing)"},"geometry":{"type":"Point","coordinates":[74.81371,12.9964161]}},{"type":"Feature","properties":{"state":"Karnataka","district":26,"district_n":"DAKSHINA KANNADA","pc":17,"pc_name":"Dakshina Kannada","ac":202,"ac_name":"Mangalore City North","booth":1,"booth_name":"Dakshina Kannada Zilla Panchayath Urdu Higher Primary School Mukka (middle Portion)"},"geometry":{"type":"Point","coordinates":[74.78986,13.0227222]}},{"type":"Feature","properties":{"state":"Karnataka","district":26,"district_n":"DAKSHINA KANNADA","pc":17,"pc_name":"Dakshina Kannada","ac":202,"ac_name":"Mangalore City North","booth":15,"booth_name":"D K Zilla Panchayath Model Muslim Higher Primary School, 7th block (east wing of middle room)"},"geometry":{"type":"Point","coordinates":[74.81538,12.9954214]}},{"type":"Feature","properties":{"state":"Karnataka","district":26,"district_n":"DAKSHINA KANNADA","pc":17,"pc_name":"Dakshina Kannada","ac":202,"ac_name":"Mangalore City North","booth":12,"booth_name":"Dakshina Kannada Zilla Panchayath Model Higher Primary School,katipalla, 8th Block ( North Wing )"},"geometry":{"type":"Point","coordinates":[74.8069153,12.9965153]}},{"type":"Feature","properties":{"state":"Karnataka","district":26,"district_n":"DAKSHINA KANNADA","pc":17,"pc_name":"Dakshina Kannada","ac":202,"ac_name":"Mangalore City North","booth":36,"booth_name":"Dakshina Kannada Zilla Panchayath Higher Primary School, Kana Katla, Idya Idya (north wing Room)"},"geometry":{"type":"Point","coordinates":[74.82066,12.9898443]}},{"type":"Feature","properties":{"state":"Karnataka","district":26,"district_n":"DAKSHINA KANNADA","pc":17,"pc_name":"Dakshina Kannada","ac":202,"ac_name":"Mangalore City North","booth":47,"booth_name":"Sri Venkatramana Aided Higher Primary School School Kulaigudde Kulaigudde ( North Portion of of East Building )"},"geometry":{"type":"Point","coordinates":[74.80816,12.9692936]}},{"type":"Feature","properties":{"state":"Karnataka","district":26,"district_n":"DAKSHINA KANNADA","pc":17,"pc_name":"Dakshina Kannada","ac":202,"ac_name":"Mangalore City North","booth":44,"booth_name":"Bharathi English Medium Medium High School Vidhya Nagar, Kuali, (south Wing)"},"geometry":{"type":"Point","coordinates":[74.81306,12.9674788]}},{"type":"Feature","properties":{"state":"Karnataka","district":26,"district_n":"DAKSHINA KANNADA","pc":17,"pc_name":"Dakshina Kannada","ac":202,"ac_name":"Mangalore City North","booth":136,"booth_name":"akshina Kannada Zilla Panchayath Higher Primary School, Kinnikambala, (north Wing)"},"geometry":{"type":"Point","coordinates":[74.92784,12.9678917]}},{"type":"Feature","properties":{"state":"Karnataka","district":26,"district_n":"DAKSHINA KANNADA","pc":17,"pc_name":"Dakshina Kannada","ac":202,"ac_name":"Mangalore City North","booth":144,"booth_name":"D K Z P Model Higher Primary School, Badaga Yedapadavu, Bellachar, (middle Portion)"},"geometry":{"type":"Point","coordinates":[74.9674759,13.0164261]}}]}