{"type":"FeatureCollection","features":[{"type":"Feature","properties":{"state":"Karnataka","district":26,"district_n":"DAKSHINA KANNADA","pc":17,"pc_name":"Dakshina Kannada","ac":205,"ac_name":"Bantval","booth":80,"booth_name":"Dakshina Kannada Zilla Panchayath Model Higher Primary School Karla"},"geometry":{"type":"Point","coordinates":[75.18619,12.9016666]}},{"type":"Feature","properties":{"state":"Karnataka","district":26,"district_n":"DAKSHINA KANNADA","pc":17,"pc_name":"Dakshina Kannada","ac":205,"ac_name":"Bantval","booth":97,"booth_name":"Grama panchayath office , Navooru"},"geometry":{"type":"Point","coordinates":[75.07824,12.8945827]}},{"type":"Feature","properties":{"state":"Karnataka","district":26,"district_n":"DAKSHINA KANNADA","pc":17,"pc_name":"Dakshina Kannada","ac":205,"ac_name":"Bantval","booth":98,"booth_name":"Grama panchayath office , Navooru"},"geometry":{"type":"Point","coordinates":[75.07816,12.8946972]}},{"type":"Feature","properties":{"state":"Karnataka","district":26,"district_n":"DAKSHINA KANNADA","pc":17,"pc_name":"Dakshina Kannada","ac":205,"ac_name":"Bantval","booth":101,"booth_name":"Dakshina Kannada Zilla Panchayath Higher Primary School,bolanthur"},"geometry":{"type":"Point","coordinates":[75.0570755,12.88833]}},{"type":"Feature","properties":{"state":"Karnataka","district":26,"district_n":"DAKSHINA KANNADA","pc":17,"pc_name":"Dakshina Kannada","ac":205,"ac_name":"Bantval","booth":103,"booth_name":"Dakshina Kannada Zilla Panchayath Higher Primary School,naricombu"},"geometry":{"type":"Point","coordinates":[75.05665,12.8767958]}},{"type":"Feature","properties":{"state":"Karnataka","district":26,"district_n":"DAKSHINA KANNADA","pc":17,"pc_name":"Dakshina Kannada","ac":205,"ac_name":"Bantval","booth":106,"booth_name":"Dakshina Kannada Zilla Panchayath Higher Primary School,naricombu"},"geometry":{"type":"Point","coordinates":[75.0567551,12.8767424]}},{"type":"Feature","properties":{"state":"Karnataka","district":26,"district_n":"DAKSHINA KANNADA","pc":17,"pc_name":"Dakshina Kannada","ac":205,"ac_name":"Bantval","booth":109,"booth_name":"Deepika High School Mudam kapu"},"geometry":{"type":"Point","coordinates":[75.01765,12.8867025]}},{"type":"Feature","properties":{"state":"Karnataka","district":26,"district_n":"DAKSHINA KANNADA","pc":17,"pc_name":"Dakshina Kannada","ac":205,"ac_name":"Bantval","booth":117,"booth_name":"S V S Devala Devala Higher Primary School,bantwal (east Wing)"},"geometry":{"type":"Point","coordinates":[75.03772,12.8966055]}},{"type":"Feature","properties":{"state":"Karnataka","district":26,"district_n":"DAKSHINA KANNADA","pc":17,"pc_name":"Dakshina Kannada","ac":205,"ac_name":"Bantval","booth":118,"booth_name":"Svs Devala Higher Primary School,bantwal (east Wing"},"geometry":{"type":"Point","coordinates":[75.03746,12.896472]}},{"type":"Feature","properties":{"state":"Karnataka","district":26,"district_n":"DAKSHINA KANNADA","pc":17,"pc_name":"Dakshina Kannada","ac":205,"ac_name":"Bantval","booth":120,"booth_name":"A P M C Office Jodu Marga"},"geometry":{"type":"Point","coordinates":[75.03285,12.8791571]}},{"type":"Feature","properties":{"state":"Karnataka","district":26,"district_n":"DAKSHINA KANNADA","pc":17,"pc_name":"Dakshina Kannada","ac":205,"ac_name":"Bantval","booth":121,"booth_name":"Sacred Heart Higher Primary School,thodumbila Kallige"},"geometry":{"type":"Point","coordinates":[74.9987259,12.903409]}},{"type":"Feature","properties":{"state":"Karnataka","district":26,"district_n":"DAKSHINA KANNADA","pc":17,"pc_name":"Dakshina Kannada","ac":205,"ac_name":"Bantval","booth":129,"booth_name":"Govt High School School Nandavar"},"geometry":{"type":"Point","coordinates":[75.039,12.8657207]}},{"type":"Feature","properties":{"state":"Karnataka","district":26,"district_n":"DAKSHINA KANNADA","pc":17,"pc_name":"Dakshina Kannada","ac":205,"ac_name":"Bantval","booth":138,"booth_name":"Dakshina Kannada Zilla Panchayath Higher Primary School Shamboor"},"geometry":{"type":"Point","coordinates":[75.08214,12.8728685]}},{"type":"Feature","properties":{"state":"Karnataka","district":26,"district_n":"DAKSHINA KANNADA","pc":17,"pc_name":"Dakshina Kannada","ac":205,"ac_name":"Bantval","booth":140,"booth_name":"Dakshina Kannada Zilla Panchayath Lower Primary School Kudrebettu Balthila"},"geometry":{"type":"Point","coordinates":[75.08364,12.8427439]}},{"type":"Feature","properties":{"state":"Karnataka","district":26,"district_n":"DAKSHINA KANNADA","pc":17,"pc_name":"Dakshina Kannada","ac":205,"ac_name":"Bantval","booth":141,"booth_name":"Dakshina Kannada Zilla Panchayath Higher Primary School Neerapade Baltila"},"geometry":{"type":"Point","coordinates":[75.102005,12.858325]}},{"type":"Feature","properties":{"state":"Karnataka","district":26,"district_n":"DAKSHINA KANNADA","pc":17,"pc_name":"Dakshina Kannada","ac":205,"ac_name":"Bantval","booth":149,"booth_name":"Dakshina Kannada Zilla Panchayath Lower Primary School Kemmanupalke"},"geometry":{"type":"Point","coordinates":[75.17915,12.83902]}},{"type":"Feature","properties":{"state":"Karnataka","district":26,"district_n":"DAKSHINA KANNADA","pc":17,"pc_name":"Dakshina Kannada","ac":205,"ac_name":"Bantval","booth":157,"booth_name":"Dakshina Kannada Zilla Panchayath Model Higher Primary School ,mani"},"geometry":{"type":"Point","coordinates":[75.12119,12.8363752]}},{"type":"Feature","properties":{"state":"Karnataka","district":26,"district_n":"DAKSHINA KANNADA","pc":17,"pc_name":"Dakshina Kannada","ac":205,"ac_name":"Bantval","booth":9,"booth_name":"Dakshina Kannada Zilla Panchayath Higher Higher School Kukkippady (west wing)"},"geometry":{"type":"Point","coordinates":[75.06912,12.9741106]}},{"type":"Feature","properties":{"state":"Karnataka","district":26,"district_n":"DAKSHINA KANNADA","pc":17,"pc_name":"Dakshina Kannada","ac":205,"ac_name":"Bantval","booth":12,"booth_name":"Government Pre Univercity College,vamadapadavu,channaithodi (west Wing)"},"geometry":{"type":"Point","coordinates":[75.09705,12.9643116]}},{"type":"Feature","properties":{"state":"Karnataka","district":26,"district_n":"DAKSHINA KANNADA","pc":17,"pc_name":"Dakshina Kannada","ac":205,"ac_name":"Bantval","booth":15,"booth_name":"Dakshina Kannada Zilla Panchayath Higher Primary Primary School School Chenaithody (east Wing)"},"geometry":{"type":"Point","coordinates":[75.09598,12.9617414]}},{"type":"Feature","properties":{"state":"Karnataka","district":26,"district_n":"DAKSHINA KANNADA","pc":17,"pc_name":"Dakshina Kannada","ac":205,"ac_name":"Bantval","booth":18,"booth_name":"Dakshina Kannada Zilla Panchayath Hihger Primary School Moorje Pilathabettu (east Wing)"},"geometry":{"type":"Point","coordinates":[75.15451,12.9442739]}},{"type":"Feature","properties":{"state":"Karnataka","district":26,"district_n":"DAKSHINA KANNADA","pc":17,"pc_name":"Dakshina Kannada","ac":205,"ac_name":"Bantval","booth":21,"booth_name":"Dakshina Kannada Zilla Panchayath Higher Primary School Mudapadukodi"},"geometry":{"type":"Point","coordinates":[75.12648,12.9527369]}},{"type":"Feature","properties":{"state":"Karnataka","district":26,"district_n":"DAKSHINA KANNADA","pc":17,"pc_name":"Dakshina Kannada","ac":205,"ac_name":"Bantval","booth":32,"booth_name":"Sri Chndranatha Swamy Aided Higher Primary School Chatra"},"geometry":{"type":"Point","coordinates":[74.99859,12.95536]}},{"type":"Feature","properties":{"state":"Karnataka","district":26,"district_n":"DAKSHINA KANNADA","pc":17,"pc_name":"Dakshina Kannada","ac":205,"ac_name":"Bantval","booth":37,"booth_name":"Grama Panchayath Office,badagabellur"},"geometry":{"type":"Point","coordinates":[74.98694,12.9353781]}},{"type":"Feature","properties":{"state":"Karnataka","district":26,"district_n":"DAKSHINA KANNADA","pc":17,"pc_name":"Dakshina Kannada","ac":205,"ac_name":"Bantval","booth":40,"booth_name":"Sri Vidhya Vilasa Aided Higher Primary Primary School Polali"},"geometry":{"type":"Point","coordinates":[74.95597,12.9335032]}},{"type":"Feature","properties":{"state":"Karnataka","district":26,"district_n":"DAKSHINA KANNADA","pc":17,"pc_name":"Dakshina Kannada","ac":205,"ac_name":"Bantval","booth":26,"booth_name":"Dakshina Kannada Zilla Panchayath Higher Primary School Koyila"},"geometry":{"type":"Point","coordinates":[75.03997,12.9522905]}},{"type":"Feature","properties":{"state":"Karnataka","district":26,"district_n":"DAKSHINA KANNADA","pc":17,"pc_name":"Dakshina Kannada","ac":205,"ac_name":"Bantval","booth":49,"booth_name":"Dakishina Kannada Zilla Panchayath Higher Primary School Nalkemaru"},"geometry":{"type":"Point","coordinates":[75.01899,12.8991137]}},{"type":"Feature","properties":{"state":"Karnataka","district":26,"district_n":"DAKSHINA KANNADA","pc":17,"pc_name":"Dakshina Kannada","ac":205,"ac_name":"Bantval","booth":55,"booth_name":"Dakshina Kannada Zilla Panchayath Higher Primary School,mandadi Bantwal Kasba"},"geometry":{"type":"Point","coordinates":[75.04301,12.9109373]}},{"type":"Feature","properties":{"state":"Karnataka","district":26,"district_n":"DAKSHINA KANNADA","pc":17,"pc_name":"Dakshina Kannada","ac":205,"ac_name":"Bantval","booth":57,"booth_name":"Aided Higher Primary School Loretto"},"geometry":{"type":"Point","coordinates":[75.03688,12.92226]}},{"type":"Feature","properties":{"state":"Karnataka","district":26,"district_n":"DAKSHINA KANNADA","pc":17,"pc_name":"Dakshina Kannada","ac":205,"ac_name":"Bantval","booth":58,"booth_name":"Christha Jyothi High School,agrar Bantwal kasba"},"geometry":{"type":"Point","coordinates":[75.0521,12.9156332]}},{"type":"Feature","properties":{"state":"Karnataka","district":26,"district_n":"DAKSHINA KANNADA","pc":17,"pc_name":"Dakshina Kannada","ac":205,"ac_name":"Bantval","booth":61,"booth_name":"Munarul Islamiya Aided Higher Primary School Kelagina Pete Bantwal, Kasba"},"geometry":{"type":"Point","coordinates":[75.04143,12.8918438]}},{"type":"Feature","properties":{"state":"Karnataka","district":26,"district_n":"DAKSHINA KANNADA","pc":17,"pc_name":"Dakshina Kannada","ac":205,"ac_name":"Bantval","booth":63,"booth_name":"S V S Temple Temple English English English Medium School, Bantwal Kasba"},"geometry":{"type":"Point","coordinates":[75.0404358,12.8958607]}},{"type":"Feature","properties":{"state":"Karnataka","district":26,"district_n":"DAKSHINA KANNADA","pc":17,"pc_name":"Dakshina Kannada","ac":205,"ac_name":"Bantval","booth":66,"booth_name":"Old Grama Panchayath office, Kavalapaduru , Munduvarika Shikshana Kendra"},"geometry":{"type":"Point","coordinates":[75.10213,12.9228344]}},{"type":"Feature","properties":{"state":"Karnataka","district":26,"district_n":"DAKSHINA KANNADA","pc":17,"pc_name":"Dakshina Kannada","ac":205,"ac_name":"Bantval","booth":158,"booth_name":"Dakshina Kannada Zilla Panchayath Model Higher Primary School ,mani"},"geometry":{"type":"Point","coordinates":[75.12087,12.8365612]}},{"type":"Feature","properties":{"state":"Karnataka","district":26,"district_n":"DAKSHINA KANNADA","pc":17,"pc_name":"Dakshina Kannada","ac":205,"ac_name":"Bantval","booth":160,"booth_name":"Dakshina Kannada Zilla Panchayath Model Higher Primary School"},"geometry":{"type":"Point","coordinates":[75.0695648,12.8450718]}},{"type":"Feature","properties":{"state":"Karnataka","district":26,"district_n":"DAKSHINA KANNADA","pc":17,"pc_name":"Dakshina Kannada","ac":205,"ac_name":"Bantval","booth":166,"booth_name":"St Antony Aided Higher Primary School Amtoor"},"geometry":{"type":"Point","coordinates":[75.04533,12.8431234]}},{"type":"Feature","properties":{"state":"Karnataka","district":26,"district_n":"DAKSHINA KANNADA","pc":17,"pc_name":"Dakshina Kannada","ac":205,"ac_name":"Bantval","booth":167,"booth_name":"St Antony Aided Higher Primary School"},"geometry":{"type":"Point","coordinates":[75.0453644,12.8429556]}},{"type":"Feature","properties":{"state":"Karnataka","district":26,"district_n":"DAKSHINA KANNADA","pc":17,"pc_name":"Dakshina Kannada","ac":205,"ac_name":"Bantval","booth":169,"booth_name":"Dakshina Kannada Zilla Panchayath Higher Primary School Karaje"},"geometry":{"type":"Point","coordinates":[75.03147,12.8534269]}},{"type":"Feature","properties":{"state":"Karnataka","district":26,"district_n":"DAKSHINA KANNADA","pc":17,"pc_name":"Dakshina Kannada","ac":205,"ac_name":"Bantval","booth":175,"booth_name":"Grama Panchayath Office Manchi [east Wing ]"},"geometry":{"type":"Point","coordinates":[75.01877,12.8281336]}},{"type":"Feature","properties":{"state":"Karnataka","district":26,"district_n":"DAKSHINA KANNADA","pc":17,"pc_name":"Dakshina Kannada","ac":205,"ac_name":"Bantval","booth":181,"booth_name":"Dakshina Kannada Zilla Panchayath Higher Primary School Kajje Manchi"},"geometry":{"type":"Point","coordinates":[75.03214,12.82708]}},{"type":"Feature","properties":{"state":"Karnataka","district":26,"district_n":"DAKSHINA KANNADA","pc":17,"pc_name":"Dakshina Kannada","ac":205,"ac_name":"Bantval","booth":74,"booth_name":"Kalai Chandra Mouli Aided Higher Primary School, Kavalamuduru (east Wing )"},"geometry":{"type":"Point","coordinates":[75.14357,12.9141693]}},{"type":"Feature","properties":{"state":"Karnataka","district":26,"district_n":"DAKSHINA KANNADA","pc":17,"pc_name":"Dakshina Kannada","ac":205,"ac_name":"Bantval","booth":123,"booth_name":"Jaranda Gudde Anganavadi Centre Brahmarakootlu"},"geometry":{"type":"Point","coordinates":[75.0040741,12.876236]}},{"type":"Feature","properties":{"state":"Karnataka","district":26,"district_n":"DAKSHINA KANNADA","pc":17,"pc_name":"Dakshina Kannada","ac":205,"ac_name":"Bantval","booth":124,"booth_name":"Dakshina Kannada Zilla Panchayath Model Higher Primary School,brammarakottlu"},"geometry":{"type":"Point","coordinates":[75.00425,12.8760643]}},{"type":"Feature","properties":{"state":"Karnataka","district":26,"district_n":"DAKSHINA KANNADA","pc":17,"pc_name":"Dakshina Kannada","ac":205,"ac_name":"Bantval","booth":126,"booth_name":"Dakshina Kannada zilla Panchayath Higher Primary School Nandavara"},"geometry":{"type":"Point","coordinates":[75.03925,12.8653364]}},{"type":"Feature","properties":{"state":"Karnataka","district":26,"district_n":"DAKSHINA KANNADA","pc":17,"pc_name":"Dakshina Kannada","ac":205,"ac_name":"Bantval","booth":143,"booth_name":"Grama Panchayath Office Baltila"},"geometry":{"type":"Point","coordinates":[75.09602,12.8416281]}},{"type":"Feature","properties":{"state":"Karnataka","district":26,"district_n":"DAKSHINA KANNADA","pc":17,"pc_name":"Dakshina Kannada","ac":205,"ac_name":"Bantval","booth":144,"booth_name":"Dakshina Kannada Zilla Panchayath Lower Primary School Kantika, Balthila,"},"geometry":{"type":"Point","coordinates":[75.0811844,12.8519478]}},{"type":"Feature","properties":{"state":"Karnataka","district":26,"district_n":"DAKSHINA KANNADA","pc":17,"pc_name":"Dakshina Kannada","ac":205,"ac_name":"Bantval","booth":146,"booth_name":"Dakshina Kannada Zilla Panchayath Higher Primary School Barimaru"},"geometry":{"type":"Point","coordinates":[75.12694,12.8499]}},{"type":"Feature","properties":{"state":"Karnataka","district":26,"district_n":"DAKSHINA KANNADA","pc":17,"pc_name":"Dakshina Kannada","ac":205,"ac_name":"Bantval","booth":161,"booth_name":"Dakshina Kannada Zilla Panchayath Model Higher Primary School"},"geometry":{"type":"Point","coordinates":[75.06931,12.8448658]}},{"type":"Feature","properties":{"state":"Karnataka","district":26,"district_n":"DAKSHINA KANNADA","pc":17,"pc_name":"Dakshina Kannada","ac":205,"ac_name":"Bantval","booth":163,"booth_name":"Dakshina Kannada Zilla Panchayath Model Higher Primary School"},"geometry":{"type":"Point","coordinates":[75.0692139,12.8449669]}},{"type":"Feature","properties":{"state":"Karnataka","district":26,"district_n":"DAKSHINA KANNADA","pc":17,"pc_name":"Dakshina Kannada","ac":205,"ac_name":"Bantval","booth":164,"booth_name":"Grama Panchayath Office Golthamajalu"},"geometry":{"type":"Point","coordinates":[75.0702057,12.8449478]}},{"type":"Feature","properties":{"state":"Karnataka","district":26,"district_n":"DAKSHINA KANNADA","pc":17,"pc_name":"Dakshina Kannada","ac":205,"ac_name":"Bantval","booth":172,"booth_name":"Dakshina Kannada Zilla Panchayath Higher Primary School Subhash Nagar Sajipa Muda"},"geometry":{"type":"Point","coordinates":[75.01681,12.8535929]}},{"type":"Feature","properties":{"state":"Karnataka","district":26,"district_n":"DAKSHINA KANNADA","pc":17,"pc_name":"Dakshina Kannada","ac":205,"ac_name":"Bantval","booth":183,"booth_name":"Dakshina Kannada Zilla Panchayath Higher Primary School Bolanthuru [south [south Wing ]"},"geometry":{"type":"Point","coordinates":[75.0564957,12.8146725]}},{"type":"Feature","properties":{"state":"Karnataka","district":26,"district_n":"DAKSHINA KANNADA","pc":17,"pc_name":"Dakshina Kannada","ac":205,"ac_name":"Bantval","booth":187,"booth_name":"Dakshina Kannada Zilla Panchayath Higher Primary School School Maji Veerakamba[south Wing ]"},"geometry":{"type":"Point","coordinates":[75.0828247,12.8151684]}},{"type":"Feature","properties":{"state":"Karnataka","district":26,"district_n":"DAKSHINA KANNADA","pc":17,"pc_name":"Dakshina Kannada","ac":205,"ac_name":"Bantval","booth":132,"booth_name":"Sri Venkatramana Swamy Higher Primary School Panemangalore"},"geometry":{"type":"Point","coordinates":[75.04802,12.8712511]}},{"type":"Feature","properties":{"state":"Karnataka","district":26,"district_n":"DAKSHINA KANNADA","pc":17,"pc_name":"Dakshina Kannada","ac":205,"ac_name":"Bantval","booth":135,"booth_name":"Dakshina Kannada Zilla Panchayath Higher Primary School, Bolangady,panemangalore"},"geometry":{"type":"Point","coordinates":[75.0578461,12.8580446]}},{"type":"Feature","properties":{"state":"Karnataka","district":26,"district_n":"DAKSHINA KANNADA","pc":17,"pc_name":"Dakshina Kannada","ac":205,"ac_name":"Bantval","booth":137,"booth_name":"Dakshina Kannada Zilla Panchayath Lower Primary School Panemangalore Tyagaraja Road"},"geometry":{"type":"Point","coordinates":[75.04425,12.8735237]}},{"type":"Feature","properties":{"state":"Karnataka","district":26,"district_n":"DAKSHINA KANNADA","pc":17,"pc_name":"Dakshina Kannada","ac":205,"ac_name":"Bantval","booth":152,"booth_name":"Dakshina Kannada Zilla Panchayath Model Higher Primary School Kadeshwalya"},"geometry":{"type":"Point","coordinates":[75.16476,12.8363171]}},{"type":"Feature","properties":{"state":"Karnataka","district":26,"district_n":"DAKSHINA KANNADA","pc":17,"pc_name":"Dakshina Kannada","ac":205,"ac_name":"Bantval","booth":78,"booth_name":"Dakshina Kannada Zilla Panchayath Model Higher Primary School School Madapalke"},"geometry":{"type":"Point","coordinates":[75.18613,12.9169025]}},{"type":"Feature","properties":{"state":"Karnataka","district":26,"district_n":"DAKSHINA KANNADA","pc":17,"pc_name":"Dakshina Kannada","ac":205,"ac_name":"Bantval","booth":81,"booth_name":"Dakshina Kannada Zilla Panchayath Model Higher Primary School, Kakkepadavu, Uli"},"geometry":{"type":"Point","coordinates":[75.17554,12.88895]}},{"type":"Feature","properties":{"state":"Karnataka","district":26,"district_n":"DAKSHINA KANNADA","pc":17,"pc_name":"Dakshina Kannada","ac":205,"ac_name":"Bantval","booth":83,"booth_name":"Dakshina Kannada Zilla Panchayath Modelhigher Primary School, Kakkepadavu"},"geometry":{"type":"Point","coordinates":[75.17552,12.8886585]}},{"type":"Feature","properties":{"state":"Karnataka","district":26,"district_n":"DAKSHINA KANNADA","pc":17,"pc_name":"Dakshina Kannada","ac":205,"ac_name":"Bantval","booth":95,"booth_name":"Saint Jacob Aided Higher Primary School , Pharla , Navoor"},"geometry":{"type":"Point","coordinates":[75.06958,12.901042]}},{"type":"Feature","properties":{"state":"Karnataka","district":26,"district_n":"DAKSHINA KANNADA","pc":17,"pc_name":"Dakshina Kannada","ac":205,"ac_name":"Bantval","booth":184,"booth_name":"Dakshina Kannada Zilla Panchayath Higher Primary School Bolanthur [west Wing ]"},"geometry":{"type":"Point","coordinates":[75.05634,12.8147268]}},{"type":"Feature","properties":{"state":"Karnataka","district":26,"district_n":"DAKSHINA KANNADA","pc":17,"pc_name":"Dakshina Kannada","ac":205,"ac_name":"Bantval","booth":186,"booth_name":"Dakshina Kannada Zilla Panchayath Higher Primary School Maji Veerakambha [north Wing ]"},"geometry":{"type":"Point","coordinates":[75.0829239,12.8154755]}},{"type":"Feature","properties":{"state":"Karnataka","district":26,"district_n":"DAKSHINA KANNADA","pc":17,"pc_name":"Dakshina Kannada","ac":205,"ac_name":"Bantval","booth":29,"booth_name":"Dakshina Kannada Zilla Panchayath Higher Primary School Koyila"},"geometry":{"type":"Point","coordinates":[75.0406342,12.9683056]}},{"type":"Feature","properties":{"state":"Karnataka","district":26,"district_n":"DAKSHINA KANNADA","pc":17,"pc_name":"Dakshina Kannada","ac":205,"ac_name":"Bantval","booth":54,"booth_name":"D K Z P S S Acharyapalke panji kallu"},"geometry":{"type":"Point","coordinates":[75.0625458,12.9342422]}},{"type":"Feature","properties":{"state":"Karnataka","district":26,"district_n":"DAKSHINA KANNADA","pc":17,"pc_name":"Dakshina Kannada","ac":205,"ac_name":"Bantval","booth":69,"booth_name":"Saint Thomas Aided Higher Primary School , Kavalapaduru (west Wing )"},"geometry":{"type":"Point","coordinates":[75.10753,12.9225416]}},{"type":"Feature","properties":{"state":"Karnataka","district":26,"district_n":"DAKSHINA KANNADA","pc":17,"pc_name":"Dakshina Kannada","ac":205,"ac_name":"Bantval","booth":72,"booth_name":"Dakshina Kannada Zilla Panchayath Composite Higher Higher School, Kavalamuduru"},"geometry":{"type":"Point","coordinates":[75.13769,12.9348326]}},{"type":"Feature","properties":{"state":"Karnataka","district":26,"district_n":"DAKSHINA KANNADA","pc":17,"pc_name":"Dakshina Kannada","ac":205,"ac_name":"Bantval","booth":75,"booth_name":"Kalayi Chandramouli Aided Higher Primary School , Kavalamuduru (west wing )"},"geometry":{"type":"Point","coordinates":[75.1435242,12.9141769]}},{"type":"Feature","properties":{"state":"Karnataka","district":26,"district_n":"DAKSHINA KANNADA","pc":17,"pc_name":"Dakshina Kannada","ac":205,"ac_name":"Bantval","booth":77,"booth_name":"Dakshina Kannada Zilla Panchayath Higher Primary Schol Pandavarakallu"},"geometry":{"type":"Point","coordinates":[75.18593,12.9170237]}},{"type":"Feature","properties":{"state":"Karnataka","district":26,"district_n":"DAKSHINA KANNADA","pc":17,"pc_name":"Dakshina Kannada","ac":205,"ac_name":"Bantval","booth":20,"booth_name":"Dakshina Kannada Zilla Panchayath Higher Primary School Mudupadkodi (west Wing)"},"geometry":{"type":"Point","coordinates":[75.126564,12.95263]}},{"type":"Feature","properties":{"state":"Karnataka","district":26,"district_n":"DAKSHINA KANNADA","pc":17,"pc_name":"Dakshina Kannada","ac":205,"ac_name":"Bantval","booth":39,"booth_name":"St St Dominic Lower Primary School, Kariyangala"},"geometry":{"type":"Point","coordinates":[74.9774246,12.9266739]}},{"type":"Feature","properties":{"state":"Karnataka","district":26,"district_n":"DAKSHINA KANNADA","pc":17,"pc_name":"Dakshina Kannada","ac":205,"ac_name":"Bantval","booth":28,"booth_name":"Dakshina Kannada Zilla Panchayath Higher Primary School Koyila"},"geometry":{"type":"Point","coordinates":[75.04052,12.9684134]}},{"type":"Feature","properties":{"state":"Karnataka","district":26,"district_n":"DAKSHINA KANNADA","pc":17,"pc_name":"Dakshina Kannada","ac":205,"ac_name":"Bantval","booth":45,"booth_name":"St Maichel Higher Primary School,thenkabellur"},"geometry":{"type":"Point","coordinates":[74.98697,12.9209032]}},{"type":"Feature","properties":{"state":"Karnataka","district":26,"district_n":"DAKSHINA KANNADA","pc":17,"pc_name":"Dakshina Kannada","ac":205,"ac_name":"Bantval","booth":31,"booth_name":"Old Panchayath Building Arala"},"geometry":{"type":"Point","coordinates":[75.01557,12.9525509]}},{"type":"Feature","properties":{"state":"Karnataka","district":26,"district_n":"DAKSHINA KANNADA","pc":17,"pc_name":"Dakshina Kannada","ac":205,"ac_name":"Bantval","booth":155,"booth_name":"Dakshina Kannada Zilla Panchayath Model Higher Primary School Peraje"},"geometry":{"type":"Point","coordinates":[75.14178,12.8290348]}},{"type":"Feature","properties":{"state":"Karnataka","district":26,"district_n":"DAKSHINA KANNADA","pc":17,"pc_name":"Dakshina Kannada","ac":205,"ac_name":"Bantval","booth":178,"booth_name":"Government Composite High School School Kukkaje Manchi [south Wing ]"},"geometry":{"type":"Point","coordinates":[75.01895,12.8262348]}},{"type":"Feature","properties":{"state":"Karnataka","district":26,"district_n":"DAKSHINA KANNADA","pc":17,"pc_name":"Dakshina Kannada","ac":205,"ac_name":"Bantval","booth":134,"booth_name":"Sri Sharada High School,panemangalore"},"geometry":{"type":"Point","coordinates":[75.04432,12.8695726]}},{"type":"Feature","properties":{"state":"Karnataka","district":26,"district_n":"DAKSHINA KANNADA","pc":17,"pc_name":"Dakshina Kannada","ac":205,"ac_name":"Bantval","booth":177,"booth_name":"Government Composite High School Kukkaje Kukkaje Manchi (middle Wing)"},"geometry":{"type":"Point","coordinates":[75.01886,12.8261757]}},{"type":"Feature","properties":{"state":"Karnataka","district":26,"district_n":"DAKSHINA KANNADA","pc":17,"pc_name":"Dakshina Kannada","ac":205,"ac_name":"Bantval","booth":125,"booth_name":"Dakshina Kannada zilla Panchayath Higher Primary School Nandavara"},"geometry":{"type":"Point","coordinates":[75.03948,12.8652782]}},{"type":"Feature","properties":{"state":"Karnataka","district":26,"district_n":"DAKSHINA KANNADA","pc":17,"pc_name":"Dakshina Kannada","ac":205,"ac_name":"Bantval","booth":162,"booth_name":"Dakshina Kannada Zilla Panchayath Model Higher Primary School"},"geometry":{"type":"Point","coordinates":[75.0692,12.8448982]}},{"type":"Feature","properties":{"state":"Karnataka","district":26,"district_n":"DAKSHINA KANNADA","pc":17,"pc_name":"Dakshina Kannada","ac":205,"ac_name":"Bantval","booth":142,"booth_name":"Dakshina Kannada Zilla Panchayath Higher Primary School School Neerapade Baltila"},"geometry":{"type":"Point","coordinates":[75.10198,12.8582954]}},{"type":"Feature","properties":{"state":"Karnataka","district":26,"district_n":"DAKSHINA KANNADA","pc":17,"pc_name":"Dakshina Kannada","ac":205,"ac_name":"Bantval","booth":151,"booth_name":"Dakshina Kannada Zilla Panchayath Model Higher Primary School Kadeshwalya"},"geometry":{"type":"Point","coordinates":[75.16477,12.8364029]}},{"type":"Feature","properties":{"state":"Karnataka","district":26,"district_n":"DAKSHINA KANNADA","pc":17,"pc_name":"Dakshina Kannada","ac":205,"ac_name":"Bantval","booth":188,"booth_name":"Dakshina Kannada Zilla Panchayath Higher Primary School Kelinja"},"geometry":{"type":"Point","coordinates":[75.09039,12.8042974]}},{"type":"Feature","properties":{"state":"Karnataka","district":26,"district_n":"DAKSHINA KANNADA","pc":17,"pc_name":"Dakshina Kannada","ac":205,"ac_name":"Bantval","booth":91,"booth_name":"Dakshina Kanada Zilla Panchayath Composite High School School Sarapady"},"geometry":{"type":"Point","coordinates":[75.13605,12.8700323]}},{"type":"Feature","properties":{"state":"Karnataka","district":26,"district_n":"DAKSHINA KANNADA","pc":17,"pc_name":"Dakshina Kannada","ac":205,"ac_name":"Bantval","booth":171,"booth_name":"Dakshina kannada Zilla Panchayath Higher Primary School School Subhash Nagar Sajipa Muda"},"geometry":{"type":"Point","coordinates":[75.0167847,12.8544674]}},{"type":"Feature","properties":{"state":"Karnataka","district":26,"district_n":"DAKSHINA KANNADA","pc":17,"pc_name":"Dakshina Kannada","ac":205,"ac_name":"Bantval","booth":82,"booth_name":"Dakshina Kannada Zilla Panchayath Model Higher Primary School, Kakkepadavu, Uli"},"geometry":{"type":"Point","coordinates":[75.1753,12.88868]}},{"type":"Feature","properties":{"state":"Karnataka","district":26,"district_n":"DAKSHINA KANNADA","pc":17,"pc_name":"Dakshina Kannada","ac":205,"ac_name":"Bantval","booth":85,"booth_name":"Govt P U College (ujjrandipalke)"},"geometry":{"type":"Point","coordinates":[75.1459,12.88994]}},{"type":"Feature","properties":{"state":"Karnataka","district":26,"district_n":"DAKSHINA KANNADA","pc":17,"pc_name":"Dakshina Kannada","ac":205,"ac_name":"Bantval","booth":79,"booth_name":"Dakshina Kannada Zilla Panchayath Model Higher Primary School Karla"},"geometry":{"type":"Point","coordinates":[75.18579,12.9019156]}},{"type":"Feature","properties":{"state":"Karnataka","district":26,"district_n":"DAKSHINA KANNADA","pc":17,"pc_name":"Dakshina Kannada","ac":205,"ac_name":"Bantval","booth":131,"booth_name":"Dakshina Kannda Zilla Panchayath Higher Primary School Aladi, Aladi Sajipamunnuru"},"geometry":{"type":"Point","coordinates":[75.01054,12.8669882]}},{"type":"Feature","properties":{"state":"Karnataka","district":26,"district_n":"DAKSHINA KANNADA","pc":17,"pc_name":"Dakshina Kannada","ac":205,"ac_name":"Bantval","booth":168,"booth_name":"St Antony Aided Higher Primary School"},"geometry":{"type":"Point","coordinates":[75.0452652,12.8428831]}},{"type":"Feature","properties":{"state":"Karnataka","district":26,"district_n":"DAKSHINA KANNADA","pc":17,"pc_name":"Dakshina Kannada","ac":205,"ac_name":"Bantval","booth":14,"booth_name":"Dakshina Kannada Zilla Panchayath Higher Primary Primary School School Chenaithody (east Wing)"},"geometry":{"type":"Point","coordinates":[75.09595,12.9616957]}},{"type":"Feature","properties":{"state":"Karnataka","district":26,"district_n":"DAKSHINA KANNADA","pc":17,"pc_name":"Dakshina Kannada","ac":205,"ac_name":"Bantval","booth":13,"booth_name":"Government Pre Univercity College,vamadapadavu, (east Wing)"},"geometry":{"type":"Point","coordinates":[75.0967,12.96438]}},{"type":"Feature","properties":{"state":"Karnataka","district":26,"district_n":"DAKSHINA KANNADA","pc":17,"pc_name":"Dakshina Kannada","ac":205,"ac_name":"Bantval","booth":48,"booth_name":"Dakshina Kannada Zilla Panchayath Higher Primary School Kinnibettu"},"geometry":{"type":"Point","coordinates":[75.02715,12.9071989]}},{"type":"Feature","properties":{"state":"Karnataka","district":26,"district_n":"DAKSHINA KANNADA","pc":17,"pc_name":"Dakshina Kannada","ac":205,"ac_name":"Bantval","booth":59,"booth_name":"Agrar Church Aided Higher Primary School School , Agrar (west Wing )"},"geometry":{"type":"Point","coordinates":[75.0528641,12.9137306]}},{"type":"Feature","properties":{"state":"Karnataka","district":26,"district_n":"DAKSHINA KANNADA","pc":17,"pc_name":"Dakshina Kannada","ac":205,"ac_name":"Bantval","booth":65,"booth_name":"Dakshina Kannada Zilla Panchayat Higher Primary School Daddalakadu"},"geometry":{"type":"Point","coordinates":[75.07161,12.9165945]}},{"type":"Feature","properties":{"state":"Karnataka","district":26,"district_n":"DAKSHINA KANNADA","pc":17,"pc_name":"Dakshina Kannada","ac":205,"ac_name":"Bantval","booth":68,"booth_name":"Dakshina kannada Zilla Panchayath Higher Primary School , Madwa , Kavalapaduru"},"geometry":{"type":"Point","coordinates":[75.12136,12.9299383]}},{"type":"Feature","properties":{"state":"Karnataka","district":26,"district_n":"DAKSHINA KANNADA","pc":17,"pc_name":"Dakshina Kannada","ac":205,"ac_name":"Bantval","booth":19,"booth_name":"Saint Joseph Aided Higher Primary School Nainadu,pilathabettu"},"geometry":{"type":"Point","coordinates":[75.15102,12.9716425]}},{"type":"Feature","properties":{"state":"Karnataka","district":26,"district_n":"DAKSHINA KANNADA","pc":17,"pc_name":"Dakshina Kannada","ac":205,"ac_name":"Bantval","booth":25,"booth_name":"Dakshina Kannada Zilla Panchayath Higher Primary Primary School, Pilimogru"},"geometry":{"type":"Point","coordinates":[75.08539,12.9465923]}},{"type":"Feature","properties":{"state":"Karnataka","district":26,"district_n":"DAKSHINA KANNADA","pc":17,"pc_name":"Dakshina Kannada","ac":205,"ac_name":"Bantval","booth":53,"booth_name":"Saint Androw Aided Higher Primary School"},"geometry":{"type":"Point","coordinates":[75.03854,12.93691]}},{"type":"Feature","properties":{"state":"Karnataka","district":26,"district_n":"DAKSHINA KANNADA","pc":17,"pc_name":"Dakshina Kannada","ac":205,"ac_name":"Bantval","booth":46,"booth_name":"Aided Higher Primary School Kuriyala"},"geometry":{"type":"Point","coordinates":[75.0104752,12.9292469]}},{"type":"Feature","properties":{"state":"Karnataka","district":26,"district_n":"DAKSHINA KANNADA","pc":17,"pc_name":"Dakshina Kannada","ac":205,"ac_name":"Bantval","booth":2,"booth_name":"Community Hall (samaja Mandira), Karpe"},"geometry":{"type":"Point","coordinates":[75.0179749,12.9799538]}},{"type":"Feature","properties":{"state":"Karnataka","district":26,"district_n":"DAKSHINA KANNADA","pc":17,"pc_name":"Dakshina Kannada","ac":205,"ac_name":"Bantval","booth":8,"booth_name":"St Barthalomiyo Aided Higher Primary School"},"geometry":{"type":"Point","coordinates":[75.06891,12.9740276]}},{"type":"Feature","properties":{"state":"Karnataka","district":26,"district_n":"DAKSHINA KANNADA","pc":17,"pc_name":"Dakshina Kannada","ac":205,"ac_name":"Bantval","booth":47,"booth_name":"Aided Higher Primary School, Kuriyala"},"geometry":{"type":"Point","coordinates":[75.01045,12.9292727]}},{"type":"Feature","properties":{"state":"Karnataka","district":26,"district_n":"DAKSHINA KANNADA","pc":17,"pc_name":"Dakshina Kannada","ac":205,"ac_name":"Bantval","booth":88,"booth_name":"Dakshina Kannada Zilla Panchayath Higher Primary School School Mavinakatte"},"geometry":{"type":"Point","coordinates":[75.14408,12.8798676]}},{"type":"Feature","properties":{"state":"Karnataka","district":26,"district_n":"DAKSHINA KANNADA","pc":17,"pc_name":"Dakshina Kannada","ac":205,"ac_name":"Bantval","booth":94,"booth_name":"Dakshina Kannada Zilla Panchayath Lower primary School , Devashyapaduru"},"geometry":{"type":"Point","coordinates":[75.1096,12.9019537]}},{"type":"Feature","properties":{"state":"Karnataka","district":26,"district_n":"DAKSHINA KANNADA","pc":17,"pc_name":"Dakshina Kannada","ac":205,"ac_name":"Bantval","booth":105,"booth_name":"Grama Panchyath Office,naricombu"},"geometry":{"type":"Point","coordinates":[75.0595,12.8767424]}},{"type":"Feature","properties":{"state":"Karnataka","district":26,"district_n":"DAKSHINA KANNADA","pc":17,"pc_name":"Dakshina Kannada","ac":205,"ac_name":"Bantval","booth":122,"booth_name":"D K Z P M Higher Primary School,brammura Kallige"},"geometry":{"type":"Point","coordinates":[75.0039139,12.8763971]}},{"type":"Feature","properties":{"state":"Karnataka","district":26,"district_n":"DAKSHINA KANNADA","pc":17,"pc_name":"Dakshina Kannada","ac":205,"ac_name":"Bantval","booth":128,"booth_name":"D K J P H P High School Nandavar (middle wing)"},"geometry":{"type":"Point","coordinates":[75.03921,12.8655071]}},{"type":"Feature","properties":{"state":"Karnataka","district":26,"district_n":"DAKSHINA KANNADA","pc":17,"pc_name":"Dakshina Kannada","ac":205,"ac_name":"Bantval","booth":102,"booth_name":"Dakshina Kannada Zilla Panchayath Higher Primary School,bolanthur"},"geometry":{"type":"Point","coordinates":[75.05724,12.8882952]}},{"type":"Feature","properties":{"state":"Karnataka","district":26,"district_n":"DAKSHINA KANNADA","pc":17,"pc_name":"Dakshina Kannada","ac":205,"ac_name":"Bantval","booth":108,"booth_name":"Deepika High School B Muda,modamkapu (north Wing)"},"geometry":{"type":"Point","coordinates":[75.0178,12.8866682]}},{"type":"Feature","properties":{"state":"Karnataka","district":26,"district_n":"DAKSHINA KANNADA","pc":17,"pc_name":"Dakshina Kannada","ac":205,"ac_name":"Bantval","booth":145,"booth_name":"Dakshina Kannada Zilla Panchayath Higher Primary School Barimaru"},"geometry":{"type":"Point","coordinates":[75.12687,12.8498859]}},{"type":"Feature","properties":{"state":"Karnataka","district":26,"district_n":"DAKSHINA KANNADA","pc":17,"pc_name":"Dakshina Kannada","ac":205,"ac_name":"Bantval","booth":148,"booth_name":"Dakshina Kannada Zilla Panchayath Higher Primary School Shera Kadeshwalya"},"geometry":{"type":"Point","coordinates":[75.1435242,12.8443394]}},{"type":"Feature","properties":{"state":"Karnataka","district":26,"district_n":"DAKSHINA KANNADA","pc":17,"pc_name":"Dakshina Kannada","ac":205,"ac_name":"Bantval","booth":3,"booth_name":"Dakshina Kannada Zilla Panchyath Higher Primary School Kerebali"},"geometry":{"type":"Point","coordinates":[75.04283,13.00975]}},{"type":"Feature","properties":{"state":"Karnataka","district":26,"district_n":"DAKSHINA KANNADA","pc":17,"pc_name":"Dakshina Kannada","ac":205,"ac_name":"Bantval","booth":52,"booth_name":"Dakshina Kannada Zilla Panchayath Higher Primary School School Nalkemaru"},"geometry":{"type":"Point","coordinates":[75.01882,12.899333]}},{"type":"Feature","properties":{"state":"Karnataka","district":26,"district_n":"DAKSHINA KANNADA","pc":17,"pc_name":"Dakshina Kannada","ac":205,"ac_name":"Bantval","booth":6,"booth_name":"St Patrrick Aided Higher Primary School Siddakatte(south Wing)"},"geometry":{"type":"Point","coordinates":[75.04939,12.9933186]}},{"type":"Feature","properties":{"state":"Karnataka","district":26,"district_n":"DAKSHINA KANNADA","pc":17,"pc_name":"Dakshina Kannada","ac":205,"ac_name":"Bantval","booth":17,"booth_name":"Dakshina Kannada Zilla Panchayath Hihger Primary School Moorje Pilathabettu(west Wing)"},"geometry":{"type":"Point","coordinates":[75.15436,12.9441633]}},{"type":"Feature","properties":{"state":"Karnataka","district":26,"district_n":"DAKSHINA KANNADA","pc":17,"pc_name":"Dakshina Kannada","ac":205,"ac_name":"Bantval","booth":23,"booth_name":"Dakshina Kannada Zilla Panchayath Panchayath Lower Primary School School Kudambettu"},"geometry":{"type":"Point","coordinates":[75.1087341,12.9518337]}},{"type":"Feature","properties":{"state":"Karnataka","district":26,"district_n":"DAKSHINA KANNADA","pc":17,"pc_name":"Dakshina Kannada","ac":205,"ac_name":"Bantval","booth":22,"booth_name":"Dakshina Kannada Zilla Panchayath Higher Primary School Mudapadukodi"},"geometry":{"type":"Point","coordinates":[75.12645,12.95279]}},{"type":"Feature","properties":{"state":"Karnataka","district":26,"district_n":"DAKSHINA KANNADA","pc":17,"pc_name":"Dakshina Kannada","ac":205,"ac_name":"Bantval","booth":11,"booth_name":"Dakshina Kannada Zilla Panchayath Higher Primary School Yeliyanadugodu (south Wing)"},"geometry":{"type":"Point","coordinates":[75.07281,12.9947433]}},{"type":"Feature","properties":{"state":"Karnataka","district":26,"district_n":"DAKSHINA KANNADA","pc":17,"pc_name":"Dakshina Kannada","ac":205,"ac_name":"Bantval","booth":51,"booth_name":"Dakshina Kannada Zilla Panchayath Higher Primary School School Nalkemaru"},"geometry":{"type":"Point","coordinates":[75.01917,12.8992233]}},{"type":"Feature","properties":{"state":"Karnataka","district":26,"district_n":"DAKSHINA KANNADA","pc":17,"pc_name":"Dakshina Kannada","ac":205,"ac_name":"Bantval","booth":92,"booth_name":"Saint John Aided Higher Primary School Allipade"},"geometry":{"type":"Point","coordinates":[75.10726,12.889493]}},{"type":"Feature","properties":{"state":"Karnataka","district":26,"district_n":"DAKSHINA KANNADA","pc":17,"pc_name":"Dakshina Kannada","ac":205,"ac_name":"Bantval","booth":112,"booth_name":"Dakshina Kannada Zilla Panchyath Higher Primary School,kodamge, B Muda"},"geometry":{"type":"Point","coordinates":[75.02492,12.8770657]}},{"type":"Feature","properties":{"state":"Karnataka","district":26,"district_n":"DAKSHINA KANNADA","pc":17,"pc_name":"Dakshina Kannada","ac":205,"ac_name":"Bantval","booth":115,"booth_name":"Carmel Composite Pre University College,rajatha reke Modamkapu(south wing)"},"geometry":{"type":"Point","coordinates":[75.02009,12.8853645]}},{"type":"Feature","properties":{"state":"Karnataka","district":26,"district_n":"DAKSHINA KANNADA","pc":17,"pc_name":"Dakshina Kannada","ac":205,"ac_name":"Bantval","booth":71,"booth_name":"Dakshina Kannada Zilla Panchayath Higher Primary School Mavinakatte"},"geometry":{"type":"Point","coordinates":[75.10776,12.9223557]}},{"type":"Feature","properties":{"state":"Karnataka","district":26,"district_n":"DAKSHINA KANNADA","pc":17,"pc_name":"Dakshina Kannada","ac":205,"ac_name":"Bantval","booth":111,"booth_name":"D K Z P H S Kodamge B Muda"},"geometry":{"type":"Point","coordinates":[75.02476,12.8773079]}},{"type":"Feature","properties":{"state":"Karnataka","district":26,"district_n":"DAKSHINA KANNADA","pc":17,"pc_name":"Dakshina Kannada","ac":205,"ac_name":"Bantval","booth":185,"booth_name":"Dakshina Kannada Zilla Panchayath Higher Primary School Bolanthur [west Wing ]"},"geometry":{"type":"Point","coordinates":[75.05625,12.8146238]}},{"type":"Feature","properties":{"state":"Karnataka","district":26,"district_n":"DAKSHINA KANNADA","pc":17,"pc_name":"Dakshina Kannada","ac":205,"ac_name":"Bantval","booth":114,"booth_name":"Carmel Composite Pre Univercity College,rajatha Reke Modamkapu (north Wing)"},"geometry":{"type":"Point","coordinates":[75.02,12.8852892]}},{"type":"Feature","properties":{"state":"Karnataka","district":26,"district_n":"DAKSHINA KANNADA","pc":17,"pc_name":"Dakshina Kannada","ac":205,"ac_name":"Bantval","booth":30,"booth_name":"Old Panchayath Building Arala"},"geometry":{"type":"Point","coordinates":[75.01873,12.9540043]}},{"type":"Feature","properties":{"state":"Karnataka","district":26,"district_n":"DAKSHINA KANNADA","pc":17,"pc_name":"Dakshina Kannada","ac":205,"ac_name":"Bantval","booth":96,"booth_name":"Saint Jacob Aided Higher Primary School , Pharla , Navoor"},"geometry":{"type":"Point","coordinates":[75.07829,12.8946657]}},{"type":"Feature","properties":{"state":"Karnataka","district":26,"district_n":"DAKSHINA KANNADA","pc":17,"pc_name":"Dakshina Kannada","ac":205,"ac_name":"Bantval","booth":7,"booth_name":"St Patrick Aided Higher Primary School"},"geometry":{"type":"Point","coordinates":[75.04952,12.9926281]}},{"type":"Feature","properties":{"state":"Karnataka","district":26,"district_n":"DAKSHINA KANNADA","pc":17,"pc_name":"Dakshina Kannada","ac":205,"ac_name":"Bantval","booth":67,"booth_name":"Dakshina Kannada Zilla Panchayath Model Higher Primary School, Kadabettu"},"geometry":{"type":"Point","coordinates":[75.09946,12.92844]}},{"type":"Feature","properties":{"state":"Karnataka","district":26,"district_n":"DAKSHINA KANNADA","pc":17,"pc_name":"Dakshina Kannada","ac":205,"ac_name":"Bantval","booth":33,"booth_name":"Sri Chndranatha Swamy Aided Higher Primary School Chatra"},"geometry":{"type":"Point","coordinates":[75.01154,12.94068]}},{"type":"Feature","properties":{"state":"Karnataka","district":26,"district_n":"DAKSHINA KANNADA","pc":17,"pc_name":"Dakshina Kannada","ac":205,"ac_name":"Bantval","booth":24,"booth_name":"Dakshina Kannada Zilla Panchayath Panchayath Lower Primary School School Kudambettu"},"geometry":{"type":"Point","coordinates":[75.1089,12.9518175]}},{"type":"Feature","properties":{"state":"Karnataka","district":26,"district_n":"DAKSHINA KANNADA","pc":17,"pc_name":"Dakshina Kannada","ac":205,"ac_name":"Bantval","booth":27,"booth_name":"Dakshina Kannada Zilla Panchayath Model Higher Primary School Koyila"},"geometry":{"type":"Point","coordinates":[75.0404358,12.952034]}},{"type":"Feature","properties":{"state":"Karnataka","district":26,"district_n":"DAKSHINA KANNADA","pc":17,"pc_name":"Dakshina Kannada","ac":205,"ac_name":"Bantval","booth":36,"booth_name":"Aided Higher Primary School,badagabellur"},"geometry":{"type":"Point","coordinates":[74.9865341,12.93566]}},{"type":"Feature","properties":{"state":"Karnataka","district":26,"district_n":"DAKSHINA KANNADA","pc":17,"pc_name":"Dakshina Kannada","ac":205,"ac_name":"Bantval","booth":44,"booth_name":"Aided Higher Primary School Mandebettu,ammuje"},"geometry":{"type":"Point","coordinates":[74.9696655,12.9168043]}},{"type":"Feature","properties":{"state":"Karnataka","district":26,"district_n":"DAKSHINA KANNADA","pc":17,"pc_name":"Dakshina Kannada","ac":205,"ac_name":"Bantval","booth":50,"booth_name":"Sri Venkatramana Swamy High School Bantwala"},"geometry":{"type":"Point","coordinates":[75.03756,12.8965015]}},{"type":"Feature","properties":{"state":"Karnataka","district":26,"district_n":"DAKSHINA KANNADA","pc":17,"pc_name":"Dakshina Kannada","ac":205,"ac_name":"Bantval","booth":56,"booth_name":"Agrar Church Aided Higher Primary School, Bantwal"},"geometry":{"type":"Point","coordinates":[75.05277,12.9139509]}},{"type":"Feature","properties":{"state":"Karnataka","district":26,"district_n":"DAKSHINA KANNADA","pc":17,"pc_name":"Dakshina Kannada","ac":205,"ac_name":"Bantval","booth":64,"booth_name":"Dakshina Kannada Zilla Panchyath Lower Primary School,kujalabettu, Mudanadugodu"},"geometry":{"type":"Point","coordinates":[75.08042,12.9255295]}},{"type":"Feature","properties":{"state":"Karnataka","district":26,"district_n":"DAKSHINA KANNADA","pc":17,"pc_name":"Dakshina Kannada","ac":205,"ac_name":"Bantval","booth":76,"booth_name":"Dakshina Kannada Zilla Panchayath Model Higher Primary School School Madapalke"},"geometry":{"type":"Point","coordinates":[75.16955,12.919178]}},{"type":"Feature","properties":{"state":"Karnataka","district":26,"district_n":"DAKSHINA KANNADA","pc":17,"pc_name":"Dakshina Kannada","ac":205,"ac_name":"Bantval","booth":113,"booth_name":"D K Z P H S Bantwala Muda (south Wing)"},"geometry":{"type":"Point","coordinates":[75.02631,12.8863535]}},{"type":"Feature","properties":{"state":"Karnataka","district":26,"district_n":"DAKSHINA KANNADA","pc":17,"pc_name":"Dakshina Kannada","ac":205,"ac_name":"Bantval","booth":4,"booth_name":"Government Pre Univercity College Siddakatte"},"geometry":{"type":"Point","coordinates":[75.05544,12.9947805]}},{"type":"Feature","properties":{"state":"Karnataka","district":26,"district_n":"DAKSHINA KANNADA","pc":17,"pc_name":"Dakshina Kannada","ac":205,"ac_name":"Bantval","booth":116,"booth_name":"Govt Pre University College Ajjibettu B Muda"},"geometry":{"type":"Point","coordinates":[75.02618,12.8863335]}},{"type":"Feature","properties":{"state":"Karnataka","district":26,"district_n":"DAKSHINA KANNADA","pc":17,"pc_name":"Dakshina Kannada","ac":205,"ac_name":"Bantval","booth":99,"booth_name":"Dakshina Kannada Zilla Panchayath Higher Primary School, Poopadikatte"},"geometry":{"type":"Point","coordinates":[75.09672,12.8885689]}},{"type":"Feature","properties":{"state":"Karnataka","district":26,"district_n":"DAKSHINA KANNADA","pc":17,"pc_name":"Dakshina Kannada","ac":205,"ac_name":"Bantval","booth":86,"booth_name":"Dakshina Kannada Zilla Panchayath Higher Primary School Mavinakatte"},"geometry":{"type":"Point","coordinates":[75.1442261,12.87989]}},{"type":"Feature","properties":{"state":"Karnataka","district":26,"district_n":"DAKSHINA KANNADA","pc":17,"pc_name":"Dakshina Kannada","ac":205,"ac_name":"Bantval","booth":89,"booth_name":"dakshina kannada kannada Zilla Panchayath Higher Primary School School Devashyamuduru"},"geometry":{"type":"Point","coordinates":[75.13836,12.8935232]}},{"type":"Feature","properties":{"state":"Karnataka","district":26,"district_n":"DAKSHINA KANNADA","pc":17,"pc_name":"Dakshina Kannada","ac":205,"ac_name":"Bantval","booth":100,"booth_name":"Dakshina Kannada Zilla Panchayath Higher Primary School, Poopadikatte"},"geometry":{"type":"Point","coordinates":[75.09652,12.8881159]}},{"type":"Feature","properties":{"state":"Karnataka","district":26,"district_n":"DAKSHINA KANNADA","pc":17,"pc_name":"Dakshina Kannada","ac":205,"ac_name":"Bantval","booth":90,"booth_name":"Dakshina Kanada Zilla Panchayath Composite High School School Sarapady"},"geometry":{"type":"Point","coordinates":[75.13567,12.8702679]}},{"type":"Feature","properties":{"state":"Karnataka","district":26,"district_n":"DAKSHINA KANNADA","pc":17,"pc_name":"Dakshina Kannada","ac":205,"ac_name":"Bantval","booth":154,"booth_name":"Dakshina Kannada Zilla Panchayath Model Higher Primary School Peraje"},"geometry":{"type":"Point","coordinates":[75.14148,12.8292732]}},{"type":"Feature","properties":{"state":"Karnataka","district":26,"district_n":"DAKSHINA KANNADA","pc":17,"pc_name":"Dakshina Kannada","ac":205,"ac_name":"Bantval","booth":165,"booth_name":"Dakshina Kannada Zilla Panchayath Higher Primary School Goltamajalu"},"geometry":{"type":"Point","coordinates":[75.0726547,12.8324366]}},{"type":"Feature","properties":{"state":"Karnataka","district":26,"district_n":"DAKSHINA KANNADA","pc":17,"pc_name":"Dakshina Kannada","ac":205,"ac_name":"Bantval","booth":174,"booth_name":"Aided Higher Primary School Nagri Sajipamuda Grama"},"geometry":{"type":"Point","coordinates":[75.0269,12.8431311]}},{"type":"Feature","properties":{"state":"Karnataka","district":26,"district_n":"DAKSHINA KANNADA","pc":17,"pc_name":"Dakshina Kannada","ac":205,"ac_name":"Bantval","booth":133,"booth_name":"Sri Sharada High School,panemangalore"},"geometry":{"type":"Point","coordinates":[75.04443,12.8696127]}},{"type":"Feature","properties":{"state":"Karnataka","district":26,"district_n":"DAKSHINA KANNADA","pc":17,"pc_name":"Dakshina Kannada","ac":205,"ac_name":"Bantval","booth":107,"booth_name":"Dakshina Kannada Zilla Panchayath Higher Primary School,naricombu"},"geometry":{"type":"Point","coordinates":[75.05675,12.876771]}},{"type":"Feature","properties":{"state":"Karnataka","district":26,"district_n":"DAKSHINA KANNADA","pc":17,"pc_name":"Dakshina Kannada","ac":205,"ac_name":"Bantval","booth":139,"booth_name":"Dakshina Kannada Zilla Panchayath Higher Primary School Shamboor"},"geometry":{"type":"Point","coordinates":[75.08221,12.87269]}},{"type":"Feature","properties":{"state":"Karnataka","district":26,"district_n":"DAKSHINA KANNADA","pc":17,"pc_name":"Dakshina Kannada","ac":205,"ac_name":"Bantval","booth":153,"booth_name":"Dakshina Kannada Zilla Panchayath Model Higher Primary School ,peraje"},"geometry":{"type":"Point","coordinates":[75.14194,12.8289986]}},{"type":"Feature","properties":{"state":"Karnataka","district":26,"district_n":"DAKSHINA KANNADA","pc":17,"pc_name":"Dakshina Kannada","ac":205,"ac_name":"Bantval","booth":170,"booth_name":"Dakshina Kannada Zilla Panchayath Higher Primary School Karaje"},"geometry":{"type":"Point","coordinates":[75.03176,12.8536043]}},{"type":"Feature","properties":{"state":"Karnataka","district":26,"district_n":"DAKSHINA KANNADA","pc":17,"pc_name":"Dakshina Kannada","ac":205,"ac_name":"Bantval","booth":173,"booth_name":"Aided Higher Primary School Nagri"},"geometry":{"type":"Point","coordinates":[75.02685,12.8431654]}},{"type":"Feature","properties":{"state":"Karnataka","district":26,"district_n":"DAKSHINA KANNADA","pc":17,"pc_name":"Dakshina Kannada","ac":205,"ac_name":"Bantval","booth":136,"booth_name":"Dakshina Kannada Zilla Panchayath Higher Primary School, Bolangady,panemangalore"},"geometry":{"type":"Point","coordinates":[75.058,12.858469]}},{"type":"Feature","properties":{"state":"Karnataka","district":26,"district_n":"DAKSHINA KANNADA","pc":17,"pc_name":"Dakshina Kannada","ac":205,"ac_name":"Bantval","booth":176,"booth_name":"Govt Govt High School Kukkaje, Manchi"},"geometry":{"type":"Point","coordinates":[75.01906,12.8285294]}},{"type":"Feature","properties":{"state":"Karnataka","district":26,"district_n":"DAKSHINA KANNADA","pc":17,"pc_name":"Dakshina Kannada","ac":205,"ac_name":"Bantval","booth":110,"booth_name":"D K Z P H P S Pallamajalu B B Muda"},"geometry":{"type":"Point","coordinates":[75.01034,12.88999]}},{"type":"Feature","properties":{"state":"Karnataka","district":26,"district_n":"DAKSHINA KANNADA","pc":17,"pc_name":"Dakshina Kannada","ac":205,"ac_name":"Bantval","booth":119,"booth_name":"Hayathul Islam Private Higher Primary School,goodina Bali"},"geometry":{"type":"Point","coordinates":[75.0390854,12.8756256]}},{"type":"Feature","properties":{"state":"Karnataka","district":26,"district_n":"DAKSHINA KANNADA","pc":17,"pc_name":"Dakshina Kannada","ac":205,"ac_name":"Bantval","booth":159,"booth_name":"Dakshina Kannada Zilla Panchayath Model Higher Primary School ,mani"},"geometry":{"type":"Point","coordinates":[75.12147,12.83633]}},{"type":"Feature","properties":{"state":"Karnataka","district":26,"district_n":"DAKSHINA KANNADA","pc":17,"pc_name":"Dakshina Kannada","ac":205,"ac_name":"Bantval","booth":147,"booth_name":"Dakshina Kannada Zilla Panchayath Higher Primary School Barimaru"},"geometry":{"type":"Point","coordinates":[75.12705,12.8497963]}},{"type":"Feature","properties":{"state":"Karnataka","district":26,"district_n":"DAKSHINA KANNADA","pc":17,"pc_name":"Dakshina Kannada","ac":205,"ac_name":"Bantval","booth":150,"booth_name":"Dakshina Kannada Zilla Panchayath Model Higher Primary School Kadeshwalya"},"geometry":{"type":"Point","coordinates":[75.16479,12.8366089]}},{"type":"Feature","properties":{"state":"Karnataka","district":26,"district_n":"DAKSHINA KANNADA","pc":17,"pc_name":"Dakshina Kannada","ac":205,"ac_name":"Bantval","booth":16,"booth_name":"Dakshina Kannada Zilla Panchayath Higher Primary School School Ajjibettu"},"geometry":{"type":"Point","coordinates":[75.11005,12.9790049]}},{"type":"Feature","properties":{"state":"Karnataka","district":26,"district_n":"DAKSHINA KANNADA","pc":17,"pc_name":"Dakshina Kannada","ac":205,"ac_name":"Bantval","booth":1,"booth_name":"Community Hall"},"geometry":{"type":"Point","coordinates":[75.01796,12.9796963]}},{"type":"Feature","properties":{"state":"Karnataka","district":26,"district_n":"DAKSHINA KANNADA","pc":17,"pc_name":"Dakshina Kannada","ac":205,"ac_name":"Bantval","booth":10,"booth_name":"Dakshina Kannada Zilla Panchayath Lower Primary School Yeliyanadugod (north Wing)"},"geometry":{"type":"Point","coordinates":[75.07285,12.9948969]}},{"type":"Feature","properties":{"state":"Karnataka","district":26,"district_n":"DAKSHINA KANNADA","pc":17,"pc_name":"Dakshina Kannada","ac":205,"ac_name":"Bantval","booth":104,"booth_name":"Dakshina Kannada Zilla Panchayath Higher Primary School,naricombu"},"geometry":{"type":"Point","coordinates":[75.0567,12.8767633]}},{"type":"Feature","properties":{"state":"Karnataka","district":26,"district_n":"DAKSHINA KANNADA","pc":17,"pc_name":"Dakshina Kannada","ac":205,"ac_name":"Bantval","booth":34,"booth_name":"Aided Higher Primary School,badagabelluru"},"geometry":{"type":"Point","coordinates":[74.98665,12.935132]}},{"type":"Feature","properties":{"state":"Karnataka","district":26,"district_n":"DAKSHINA KANNADA","pc":17,"pc_name":"Dakshina Kannada","ac":205,"ac_name":"Bantval","booth":35,"booth_name":"Aided Higher Primary School,badagabelluru"},"geometry":{"type":"Point","coordinates":[74.9865646,12.9352283]}},{"type":"Feature","properties":{"state":"Karnataka","district":26,"district_n":"DAKSHINA KANNADA","pc":17,"pc_name":"Dakshina Kannada","ac":205,"ac_name":"Bantval","booth":41,"booth_name":"Dakshina Kannada Zilla Panchayath Higher Primary School Pallipadi"},"geometry":{"type":"Point","coordinates":[74.9729,12.945796]}},{"type":"Feature","properties":{"state":"Karnataka","district":26,"district_n":"DAKSHINA KANNADA","pc":17,"pc_name":"Dakshina Kannada","ac":205,"ac_name":"Bantval","booth":5,"booth_name":"St Patrick Higher Primary School Siddakatte (north Wing)"},"geometry":{"type":"Point","coordinates":[75.0492,12.9937477]}},{"type":"Feature","properties":{"state":"Karnataka","district":26,"district_n":"DAKSHINA KANNADA","pc":17,"pc_name":"Dakshina Kannada","ac":205,"ac_name":"Bantval","booth":60,"booth_name":"Anganawadi Kendra , Jakribettu"},"geometry":{"type":"Point","coordinates":[75.0544357,12.9019833]}},{"type":"Feature","properties":{"state":"Karnataka","district":26,"district_n":"DAKSHINA KANNADA","pc":17,"pc_name":"Dakshina Kannada","ac":205,"ac_name":"Bantval","booth":180,"booth_name":"Government Composite High School Kukkaje Manchi[east Manchi[east Wing ]"},"geometry":{"type":"Point","coordinates":[75.0188751,12.8261261]}},{"type":"Feature","properties":{"state":"Karnataka","district":26,"district_n":"DAKSHINA KANNADA","pc":17,"pc_name":"Dakshina Kannada","ac":205,"ac_name":"Bantval","booth":62,"booth_name":"Dakshina Kannada Zilla Panchayath Higher Primary School ,bantwal Kasba"},"geometry":{"type":"Point","coordinates":[75.04118,12.8948]}},{"type":"Feature","properties":{"state":"Karnataka","district":26,"district_n":"DAKSHINA KANNADA","pc":17,"pc_name":"Dakshina Kannada","ac":205,"ac_name":"Bantval","booth":70,"booth_name":"Dakshina Kannada Zilla Panchayath Higher Primary School , Madwa , Kavalapaduru (north Wing )"},"geometry":{"type":"Point","coordinates":[75.12123,12.9298172]}},{"type":"Feature","properties":{"state":"Karnataka","district":26,"district_n":"DAKSHINA KANNADA","pc":17,"pc_name":"Dakshina Kannada","ac":205,"ac_name":"Bantval","booth":179,"booth_name":"Government Composite High School Kukkaje Manchi [west Wing ]"},"geometry":{"type":"Point","coordinates":[75.0189,12.8259506]}},{"type":"Feature","properties":{"state":"Karnataka","district":26,"district_n":"DAKSHINA KANNADA","pc":17,"pc_name":"Dakshina Kannada","ac":205,"ac_name":"Bantval","booth":182,"booth_name":"Dakshina Kannada Zilla Panchayath Higher Primary School Bolanthuru [south [south Wing ]"},"geometry":{"type":"Point","coordinates":[75.05653,12.8146629]}},{"type":"Feature","properties":{"state":"Karnataka","district":26,"district_n":"DAKSHINA KANNADA","pc":17,"pc_name":"Dakshina Kannada","ac":205,"ac_name":"Bantval","booth":84,"booth_name":"Dakshina Kannada Zilla Panchayath Higher Primary School , Ulibailu , Uli"},"geometry":{"type":"Point","coordinates":[75.19713,12.8800764]}},{"type":"Feature","properties":{"state":"Karnataka","district":26,"district_n":"DAKSHINA KANNADA","pc":17,"pc_name":"Dakshina Kannada","ac":205,"ac_name":"Bantval","booth":73,"booth_name":"Dakshina Kannada Zilla Panchayath Higher Primary School , Keddalike , Kavalamuduru"},"geometry":{"type":"Point","coordinates":[75.15154,12.928894]}},{"type":"Feature","properties":{"state":"Karnataka","district":26,"district_n":"DAKSHINA KANNADA","pc":17,"pc_name":"Dakshina Kannada","ac":205,"ac_name":"Bantval","booth":130,"booth_name":"Dakshina Kannada Zilla Panchayath Higher Primary School Aladi"},"geometry":{"type":"Point","coordinates":[75.0104,12.8668995]}},{"type":"Feature","properties":{"state":"Karnataka","district":26,"district_n":"DAKSHINA KANNADA","pc":17,"pc_name":"Dakshina Kannada","ac":205,"ac_name":"Bantval","booth":156,"booth_name":"Dakshina Kannada Zilla Panchayath Model Higher Primary School ,mani"},"geometry":{"type":"Point","coordinates":[75.12108,12.8363552]}},{"type":"Feature","properties":{"state":"Karnataka","district":26,"district_n":"DAKSHINA KANNADA","pc":17,"pc_name":"Dakshina Kannada","ac":205,"ac_name":"Bantval","booth":87,"booth_name":"Dakshina Kannada Zilla Panchayath Higher Primary School Mavinakatte"},"geometry":{"type":"Point","coordinates":[75.14422,12.879879]}},{"type":"Feature","properties":{"state":"Karnataka","district":26,"district_n":"DAKSHINA KANNADA","pc":17,"pc_name":"Dakshina Kannada","ac":205,"ac_name":"Bantval","booth":93,"booth_name":"Dakshina Kannada Zilla Panchayath Lower Primary School Periyapade"},"geometry":{"type":"Point","coordinates":[75.12423,12.8857956]}},{"type":"Feature","properties":{"state":"Karnataka","district":26,"district_n":"DAKSHINA KANNADA","pc":17,"pc_name":"Dakshina Kannada","ac":205,"ac_name":"Bantval","booth":127,"booth_name":"D K J P H P High School Nandavar (middle wing)"},"geometry":{"type":"Point","coordinates":[75.03958,12.8655787]}},{"type":"Feature","properties":{"state":"Karnataka","district":26,"district_n":"DAKSHINA KANNADA","pc":17,"pc_name":"Dakshina Kannada","ac":205,"ac_name":"Bantval","booth":38,"booth_name":"Sri Vidhya Vilasa Aided Higher Primary School Polali"},"geometry":{"type":"Point","coordinates":[74.95596,12.9339733]}},{"type":"Feature","properties":{"state":"Karnataka","district":26,"district_n":"DAKSHINA KANNADA","pc":17,"pc_name":"Dakshina Kannada","ac":205,"ac_name":"Bantval","booth":43,"booth_name":"Aided Higher Primary School Mandebettu,ammunje"},"geometry":{"type":"Point","coordinates":[74.9694443,12.9170055]}},{"type":"Feature","properties":{"state":"Karnataka","district":26,"district_n":"DAKSHINA KANNADA","pc":17,"pc_name":"Dakshina Kannada","ac":205,"ac_name":"Bantval","booth":42,"booth_name":"Government Junior College Benjanapadavu,ammuje"},"geometry":{"type":"Point","coordinates":[74.98427,12.9072752]}}]}