{"type":"FeatureCollection","features":[{"type":"Feature","properties":{"state":"Karnataka","district":28,"district_n":"MYSORE","pc":21,"pc_name":"Mysore","ac":210,"ac_name":"Periyapatna","booth":129,"booth_name":"Govt Lower Lower Primary School Makodu"},"geometry":{"type":"Point","coordinates":[76.2063,12.3953953]}},{"type":"Feature","properties":{"state":"Karnataka","district":28,"district_n":"MYSORE","pc":21,"pc_name":"Mysore","ac":210,"ac_name":"Periyapatna","booth":131,"booth_name":"Govt Lower Lower Primary School M M Shettyhalli"},"geometry":{"type":"Point","coordinates":[76.20403,12.3852091]}},{"type":"Feature","properties":{"state":"Karnataka","district":28,"district_n":"MYSORE","pc":21,"pc_name":"Mysore","ac":210,"ac_name":"Periyapatna","booth":132,"booth_name":"Govt Lower Primary School Kalkere"},"geometry":{"type":"Point","coordinates":[76.1814346,12.3788958]}},{"type":"Feature","properties":{"state":"Karnataka","district":28,"district_n":"MYSORE","pc":21,"pc_name":"Mysore","ac":210,"ac_name":"Periyapatna","booth":134,"booth_name":"Govt Higher Primary School Makanahalli"},"geometry":{"type":"Point","coordinates":[76.15896,12.3627253]}},{"type":"Feature","properties":{"state":"Karnataka","district":28,"district_n":"MYSORE","pc":21,"pc_name":"Mysore","ac":210,"ac_name":"Periyapatna","booth":137,"booth_name":"Govt Urdu Higher Primary School Asvalu"},"geometry":{"type":"Point","coordinates":[76.12677,12.3758688]}},{"type":"Feature","properties":{"state":"Karnataka","district":28,"district_n":"MYSORE","pc":21,"pc_name":"Mysore","ac":210,"ac_name":"Periyapatna","booth":143,"booth_name":"Govt Higher Primary School Thelaginakuppe"},"geometry":{"type":"Point","coordinates":[76.07108,12.3996019]}},{"type":"Feature","properties":{"state":"Karnataka","district":28,"district_n":"MYSORE","pc":21,"pc_name":"Mysore","ac":210,"ac_name":"Periyapatna","booth":149,"booth_name":"Govt Higher Primary School Navilooru"},"geometry":{"type":"Point","coordinates":[75.99164,12.3719053]}},{"type":"Feature","properties":{"state":"Karnataka","district":28,"district_n":"MYSORE","pc":21,"pc_name":"Mysore","ac":210,"ac_name":"Periyapatna","booth":151,"booth_name":"Govt Higher Primary School Right Side Doddaharave"},"geometry":{"type":"Point","coordinates":[75.9542,12.4040728]}},{"type":"Feature","properties":{"state":"Karnataka","district":28,"district_n":"MYSORE","pc":21,"pc_name":"Mysore","ac":210,"ac_name":"Periyapatna","booth":152,"booth_name":"Govt Lower Primary School Bemmathi"},"geometry":{"type":"Point","coordinates":[76.00391,12.3595171]}},{"type":"Feature","properties":{"state":"Karnataka","district":28,"district_n":"MYSORE","pc":21,"pc_name":"Mysore","ac":210,"ac_name":"Periyapatna","booth":154,"booth_name":"Govt Higher Primary School Nandinathapura"},"geometry":{"type":"Point","coordinates":[76.0284,12.3575773]}},{"type":"Feature","properties":{"state":"Karnataka","district":28,"district_n":"MYSORE","pc":21,"pc_name":"Mysore","ac":210,"ac_name":"Periyapatna","booth":163,"booth_name":"Govt Govt Higher Primary School Basalapura"},"geometry":{"type":"Point","coordinates":[76.00587,12.34393]}},{"type":"Feature","properties":{"state":"Karnataka","district":28,"district_n":"MYSORE","pc":21,"pc_name":"Mysore","ac":210,"ac_name":"Periyapatna","booth":169,"booth_name":"Govt Higher Primary School Thathanahalli"},"geometry":{"type":"Point","coordinates":[76.1245651,12.3284817]}},{"type":"Feature","properties":{"state":"Karnataka","district":28,"district_n":"MYSORE","pc":21,"pc_name":"Mysore","ac":210,"ac_name":"Periyapatna","booth":171,"booth_name":"Govt Urdu Higher Primary School (south Wing) Piriyapattana"},"geometry":{"type":"Point","coordinates":[76.1034,12.3358517]}},{"type":"Feature","properties":{"state":"Karnataka","district":28,"district_n":"MYSORE","pc":21,"pc_name":"Mysore","ac":210,"ac_name":"Periyapatna","booth":177,"booth_name":"Govt Higher Primary School (west (west Wing), S B M Opposite Opposite Piriyapattana"},"geometry":{"type":"Point","coordinates":[76.03182,12.3274775]}},{"type":"Feature","properties":{"state":"Karnataka","district":28,"district_n":"MYSORE","pc":21,"pc_name":"Mysore","ac":210,"ac_name":"Periyapatna","booth":80,"booth_name":"Govt Lower primary school Konasuru(basavanagara)"},"geometry":{"type":"Point","coordinates":[76.0574,12.4431782]}},{"type":"Feature","properties":{"state":"Karnataka","district":28,"district_n":"MYSORE","pc":21,"pc_name":"Mysore","ac":210,"ac_name":"Periyapatna","booth":86,"booth_name":"Government Lower Primary School Barase"},"geometry":{"type":"Point","coordinates":[76.12095,12.4313841]}},{"type":"Feature","properties":{"state":"Karnataka","district":28,"district_n":"MYSORE","pc":21,"pc_name":"Mysore","ac":210,"ac_name":"Periyapatna","booth":88,"booth_name":"Govt Higher Primary School Kudukuru"},"geometry":{"type":"Point","coordinates":[76.13829,12.4415255]}},{"type":"Feature","properties":{"state":"Karnataka","district":28,"district_n":"MYSORE","pc":21,"pc_name":"Mysore","ac":210,"ac_name":"Periyapatna","booth":92,"booth_name":"Govt Higher Primary School, (east Wing) Ravandhooru"},"geometry":{"type":"Point","coordinates":[76.18981,12.4341431]}},{"type":"Feature","properties":{"state":"Karnataka","district":28,"district_n":"MYSORE","pc":21,"pc_name":"Mysore","ac":210,"ac_name":"Periyapatna","booth":94,"booth_name":"Govt Higher Primary School(right Side) Handitahalli"},"geometry":{"type":"Point","coordinates":[76.2122,12.4546537]}},{"type":"Feature","properties":{"state":"Karnataka","district":28,"district_n":"MYSORE","pc":21,"pc_name":"Mysore","ac":210,"ac_name":"Periyapatna","booth":97,"booth_name":"Govt Urdu Boys Higher Primary School, (left Wing) Arenahalli"},"geometry":{"type":"Point","coordinates":[76.1795959,12.4168043]}},{"type":"Feature","properties":{"state":"Karnataka","district":28,"district_n":"MYSORE","pc":21,"pc_name":"Mysore","ac":210,"ac_name":"Periyapatna","booth":100,"booth_name":"Govt Higher Primary School Aayithanahalli"},"geometry":{"type":"Point","coordinates":[76.1206055,12.4111061]}},{"type":"Feature","properties":{"state":"Karnataka","district":28,"district_n":"MYSORE","pc":21,"pc_name":"Mysore","ac":210,"ac_name":"Periyapatna","booth":106,"booth_name":"Govt Higher Primary School Tirumalapura"},"geometry":{"type":"Point","coordinates":[76.02476,12.2242517]}},{"type":"Feature","properties":{"state":"Karnataka","district":28,"district_n":"MYSORE","pc":21,"pc_name":"Mysore","ac":210,"ac_name":"Periyapatna","booth":108,"booth_name":"Govt High High School, Bailakuppe"},"geometry":{"type":"Point","coordinates":[75.99594,12.4296112]}},{"type":"Feature","properties":{"state":"Karnataka","district":28,"district_n":"MYSORE","pc":21,"pc_name":"Mysore","ac":210,"ac_name":"Periyapatna","booth":68,"booth_name":"Govt Lower Primary School Bilagundha"},"geometry":{"type":"Point","coordinates":[76.01919,12.4823675]}},{"type":"Feature","properties":{"state":"Karnataka","district":28,"district_n":"MYSORE","pc":21,"pc_name":"Mysore","ac":210,"ac_name":"Periyapatna","booth":109,"booth_name":"Govt Higher Primary School, (west Wing) New Building Bailakuppe"},"geometry":{"type":"Point","coordinates":[75.96613,12.4296694]}},{"type":"Feature","properties":{"state":"Karnataka","district":28,"district_n":"MYSORE","pc":21,"pc_name":"Mysore","ac":210,"ac_name":"Periyapatna","booth":112,"booth_name":"Govt Higher Primary School (south Wing) Doddahosuru"},"geometry":{"type":"Point","coordinates":[75.95137,12.44123]}},{"type":"Feature","properties":{"state":"Karnataka","district":28,"district_n":"MYSORE","pc":21,"pc_name":"Mysore","ac":210,"ac_name":"Periyapatna","booth":117,"booth_name":"Govt Higher Primary School, (left Side) Komalapura"},"geometry":{"type":"Point","coordinates":[76.07636,12.4108791]}},{"type":"Feature","properties":{"state":"Karnataka","district":28,"district_n":"MYSORE","pc":21,"pc_name":"Mysore","ac":210,"ac_name":"Periyapatna","booth":128,"booth_name":"Govt Higher Primary School Makodu"},"geometry":{"type":"Point","coordinates":[76.21786,12.398942]}},{"type":"Feature","properties":{"state":"Karnataka","district":28,"district_n":"MYSORE","pc":21,"pc_name":"Mysore","ac":210,"ac_name":"Periyapatna","booth":6,"booth_name":"Govt Govt Higher primary School Rajana Bilaguli"},"geometry":{"type":"Point","coordinates":[76.06762,12.5327368]}},{"type":"Feature","properties":{"state":"Karnataka","district":28,"district_n":"MYSORE","pc":21,"pc_name":"Mysore","ac":210,"ac_name":"Periyapatna","booth":8,"booth_name":"Govt Higher Urdu Primary School (west Wing) Halaganahalli"},"geometry":{"type":"Point","coordinates":[76.094,12.524169]}},{"type":"Feature","properties":{"state":"Karnataka","district":28,"district_n":"MYSORE","pc":21,"pc_name":"Mysore","ac":210,"ac_name":"Periyapatna","booth":14,"booth_name":"Govt Higher Primary School ,mudalakoppalu"},"geometry":{"type":"Point","coordinates":[76.17276,12.5063152]}},{"type":"Feature","properties":{"state":"Karnataka","district":28,"district_n":"MYSORE","pc":21,"pc_name":"Mysore","ac":210,"ac_name":"Periyapatna","booth":20,"booth_name":"Govt Higher Primary School Haraduru"},"geometry":{"type":"Point","coordinates":[76.10805,12.4912958]}},{"type":"Feature","properties":{"state":"Karnataka","district":28,"district_n":"MYSORE","pc":21,"pc_name":"Mysore","ac":210,"ac_name":"Periyapatna","booth":26,"booth_name":"Govt Lower Primary School Kumari Koppalu"},"geometry":{"type":"Point","coordinates":[76.0556641,12.5123806]}},{"type":"Feature","properties":{"state":"Karnataka","district":28,"district_n":"MYSORE","pc":21,"pc_name":"Mysore","ac":210,"ac_name":"Periyapatna","booth":40,"booth_name":"Govt Lower Primary School Bettadapura"},"geometry":{"type":"Point","coordinates":[76.1057,12.4755459]}},{"type":"Feature","properties":{"state":"Karnataka","district":28,"district_n":"MYSORE","pc":21,"pc_name":"Mysore","ac":210,"ac_name":"Periyapatna","booth":43,"booth_name":"Govt Higher Primary School Kothavalli"},"geometry":{"type":"Point","coordinates":[76.168045,12.4741411]}},{"type":"Feature","properties":{"state":"Karnataka","district":28,"district_n":"MYSORE","pc":21,"pc_name":"Mysore","ac":210,"ac_name":"Periyapatna","booth":46,"booth_name":"Govt Higher Primary School Kithuru"},"geometry":{"type":"Point","coordinates":[76.21064,12.49171]}},{"type":"Feature","properties":{"state":"Karnataka","district":28,"district_n":"MYSORE","pc":21,"pc_name":"Mysore","ac":210,"ac_name":"Periyapatna","booth":48,"booth_name":"Govt Lower Lower Primary School Guruvaiahna koppalu"},"geometry":{"type":"Point","coordinates":[76.2187042,12.4867039]}},{"type":"Feature","properties":{"state":"Karnataka","district":28,"district_n":"MYSORE","pc":21,"pc_name":"Mysore","ac":210,"ac_name":"Periyapatna","booth":49,"booth_name":"Govt Pre University College (right Side) Kitturu"},"geometry":{"type":"Point","coordinates":[76.2105,12.4961491]}},{"type":"Feature","properties":{"state":"Karnataka","district":28,"district_n":"MYSORE","pc":21,"pc_name":"Mysore","ac":210,"ac_name":"Periyapatna","booth":51,"booth_name":"Govt Higher Primary School (right Side) Thammadahalli"},"geometry":{"type":"Point","coordinates":[76.1980438,12.4705877]}},{"type":"Feature","properties":{"state":"Karnataka","district":28,"district_n":"MYSORE","pc":21,"pc_name":"Mysore","ac":210,"ac_name":"Periyapatna","booth":54,"booth_name":"Govt Higher Primary School Right Side) Honnenahalli"},"geometry":{"type":"Point","coordinates":[76.18544,12.4556942]}},{"type":"Feature","properties":{"state":"Karnataka","district":28,"district_n":"MYSORE","pc":21,"pc_name":"Mysore","ac":210,"ac_name":"Periyapatna","booth":57,"booth_name":"Govt Lower Primary School, Megala Koppalu"},"geometry":{"type":"Point","coordinates":[76.13278,12.4562225]}},{"type":"Feature","properties":{"state":"Karnataka","district":28,"district_n":"MYSORE","pc":21,"pc_name":"Mysore","ac":210,"ac_name":"Periyapatna","booth":126,"booth_name":"Govt Higher Primary School R Hosahalli"},"geometry":{"type":"Point","coordinates":[76.1909,12.4094305]}},{"type":"Feature","properties":{"state":"Karnataka","district":28,"district_n":"MYSORE","pc":21,"pc_name":"Mysore","ac":210,"ac_name":"Periyapatna","booth":63,"booth_name":"Govt Lower Primary School Byadarabilaguli"},"geometry":{"type":"Point","coordinates":[76.06756,12.4739532]}},{"type":"Feature","properties":{"state":"Karnataka","district":28,"district_n":"MYSORE","pc":21,"pc_name":"Mysore","ac":210,"ac_name":"Periyapatna","booth":146,"booth_name":"Govt Higher Primary School Hunasavadi"},"geometry":{"type":"Point","coordinates":[76.03476,12.3697262]}},{"type":"Feature","properties":{"state":"Karnataka","district":28,"district_n":"MYSORE","pc":21,"pc_name":"Mysore","ac":210,"ac_name":"Periyapatna","booth":178,"booth_name":"Govt Lower Primary School Beside Town Panchayath Panchayath Piriyapattana"},"geometry":{"type":"Point","coordinates":[76.10013,12.3375111]}},{"type":"Feature","properties":{"state":"Karnataka","district":28,"district_n":"MYSORE","pc":21,"pc_name":"Mysore","ac":210,"ac_name":"Periyapatna","booth":183,"booth_name":"Govt Lower Urdu Primary School Ayarabeedu"},"geometry":{"type":"Point","coordinates":[76.0012741,12.3501024]}},{"type":"Feature","properties":{"state":"Karnataka","district":28,"district_n":"MYSORE","pc":21,"pc_name":"Mysore","ac":210,"ac_name":"Periyapatna","booth":189,"booth_name":"Govt Higher Primary School, (right Wing) Sathyagala"},"geometry":{"type":"Point","coordinates":[76.13718,12.3062077]}},{"type":"Feature","properties":{"state":"Karnataka","district":28,"district_n":"MYSORE","pc":21,"pc_name":"Mysore","ac":210,"ac_name":"Periyapatna","booth":191,"booth_name":"Govt Higher Primary School, (left Wing) Sathyagala"},"geometry":{"type":"Point","coordinates":[76.13714,12.3061438]}},{"type":"Feature","properties":{"state":"Karnataka","district":28,"district_n":"MYSORE","pc":21,"pc_name":"Mysore","ac":210,"ac_name":"Periyapatna","booth":192,"booth_name":"Govt Higher Primary School Bekya"},"geometry":{"type":"Point","coordinates":[76.1524,12.3032207]}},{"type":"Feature","properties":{"state":"Karnataka","district":28,"district_n":"MYSORE","pc":21,"pc_name":"Mysore","ac":210,"ac_name":"Periyapatna","booth":194,"booth_name":"Govt Higher Primary School Panchavalli"},"geometry":{"type":"Point","coordinates":[76.1358643,12.2857609]}},{"type":"Feature","properties":{"state":"Karnataka","district":28,"district_n":"MYSORE","pc":21,"pc_name":"Mysore","ac":210,"ac_name":"Periyapatna","booth":195,"booth_name":"Govt Higher Primary School Ankanahallikoppalu"},"geometry":{"type":"Point","coordinates":[76.14767,12.2857609]}},{"type":"Feature","properties":{"state":"Karnataka","district":28,"district_n":"MYSORE","pc":21,"pc_name":"Mysore","ac":210,"ac_name":"Periyapatna","booth":197,"booth_name":"Govt Lower Primary School Laxmipura"},"geometry":{"type":"Point","coordinates":[76.06649,12.3021975]}},{"type":"Feature","properties":{"state":"Karnataka","district":28,"district_n":"MYSORE","pc":21,"pc_name":"Mysore","ac":210,"ac_name":"Periyapatna","booth":198,"booth_name":"Govt Higher Primary School (ashrama School) Muthuru colony(rajiva Grama)"},"geometry":{"type":"Point","coordinates":[76.0143661,12.3301582]}},{"type":"Feature","properties":{"state":"Karnataka","district":28,"district_n":"MYSORE","pc":21,"pc_name":"Mysore","ac":210,"ac_name":"Periyapatna","booth":186,"booth_name":"Govt Higher Primary School Ankanahalli"},"geometry":{"type":"Point","coordinates":[76.0933,12.3233185]}},{"type":"Feature","properties":{"state":"Karnataka","district":28,"district_n":"MYSORE","pc":21,"pc_name":"Mysore","ac":210,"ac_name":"Periyapatna","booth":31,"booth_name":"Govt Higher Primary School Channakeshavapura"},"geometry":{"type":"Point","coordinates":[75.99869,12.5053234]}},{"type":"Feature","properties":{"state":"Karnataka","district":28,"district_n":"MYSORE","pc":21,"pc_name":"Mysore","ac":210,"ac_name":"Periyapatna","booth":34,"booth_name":"Govt Higher Primary School Haranahalli"},"geometry":{"type":"Point","coordinates":[76.04227,12.5003624]}},{"type":"Feature","properties":{"state":"Karnataka","district":28,"district_n":"MYSORE","pc":21,"pc_name":"Mysore","ac":210,"ac_name":"Periyapatna","booth":37,"booth_name":"Govt Higher Primary School Gorahalli"},"geometry":{"type":"Point","coordinates":[76.09275,12.4959164]}},{"type":"Feature","properties":{"state":"Karnataka","district":28,"district_n":"MYSORE","pc":21,"pc_name":"Mysore","ac":210,"ac_name":"Periyapatna","booth":17,"booth_name":"Govt Govt Higher Primary School (west Wing) Attigudu"},"geometry":{"type":"Point","coordinates":[76.14862,12.486145]}},{"type":"Feature","properties":{"state":"Karnataka","district":28,"district_n":"MYSORE","pc":21,"pc_name":"Mysore","ac":210,"ac_name":"Periyapatna","booth":25,"booth_name":"Govt Higher Primary School Ganganakuppe"},"geometry":{"type":"Point","coordinates":[76.04866,12.5250978]}},{"type":"Feature","properties":{"state":"Karnataka","district":28,"district_n":"MYSORE","pc":21,"pc_name":"Mysore","ac":210,"ac_name":"Periyapatna","booth":28,"booth_name":"Govt Higher Primary School (left side) Chamarayanakote"},"geometry":{"type":"Point","coordinates":[76.00293,12.5500231]}},{"type":"Feature","properties":{"state":"Karnataka","district":28,"district_n":"MYSORE","pc":21,"pc_name":"Mysore","ac":210,"ac_name":"Periyapatna","booth":29,"booth_name":"Govt Higher Primary School Sulekote"},"geometry":{"type":"Point","coordinates":[75.99349,12.5364361]}},{"type":"Feature","properties":{"state":"Karnataka","district":28,"district_n":"MYSORE","pc":21,"pc_name":"Mysore","ac":210,"ac_name":"Periyapatna","booth":5,"booth_name":"Govt Lower Primary School Subbaiahnakoppalu"},"geometry":{"type":"Point","coordinates":[76.06299,12.5428238]}},{"type":"Feature","properties":{"state":"Karnataka","district":28,"district_n":"MYSORE","pc":21,"pc_name":"Mysore","ac":210,"ac_name":"Periyapatna","booth":155,"booth_name":"Govt Lower Primary School Belthuru"},"geometry":{"type":"Point","coordinates":[76.04908,12.3530264]}},{"type":"Feature","properties":{"state":"Karnataka","district":28,"district_n":"MYSORE","pc":21,"pc_name":"Mysore","ac":210,"ac_name":"Periyapatna","booth":157,"booth_name":"Govt Higher Primary School Kandhegala"},"geometry":{"type":"Point","coordinates":[76.06405,12.3715487]}},{"type":"Feature","properties":{"state":"Karnataka","district":28,"district_n":"MYSORE","pc":21,"pc_name":"Mysore","ac":210,"ac_name":"Periyapatna","booth":158,"booth_name":"Govt Higher Primary School Hemmige"},"geometry":{"type":"Point","coordinates":[76.08003,12.3638124]}},{"type":"Feature","properties":{"state":"Karnataka","district":28,"district_n":"MYSORE","pc":21,"pc_name":"Mysore","ac":210,"ac_name":"Periyapatna","booth":160,"booth_name":"Govt Lower Primary School Mellahalli"},"geometry":{"type":"Point","coordinates":[76.1108856,12.3489323]}},{"type":"Feature","properties":{"state":"Karnataka","district":28,"district_n":"MYSORE","pc":21,"pc_name":"Mysore","ac":210,"ac_name":"Periyapatna","booth":166,"booth_name":"Govt Higher Primary School (north Wing) Kampalapura"},"geometry":{"type":"Point","coordinates":[76.1562,12.3363371]}},{"type":"Feature","properties":{"state":"Karnataka","district":28,"district_n":"MYSORE","pc":21,"pc_name":"Mysore","ac":210,"ac_name":"Periyapatna","booth":148,"booth_name":"Govt Higher Primary School (west Wing) Alanahalli"},"geometry":{"type":"Point","coordinates":[76.01203,12.3807554]}},{"type":"Feature","properties":{"state":"Karnataka","district":28,"district_n":"MYSORE","pc":21,"pc_name":"Mysore","ac":210,"ac_name":"Periyapatna","booth":164,"booth_name":"Govt Higher Primary School Borehosahalli"},"geometry":{"type":"Point","coordinates":[76.17665,12.3293858]}},{"type":"Feature","properties":{"state":"Karnataka","district":28,"district_n":"MYSORE","pc":21,"pc_name":"Mysore","ac":210,"ac_name":"Periyapatna","booth":167,"booth_name":"Govt Higher Primary School, (south Wing) Kampalapura"},"geometry":{"type":"Point","coordinates":[76.15625,12.3363495]}},{"type":"Feature","properties":{"state":"Karnataka","district":28,"district_n":"MYSORE","pc":21,"pc_name":"Mysore","ac":210,"ac_name":"Periyapatna","booth":200,"booth_name":"Govt Govt Higher Primary School Old Building(left Side) Muthuru"},"geometry":{"type":"Point","coordinates":[76.0320053,12.3274813]}},{"type":"Feature","properties":{"state":"Karnataka","district":28,"district_n":"MYSORE","pc":21,"pc_name":"Mysore","ac":210,"ac_name":"Periyapatna","booth":203,"booth_name":"Govt Higher Primary School Kogilavadi"},"geometry":{"type":"Point","coordinates":[76.0398941,12.3017483]}},{"type":"Feature","properties":{"state":"Karnataka","district":28,"district_n":"MYSORE","pc":21,"pc_name":"Mysore","ac":210,"ac_name":"Periyapatna","booth":206,"booth_name":"Govt Girijana Ashrama School Abbalathi"},"geometry":{"type":"Point","coordinates":[76.0826645,12.2760706]}},{"type":"Feature","properties":{"state":"Karnataka","district":28,"district_n":"MYSORE","pc":21,"pc_name":"Mysore","ac":210,"ac_name":"Periyapatna","booth":209,"booth_name":"Govt Higher Primary School Uthenahalli"},"geometry":{"type":"Point","coordinates":[76.12476,12.2695971]}},{"type":"Feature","properties":{"state":"Karnataka","district":28,"district_n":"MYSORE","pc":21,"pc_name":"Mysore","ac":210,"ac_name":"Periyapatna","booth":69,"booth_name":"Grama Panchayath Office Channakal kaval"},"geometry":{"type":"Point","coordinates":[76.00045,12.4709692]}},{"type":"Feature","properties":{"state":"Karnataka","district":28,"district_n":"MYSORE","pc":21,"pc_name":"Mysore","ac":210,"ac_name":"Periyapatna","booth":89,"booth_name":"Govt Higher Primary School N N Shettahalli"},"geometry":{"type":"Point","coordinates":[76.16203,12.4368172]}},{"type":"Feature","properties":{"state":"Karnataka","district":28,"district_n":"MYSORE","pc":21,"pc_name":"Mysore","ac":210,"ac_name":"Periyapatna","booth":91,"booth_name":"Govt Higher Primary School (west Wing) Ravandhooru"},"geometry":{"type":"Point","coordinates":[76.18981,12.4341383]}},{"type":"Feature","properties":{"state":"Karnataka","district":28,"district_n":"MYSORE","pc":21,"pc_name":"Mysore","ac":210,"ac_name":"Periyapatna","booth":95,"booth_name":"Govt Higher Primary School Kellur"},"geometry":{"type":"Point","coordinates":[76.2250748,12.4327879]}},{"type":"Feature","properties":{"state":"Karnataka","district":28,"district_n":"MYSORE","pc":21,"pc_name":"Mysore","ac":210,"ac_name":"Periyapatna","booth":103,"booth_name":"Govt Higher Primary School K K Hosahalli"},"geometry":{"type":"Point","coordinates":[76.05801,12.4221716]}},{"type":"Feature","properties":{"state":"Karnataka","district":28,"district_n":"MYSORE","pc":21,"pc_name":"Mysore","ac":210,"ac_name":"Periyapatna","booth":138,"booth_name":"Govt Higher Primary School Kaggundi"},"geometry":{"type":"Point","coordinates":[76.11107,12.3675261]}},{"type":"Feature","properties":{"state":"Karnataka","district":28,"district_n":"MYSORE","pc":21,"pc_name":"Mysore","ac":210,"ac_name":"Periyapatna","booth":24,"booth_name":"Govt Lower Primary School Hunasethoppalu"},"geometry":{"type":"Point","coordinates":[76.06941,12.526042]}},{"type":"Feature","properties":{"state":"Karnataka","district":28,"district_n":"MYSORE","pc":21,"pc_name":"Mysore","ac":210,"ac_name":"Periyapatna","booth":67,"booth_name":"Govt Higher Primary School Nilavadi"},"geometry":{"type":"Point","coordinates":[76.02083,12.4719534]}},{"type":"Feature","properties":{"state":"Karnataka","district":28,"district_n":"MYSORE","pc":21,"pc_name":"Mysore","ac":210,"ac_name":"Periyapatna","booth":87,"booth_name":"Govt Higher Primary School Nandhipura"},"geometry":{"type":"Point","coordinates":[76.14517,12.4329557]}},{"type":"Feature","properties":{"state":"Karnataka","district":28,"district_n":"MYSORE","pc":21,"pc_name":"Mysore","ac":210,"ac_name":"Periyapatna","booth":98,"booth_name":"Govt Higher Primary School Nilangala"},"geometry":{"type":"Point","coordinates":[76.15852,12.4245186]}},{"type":"Feature","properties":{"state":"Karnataka","district":28,"district_n":"MYSORE","pc":21,"pc_name":"Mysore","ac":210,"ac_name":"Periyapatna","booth":101,"booth_name":"Govt Lower Primary School Sigooru"},"geometry":{"type":"Point","coordinates":[76.10927,12.4235535]}},{"type":"Feature","properties":{"state":"Karnataka","district":28,"district_n":"MYSORE","pc":21,"pc_name":"Mysore","ac":210,"ac_name":"Periyapatna","booth":110,"booth_name":"Govt Higher Primary School Koppa"},"geometry":{"type":"Point","coordinates":[75.97733,12.4423828]}},{"type":"Feature","properties":{"state":"Karnataka","district":28,"district_n":"MYSORE","pc":21,"pc_name":"Mysore","ac":210,"ac_name":"Periyapatna","booth":124,"booth_name":"Govt Higher Primary School Doddabyalalu"},"geometry":{"type":"Point","coordinates":[76.16179,12.3798294]}},{"type":"Feature","properties":{"state":"Karnataka","district":28,"district_n":"MYSORE","pc":21,"pc_name":"Mysore","ac":210,"ac_name":"Periyapatna","booth":127,"booth_name":"Grama Panchayath Office Makodu"},"geometry":{"type":"Point","coordinates":[76.21833,12.3992338]}},{"type":"Feature","properties":{"state":"Karnataka","district":28,"district_n":"MYSORE","pc":21,"pc_name":"Mysore","ac":210,"ac_name":"Periyapatna","booth":150,"booth_name":"Govt Higher Primary School, Left Side Doddaharave"},"geometry":{"type":"Point","coordinates":[75.9542542,12.4040823]}},{"type":"Feature","properties":{"state":"Karnataka","district":28,"district_n":"MYSORE","pc":21,"pc_name":"Mysore","ac":210,"ac_name":"Periyapatna","booth":161,"booth_name":"Govt Higher Primary School (left Side) Kiranalli"},"geometry":{"type":"Point","coordinates":[76.12921,12.347538]}},{"type":"Feature","properties":{"state":"Karnataka","district":28,"district_n":"MYSORE","pc":21,"pc_name":"Mysore","ac":210,"ac_name":"Periyapatna","booth":104,"booth_name":"Govt Higher Primary School M Hosahalli"},"geometry":{"type":"Point","coordinates":[76.0466156,12.4238968]}},{"type":"Feature","properties":{"state":"Karnataka","district":28,"district_n":"MYSORE","pc":21,"pc_name":"Mysore","ac":210,"ac_name":"Periyapatna","booth":141,"booth_name":"Govt Higher Primary School (east Wing) Hitnehebbagilu"},"geometry":{"type":"Point","coordinates":[76.10359,12.3898163]}},{"type":"Feature","properties":{"state":"Karnataka","district":28,"district_n":"MYSORE","pc":21,"pc_name":"Mysore","ac":210,"ac_name":"Periyapatna","booth":144,"booth_name":"Govt Lower Primary School Neralekuppe"},"geometry":{"type":"Point","coordinates":[76.0529,12.3979721]}},{"type":"Feature","properties":{"state":"Karnataka","district":28,"district_n":"MYSORE","pc":21,"pc_name":"Mysore","ac":210,"ac_name":"Periyapatna","booth":170,"booth_name":"Govt Higher Primary School Abburu"},"geometry":{"type":"Point","coordinates":[76.33682,12.3368244]}},{"type":"Feature","properties":{"state":"Karnataka","district":28,"district_n":"MYSORE","pc":21,"pc_name":"Mysore","ac":210,"ac_name":"Periyapatna","booth":184,"booth_name":"Govt Higher Primary School Lingapura"},"geometry":{"type":"Point","coordinates":[76.00595,12.34389]}},{"type":"Feature","properties":{"state":"Karnataka","district":28,"district_n":"MYSORE","pc":21,"pc_name":"Mysore","ac":210,"ac_name":"Periyapatna","booth":119,"booth_name":"Govt Lower Primary School Billahalli"},"geometry":{"type":"Point","coordinates":[76.09192,12.4111872]}},{"type":"Feature","properties":{"state":"Karnataka","district":28,"district_n":"MYSORE","pc":21,"pc_name":"Mysore","ac":210,"ac_name":"Periyapatna","booth":122,"booth_name":"Govt Higher Primary School Ramanatha Thunga"},"geometry":{"type":"Point","coordinates":[76.1359558,12.39245]}},{"type":"Feature","properties":{"state":"Karnataka","district":28,"district_n":"MYSORE","pc":21,"pc_name":"Mysore","ac":210,"ac_name":"Periyapatna","booth":125,"booth_name":"Govt Lower Primary School Bhogahalli"},"geometry":{"type":"Point","coordinates":[76.19178,12.4191513]}},{"type":"Feature","properties":{"state":"Karnataka","district":28,"district_n":"MYSORE","pc":21,"pc_name":"Mysore","ac":210,"ac_name":"Periyapatna","booth":133,"booth_name":"Govt Higher Primary School Javanikuppe"},"geometry":{"type":"Point","coordinates":[76.17553,12.3636866]}},{"type":"Feature","properties":{"state":"Karnataka","district":28,"district_n":"MYSORE","pc":21,"pc_name":"Mysore","ac":210,"ac_name":"Periyapatna","booth":136,"booth_name":"Govt Higher Primary School Sundavalu(right Side)"},"geometry":{"type":"Point","coordinates":[76.1351242,12.3646345]}},{"type":"Feature","properties":{"state":"Karnataka","district":28,"district_n":"MYSORE","pc":21,"pc_name":"Mysore","ac":210,"ac_name":"Periyapatna","booth":162,"booth_name":"Govt Higher Primary School (right Side) Kiranalli"},"geometry":{"type":"Point","coordinates":[76.1292648,12.3477812]}},{"type":"Feature","properties":{"state":"Karnataka","district":28,"district_n":"MYSORE","pc":21,"pc_name":"Mysore","ac":210,"ac_name":"Periyapatna","booth":168,"booth_name":"Govt High High School, B M Road Kampalapura"},"geometry":{"type":"Point","coordinates":[76.16324,12.3374043]}},{"type":"Feature","properties":{"state":"Karnataka","district":28,"district_n":"MYSORE","pc":21,"pc_name":"Mysore","ac":210,"ac_name":"Periyapatna","booth":77,"booth_name":"Govt Lower Primary School Maradiyuru"},"geometry":{"type":"Point","coordinates":[75.99472,12.4489374]}},{"type":"Feature","properties":{"state":"Karnataka","district":28,"district_n":"MYSORE","pc":21,"pc_name":"Mysore","ac":210,"ac_name":"Periyapatna","booth":111,"booth_name":"Grama Panchayath Office Koppa"},"geometry":{"type":"Point","coordinates":[75.97535,12.4447737]}},{"type":"Feature","properties":{"state":"Karnataka","district":28,"district_n":"MYSORE","pc":21,"pc_name":"Mysore","ac":210,"ac_name":"Periyapatna","booth":123,"booth_name":"Govt Lower Lower Primary School Hosakoppalu"},"geometry":{"type":"Point","coordinates":[76.09801,12.3520365]}},{"type":"Feature","properties":{"state":"Karnataka","district":28,"district_n":"MYSORE","pc":21,"pc_name":"Mysore","ac":210,"ac_name":"Periyapatna","booth":18,"booth_name":"Government Higher Primary School School (east Wing) Wing) Attigudu"},"geometry":{"type":"Point","coordinates":[76.1485748,12.4861422]}},{"type":"Feature","properties":{"state":"Karnataka","district":28,"district_n":"MYSORE","pc":21,"pc_name":"Mysore","ac":210,"ac_name":"Periyapatna","booth":50,"booth_name":"Govt Lower Primary College Galaganakere"},"geometry":{"type":"Point","coordinates":[76.21733,12.4685307]}},{"type":"Feature","properties":{"state":"Karnataka","district":28,"district_n":"MYSORE","pc":21,"pc_name":"Mysore","ac":210,"ac_name":"Periyapatna","booth":156,"booth_name":"Govt Higher Primary School Chittenahalli"},"geometry":{"type":"Point","coordinates":[76.06345,12.3540411]}},{"type":"Feature","properties":{"state":"Karnataka","district":28,"district_n":"MYSORE","pc":21,"pc_name":"Mysore","ac":210,"ac_name":"Periyapatna","booth":159,"booth_name":"Govt Higher Primary School G G Basavanahalli"},"geometry":{"type":"Point","coordinates":[76.07477,12.3764639]}},{"type":"Feature","properties":{"state":"Karnataka","district":28,"district_n":"MYSORE","pc":21,"pc_name":"Mysore","ac":210,"ac_name":"Periyapatna","booth":165,"booth_name":"Govt Shishuvihara Building Kampalapura"},"geometry":{"type":"Point","coordinates":[76.15598,12.3364182]}},{"type":"Feature","properties":{"state":"Karnataka","district":28,"district_n":"MYSORE","pc":21,"pc_name":"Mysore","ac":210,"ac_name":"Periyapatna","booth":52,"booth_name":"Govt Higher Primary School (left Side) Thammadahalli"},"geometry":{"type":"Point","coordinates":[76.1980438,12.4705782]}},{"type":"Feature","properties":{"state":"Karnataka","district":28,"district_n":"MYSORE","pc":21,"pc_name":"Mysore","ac":210,"ac_name":"Periyapatna","booth":53,"booth_name":"Govt Higher Primary School(left Side), Honnenahalli"},"geometry":{"type":"Point","coordinates":[76.1853943,12.4556942]}},{"type":"Feature","properties":{"state":"Karnataka","district":28,"district_n":"MYSORE","pc":21,"pc_name":"Mysore","ac":210,"ac_name":"Periyapatna","booth":84,"booth_name":"Govt Higher Primary School Ichuru"},"geometry":{"type":"Point","coordinates":[76.10161,12.4348488]}},{"type":"Feature","properties":{"state":"Karnataka","district":28,"district_n":"MYSORE","pc":21,"pc_name":"Mysore","ac":210,"ac_name":"Periyapatna","booth":90,"booth_name":"Govt Higher Primary School Haralahalli"},"geometry":{"type":"Point","coordinates":[76.17349,12.4349527]}},{"type":"Feature","properties":{"state":"Karnataka","district":28,"district_n":"MYSORE","pc":21,"pc_name":"Mysore","ac":210,"ac_name":"Periyapatna","booth":7,"booth_name":"Govt Higher Urdu Primary School (east Wing) Halaganahalli"},"geometry":{"type":"Point","coordinates":[76.0941,12.524045]}},{"type":"Feature","properties":{"state":"Karnataka","district":28,"district_n":"MYSORE","pc":21,"pc_name":"Mysore","ac":210,"ac_name":"Periyapatna","booth":21,"booth_name":"Govt Higher Primary School (right Side) Chapparadahalli"},"geometry":{"type":"Point","coordinates":[76.05409,12.5040054]}},{"type":"Feature","properties":{"state":"Karnataka","district":28,"district_n":"MYSORE","pc":21,"pc_name":"Mysore","ac":210,"ac_name":"Periyapatna","booth":27,"booth_name":"Govt Higher Primary School (right side) Chamarayanakote"},"geometry":{"type":"Point","coordinates":[76.0029144,12.55002]}},{"type":"Feature","properties":{"state":"Karnataka","district":28,"district_n":"MYSORE","pc":21,"pc_name":"Mysore","ac":210,"ac_name":"Periyapatna","booth":38,"booth_name":"Govt Pre University College (north Wing) Bettadapura"},"geometry":{"type":"Point","coordinates":[76.10287,12.4679546]}},{"type":"Feature","properties":{"state":"Karnataka","district":28,"district_n":"MYSORE","pc":21,"pc_name":"Mysore","ac":210,"ac_name":"Periyapatna","booth":44,"booth_name":"Govt Higher Primary School Kaggalikoppalu"},"geometry":{"type":"Point","coordinates":[76.1593246,12.48054]}},{"type":"Feature","properties":{"state":"Karnataka","district":28,"district_n":"MYSORE","pc":21,"pc_name":"Mysore","ac":210,"ac_name":"Periyapatna","booth":185,"booth_name":"Govt Lower Primary School Thimkapura"},"geometry":{"type":"Point","coordinates":[76.00495,12.326951]}},{"type":"Feature","properties":{"state":"Karnataka","district":28,"district_n":"MYSORE","pc":21,"pc_name":"Mysore","ac":210,"ac_name":"Periyapatna","booth":176,"booth_name":"Govt Higher Primary School (east Wing) Wing) S B M Opposite Opposite Piriyapattana"},"geometry":{"type":"Point","coordinates":[76.01439,12.330163]}},{"type":"Feature","properties":{"state":"Karnataka","district":28,"district_n":"MYSORE","pc":21,"pc_name":"Mysore","ac":210,"ac_name":"Periyapatna","booth":85,"booth_name":"Govt Lower Primary School Koorgallu"},"geometry":{"type":"Point","coordinates":[76.1018143,12.4479923]}},{"type":"Feature","properties":{"state":"Karnataka","district":28,"district_n":"MYSORE","pc":21,"pc_name":"Mysore","ac":210,"ac_name":"Periyapatna","booth":153,"booth_name":"Govt Lower Primary School Bhoothanahalli"},"geometry":{"type":"Point","coordinates":[76.01745,12.3741217]}},{"type":"Feature","properties":{"state":"Karnataka","district":28,"district_n":"MYSORE","pc":21,"pc_name":"Mysore","ac":210,"ac_name":"Periyapatna","booth":16,"booth_name":"Govt Lower Primary School Maraduru"},"geometry":{"type":"Point","coordinates":[76.1852951,12.5050411]}},{"type":"Feature","properties":{"state":"Karnataka","district":28,"district_n":"MYSORE","pc":21,"pc_name":"Mysore","ac":210,"ac_name":"Periyapatna","booth":73,"booth_name":"Govt Higher Primary School Muthinamulusoge"},"geometry":{"type":"Point","coordinates":[75.9714661,12.4776592]}},{"type":"Feature","properties":{"state":"Karnataka","district":28,"district_n":"MYSORE","pc":21,"pc_name":"Mysore","ac":210,"ac_name":"Periyapatna","booth":70,"booth_name":"Govt Higher Primary School Channakal kavalu"},"geometry":{"type":"Point","coordinates":[75.98922,12.4742975]}},{"type":"Feature","properties":{"state":"Karnataka","district":28,"district_n":"MYSORE","pc":21,"pc_name":"Mysore","ac":210,"ac_name":"Periyapatna","booth":76,"booth_name":"Govt Lower Primary School Sunkadahalli"},"geometry":{"type":"Point","coordinates":[75.98592,12.4576931]}},{"type":"Feature","properties":{"state":"Karnataka","district":28,"district_n":"MYSORE","pc":21,"pc_name":"Mysore","ac":210,"ac_name":"Periyapatna","booth":82,"booth_name":"Govt Higher Primary School(right Side) Bhuvanahalli"},"geometry":{"type":"Point","coordinates":[76.0873642,12.4430466]}},{"type":"Feature","properties":{"state":"Karnataka","district":28,"district_n":"MYSORE","pc":21,"pc_name":"Mysore","ac":210,"ac_name":"Periyapatna","booth":99,"booth_name":"Govt Higher Primary School, Dorekere"},"geometry":{"type":"Point","coordinates":[76.1644058,12.4123831]}},{"type":"Feature","properties":{"state":"Karnataka","district":28,"district_n":"MYSORE","pc":21,"pc_name":"Mysore","ac":210,"ac_name":"Periyapatna","booth":102,"booth_name":"Govt Higher Primary School, Bekkare"},"geometry":{"type":"Point","coordinates":[76.0761642,12.4319468]}},{"type":"Feature","properties":{"state":"Karnataka","district":28,"district_n":"MYSORE","pc":21,"pc_name":"Mysore","ac":210,"ac_name":"Periyapatna","booth":116,"booth_name":"Govt Higher Primary School Ponadahalli"},"geometry":{"type":"Point","coordinates":[76.04604,12.3968239]}},{"type":"Feature","properties":{"state":"Karnataka","district":28,"district_n":"MYSORE","pc":21,"pc_name":"Mysore","ac":210,"ac_name":"Periyapatna","booth":83,"booth_name":"Govt Higher Primary School(left Side) Bhuvanahalli"},"geometry":{"type":"Point","coordinates":[76.08727,12.4430122]}},{"type":"Feature","properties":{"state":"Karnataka","district":28,"district_n":"MYSORE","pc":21,"pc_name":"Mysore","ac":210,"ac_name":"Periyapatna","booth":115,"booth_name":"Govt Lower Primary School P P Basavanahalli"},"geometry":{"type":"Point","coordinates":[76.04686,12.4133205]}},{"type":"Feature","properties":{"state":"Karnataka","district":28,"district_n":"MYSORE","pc":21,"pc_name":"Mysore","ac":210,"ac_name":"Periyapatna","booth":140,"booth_name":"Govt Higher Primary School (westwing) Hitnehebbagilu"},"geometry":{"type":"Point","coordinates":[76.10359,12.3898163]}},{"type":"Feature","properties":{"state":"Karnataka","district":28,"district_n":"MYSORE","pc":21,"pc_name":"Mysore","ac":210,"ac_name":"Periyapatna","booth":107,"booth_name":"Govt Higher Primary School, (south Wing) New Building Building Bailakuppe"},"geometry":{"type":"Point","coordinates":[75.99608,12.4296885]}},{"type":"Feature","properties":{"state":"Karnataka","district":28,"district_n":"MYSORE","pc":21,"pc_name":"Mysore","ac":210,"ac_name":"Periyapatna","booth":1,"booth_name":"Govt Govt Higher Primary School ( New Building)kanagalu"},"geometry":{"type":"Point","coordinates":[76.02417,12.5606947]}},{"type":"Feature","properties":{"state":"Karnataka","district":28,"district_n":"MYSORE","pc":21,"pc_name":"Mysore","ac":210,"ac_name":"Periyapatna","booth":96,"booth_name":"Govt Urdu Boys Higher Primary School, (right Side) Arenahalli"},"geometry":{"type":"Point","coordinates":[76.17954,12.4169693]}},{"type":"Feature","properties":{"state":"Karnataka","district":28,"district_n":"MYSORE","pc":21,"pc_name":"Mysore","ac":210,"ac_name":"Periyapatna","booth":2,"booth_name":"Govt Govt Higher Primary School(oldbuilding),left Side Kanagalu"},"geometry":{"type":"Point","coordinates":[76.02417,12.5605421]}},{"type":"Feature","properties":{"state":"Karnataka","district":28,"district_n":"MYSORE","pc":21,"pc_name":"Mysore","ac":210,"ac_name":"Periyapatna","booth":78,"booth_name":"Govt higher primary school Doddahonnuru"},"geometry":{"type":"Point","coordinates":[76.00471,12.4421606]}},{"type":"Feature","properties":{"state":"Karnataka","district":28,"district_n":"MYSORE","pc":21,"pc_name":"Mysore","ac":210,"ac_name":"Periyapatna","booth":147,"booth_name":"Govt Higher Primary School (east Wing) Alanahalli"},"geometry":{"type":"Point","coordinates":[76.01201,12.3807392]}},{"type":"Feature","properties":{"state":"Karnataka","district":28,"district_n":"MYSORE","pc":21,"pc_name":"Mysore","ac":210,"ac_name":"Periyapatna","booth":47,"booth_name":"Govt Govt Prie Univercity College(left Side) kithuru"},"geometry":{"type":"Point","coordinates":[76.21057,12.49616]}},{"type":"Feature","properties":{"state":"Karnataka","district":28,"district_n":"MYSORE","pc":21,"pc_name":"Mysore","ac":210,"ac_name":"Periyapatna","booth":65,"booth_name":"Govt Lower Primary School, Tharikal (a K Coloney)"},"geometry":{"type":"Point","coordinates":[76.05823,12.4690142]}},{"type":"Feature","properties":{"state":"Karnataka","district":28,"district_n":"MYSORE","pc":21,"pc_name":"Mysore","ac":210,"ac_name":"Periyapatna","booth":66,"booth_name":"Govt Lower Primary School Doddanerale"},"geometry":{"type":"Point","coordinates":[76.03595,12.4754858]}},{"type":"Feature","properties":{"state":"Karnataka","district":28,"district_n":"MYSORE","pc":21,"pc_name":"Mysore","ac":210,"ac_name":"Periyapatna","booth":58,"booth_name":"Govt Higher Primary School, Bettadathunga"},"geometry":{"type":"Point","coordinates":[76.13394,12.4610043]}},{"type":"Feature","properties":{"state":"Karnataka","district":28,"district_n":"MYSORE","pc":21,"pc_name":"Mysore","ac":210,"ac_name":"Periyapatna","booth":55,"booth_name":"Govt Lower Primary School Kelaganahalli"},"geometry":{"type":"Point","coordinates":[76.16362,12.4507189]}},{"type":"Feature","properties":{"state":"Karnataka","district":28,"district_n":"MYSORE","pc":21,"pc_name":"Mysore","ac":210,"ac_name":"Periyapatna","booth":35,"booth_name":"Govt Higher Primary School Chikkanerale"},"geometry":{"type":"Point","coordinates":[76.04804,12.4775648]}},{"type":"Feature","properties":{"state":"Karnataka","district":28,"district_n":"MYSORE","pc":21,"pc_name":"Mysore","ac":210,"ac_name":"Periyapatna","booth":172,"booth_name":"Govt Urdu Higher Primary School (north Wing) Piriyapattana"},"geometry":{"type":"Point","coordinates":[76.1034241,12.3358555]}},{"type":"Feature","properties":{"state":"Karnataka","district":28,"district_n":"MYSORE","pc":21,"pc_name":"Mysore","ac":210,"ac_name":"Periyapatna","booth":174,"booth_name":"Govt Higher Primary School (south Wing), Vydeshwara Vydeshwara Swamy temple Behind, Kote Kote Piriyapattana"},"geometry":{"type":"Point","coordinates":[76.085,12.3401623]}},{"type":"Feature","properties":{"state":"Karnataka","district":28,"district_n":"MYSORE","pc":21,"pc_name":"Mysore","ac":210,"ac_name":"Periyapatna","booth":175,"booth_name":"Govt High School B M Road Priyapattana"},"geometry":{"type":"Point","coordinates":[76.09687,12.3374367]}},{"type":"Feature","properties":{"state":"Karnataka","district":28,"district_n":"MYSORE","pc":21,"pc_name":"Mysore","ac":210,"ac_name":"Periyapatna","booth":173,"booth_name":"Govt Girls Higher Primary School, Pete Pete Piriyapattana"},"geometry":{"type":"Point","coordinates":[76.10226,12.3364849]}},{"type":"Feature","properties":{"state":"Karnataka","district":28,"district_n":"MYSORE","pc":21,"pc_name":"Mysore","ac":210,"ac_name":"Periyapatna","booth":4,"booth_name":"Govt Higher Primary School ,manuganahalli"},"geometry":{"type":"Point","coordinates":[76.03795,12.5672617]}},{"type":"Feature","properties":{"state":"Karnataka","district":28,"district_n":"MYSORE","pc":21,"pc_name":"Mysore","ac":210,"ac_name":"Periyapatna","booth":15,"booth_name":"Govt Lower Primary School ,mudalakoppalu"},"geometry":{"type":"Point","coordinates":[76.19217,12.4939957]}},{"type":"Feature","properties":{"state":"Karnataka","district":28,"district_n":"MYSORE","pc":21,"pc_name":"Mysore","ac":210,"ac_name":"Periyapatna","booth":64,"booth_name":"Govt Lower Primary School Vaderahosahalli"},"geometry":{"type":"Point","coordinates":[76.0517654,12.4641314]}},{"type":"Feature","properties":{"state":"Karnataka","district":28,"district_n":"MYSORE","pc":21,"pc_name":"Mysore","ac":210,"ac_name":"Periyapatna","booth":56,"booth_name":"Govt Lower Primary School Doddegowdanakoppalu"},"geometry":{"type":"Point","coordinates":[76.12749,12.4763107]}},{"type":"Feature","properties":{"state":"Karnataka","district":28,"district_n":"MYSORE","pc":21,"pc_name":"Mysore","ac":210,"ac_name":"Periyapatna","booth":59,"booth_name":"Govt Lower Primary School School Alpanayakanahalli"},"geometry":{"type":"Point","coordinates":[76.08732,12.4881668]}},{"type":"Feature","properties":{"state":"Karnataka","district":28,"district_n":"MYSORE","pc":21,"pc_name":"Mysore","ac":210,"ac_name":"Periyapatna","booth":62,"booth_name":"Govt Higher Primary School Salukoppalu"},"geometry":{"type":"Point","coordinates":[76.06912,12.456707]}},{"type":"Feature","properties":{"state":"Karnataka","district":28,"district_n":"MYSORE","pc":21,"pc_name":"Mysore","ac":210,"ac_name":"Periyapatna","booth":187,"booth_name":"Govt Higher Primary School Hunasekuppe"},"geometry":{"type":"Point","coordinates":[76.11319,12.3110466]}},{"type":"Feature","properties":{"state":"Karnataka","district":28,"district_n":"MYSORE","pc":21,"pc_name":"Mysore","ac":210,"ac_name":"Periyapatna","booth":190,"booth_name":"Govt Higher Primary School, (new Buliding) Sathyagala"},"geometry":{"type":"Point","coordinates":[76.13713,12.306201]}},{"type":"Feature","properties":{"state":"Karnataka","district":28,"district_n":"MYSORE","pc":21,"pc_name":"Mysore","ac":210,"ac_name":"Periyapatna","booth":193,"booth_name":"Govt Lower Primary School Ittagalli"},"geometry":{"type":"Point","coordinates":[76.14766,12.284749]}},{"type":"Feature","properties":{"state":"Karnataka","district":28,"district_n":"MYSORE","pc":21,"pc_name":"Mysore","ac":210,"ac_name":"Periyapatna","booth":181,"booth_name":"Govt Higher Primary School Piriyapattana"},"geometry":{"type":"Point","coordinates":[76.08312,12.3372068]}},{"type":"Feature","properties":{"state":"Karnataka","district":28,"district_n":"MYSORE","pc":21,"pc_name":"Mysore","ac":210,"ac_name":"Periyapatna","booth":201,"booth_name":"Govt Higher Primary School (old Building)(right Side) Muthuru"},"geometry":{"type":"Point","coordinates":[76.0319,12.3274727]}},{"type":"Feature","properties":{"state":"Karnataka","district":28,"district_n":"MYSORE","pc":21,"pc_name":"Mysore","ac":210,"ac_name":"Periyapatna","booth":204,"booth_name":"Govt Higher Primary School Chowthi"},"geometry":{"type":"Point","coordinates":[76.053215,12.3080311]}},{"type":"Feature","properties":{"state":"Karnataka","district":28,"district_n":"MYSORE","pc":21,"pc_name":"Mysore","ac":210,"ac_name":"Periyapatna","booth":207,"booth_name":"Govt Higher Primary School Malangi"},"geometry":{"type":"Point","coordinates":[76.0985,12.28165]}},{"type":"Feature","properties":{"state":"Karnataka","district":28,"district_n":"MYSORE","pc":21,"pc_name":"Mysore","ac":210,"ac_name":"Periyapatna","booth":210,"booth_name":"Govt Higher Primary School Muddanahalli"},"geometry":{"type":"Point","coordinates":[76.11181,12.2706823]}},{"type":"Feature","properties":{"state":"Karnataka","district":28,"district_n":"MYSORE","pc":21,"pc_name":"Mysore","ac":210,"ac_name":"Periyapatna","booth":139,"booth_name":"Govt Lower Primary School Harave Mallarajapattana"},"geometry":{"type":"Point","coordinates":[76.09787,12.3531427]}},{"type":"Feature","properties":{"state":"Karnataka","district":28,"district_n":"MYSORE","pc":21,"pc_name":"Mysore","ac":210,"ac_name":"Periyapatna","booth":145,"booth_name":"Govt Lower Primary School Mallinathapura"},"geometry":{"type":"Point","coordinates":[76.04746,12.3712969]}},{"type":"Feature","properties":{"state":"Karnataka","district":28,"district_n":"MYSORE","pc":21,"pc_name":"Mysore","ac":210,"ac_name":"Periyapatna","booth":188,"booth_name":"Govt Higher Primary School Mummadikavalu"},"geometry":{"type":"Point","coordinates":[76.09533,12.2961674]}},{"type":"Feature","properties":{"state":"Karnataka","district":28,"district_n":"MYSORE","pc":21,"pc_name":"Mysore","ac":210,"ac_name":"Periyapatna","booth":196,"booth_name":"Govt Higher Primary School Habatooru"},"geometry":{"type":"Point","coordinates":[76.07659,12.3058748]}},{"type":"Feature","properties":{"state":"Karnataka","district":28,"district_n":"MYSORE","pc":21,"pc_name":"Mysore","ac":210,"ac_name":"Periyapatna","booth":199,"booth_name":"Govt Govt Higher Primary School New Building Muthuru"},"geometry":{"type":"Point","coordinates":[76.032,12.3274736]}},{"type":"Feature","properties":{"state":"Karnataka","district":28,"district_n":"MYSORE","pc":21,"pc_name":"Mysore","ac":210,"ac_name":"Periyapatna","booth":179,"booth_name":"Govt Higher Priamry School, (north Wing) Behind Vaidyeshwara Swamy Swamy Temple Kote Piriyapattna"},"geometry":{"type":"Point","coordinates":[76.08766,12.3396082]}},{"type":"Feature","properties":{"state":"Karnataka","district":28,"district_n":"MYSORE","pc":21,"pc_name":"Mysore","ac":210,"ac_name":"Periyapatna","booth":182,"booth_name":"Govt Lower Primary School Channenahalli"},"geometry":{"type":"Point","coordinates":[76.06642,12.349987]}},{"type":"Feature","properties":{"state":"Karnataka","district":28,"district_n":"MYSORE","pc":21,"pc_name":"Mysore","ac":210,"ac_name":"Periyapatna","booth":202,"booth_name":"Govt Lower Primary School Naralaapura"},"geometry":{"type":"Point","coordinates":[76.03466,12.3492537]}},{"type":"Feature","properties":{"state":"Karnataka","district":28,"district_n":"MYSORE","pc":21,"pc_name":"Mysore","ac":210,"ac_name":"Periyapatna","booth":135,"booth_name":"Govt Higher Primary School Sundavalu (left Side)"},"geometry":{"type":"Point","coordinates":[76.13523,12.3645935]}},{"type":"Feature","properties":{"state":"Karnataka","district":28,"district_n":"MYSORE","pc":21,"pc_name":"Mysore","ac":210,"ac_name":"Periyapatna","booth":121,"booth_name":"Govt Lower Primary School Sanyasipura"},"geometry":{"type":"Point","coordinates":[76.12132,12.3843393]}},{"type":"Feature","properties":{"state":"Karnataka","district":28,"district_n":"MYSORE","pc":21,"pc_name":"Mysore","ac":210,"ac_name":"Periyapatna","booth":113,"booth_name":"Govt Higher Primary School (north Wing) Doddahosuru"},"geometry":{"type":"Point","coordinates":[75.9513855,12.4411869]}},{"type":"Feature","properties":{"state":"Karnataka","district":28,"district_n":"MYSORE","pc":21,"pc_name":"Mysore","ac":210,"ac_name":"Periyapatna","booth":205,"booth_name":"Community Hall (new Building) Gonikoppa Road Bhoodithittu"},"geometry":{"type":"Point","coordinates":[76.0769,12.3058748]}},{"type":"Feature","properties":{"state":"Karnataka","district":28,"district_n":"MYSORE","pc":21,"pc_name":"Mysore","ac":210,"ac_name":"Periyapatna","booth":208,"booth_name":"Govt Higher Primary School Malangigomal"},"geometry":{"type":"Point","coordinates":[76.0992661,12.268712]}},{"type":"Feature","properties":{"state":"Karnataka","district":28,"district_n":"MYSORE","pc":21,"pc_name":"Mysore","ac":210,"ac_name":"Periyapatna","booth":9,"booth_name":"Government Higher Primary School School Suragalli"},"geometry":{"type":"Point","coordinates":[76.08698,12.5144739]}},{"type":"Feature","properties":{"state":"Karnataka","district":28,"district_n":"MYSORE","pc":21,"pc_name":"Mysore","ac":210,"ac_name":"Periyapatna","booth":11,"booth_name":"Government Higher Primary School Harinahalli"},"geometry":{"type":"Point","coordinates":[76.13758,12.5112591]}},{"type":"Feature","properties":{"state":"Karnataka","district":28,"district_n":"MYSORE","pc":21,"pc_name":"Mysore","ac":210,"ac_name":"Periyapatna","booth":10,"booth_name":"Govt Higher Primary School Anivalu"},"geometry":{"type":"Point","coordinates":[76.12004,12.5105562]}},{"type":"Feature","properties":{"state":"Karnataka","district":28,"district_n":"MYSORE","pc":21,"pc_name":"Mysore","ac":210,"ac_name":"Periyapatna","booth":142,"booth_name":"Govt Higher Primary School (west Wing)(new Building) Hitnehebbagilu"},"geometry":{"type":"Point","coordinates":[76.10364,12.3898163]}},{"type":"Feature","properties":{"state":"Karnataka","district":28,"district_n":"MYSORE","pc":21,"pc_name":"Mysore","ac":210,"ac_name":"Periyapatna","booth":36,"booth_name":"Govt Lower Primary School Hasuvinakavalu"},"geometry":{"type":"Point","coordinates":[76.0663452,12.481616]}},{"type":"Feature","properties":{"state":"Karnataka","district":28,"district_n":"MYSORE","pc":21,"pc_name":"Mysore","ac":210,"ac_name":"Periyapatna","booth":81,"booth_name":"Govt higher primary school Joganahalli"},"geometry":{"type":"Point","coordinates":[76.07195,12.4484978]}},{"type":"Feature","properties":{"state":"Karnataka","district":28,"district_n":"MYSORE","pc":21,"pc_name":"Mysore","ac":210,"ac_name":"Periyapatna","booth":120,"booth_name":"Govt Lower Primary School Hitanahalli"},"geometry":{"type":"Point","coordinates":[76.10349,12.40025]}},{"type":"Feature","properties":{"state":"Karnataka","district":28,"district_n":"MYSORE","pc":21,"pc_name":"Mysore","ac":210,"ac_name":"Periyapatna","booth":41,"booth_name":"Govt Pre University College(new Building) Bettadapura"},"geometry":{"type":"Point","coordinates":[76.10254,12.4682379]}},{"type":"Feature","properties":{"state":"Karnataka","district":28,"district_n":"MYSORE","pc":21,"pc_name":"Mysore","ac":210,"ac_name":"Periyapatna","booth":118,"booth_name":"Govt Higher Primary School(right Side) Komalapura"},"geometry":{"type":"Point","coordinates":[76.07636,12.4108791]}},{"type":"Feature","properties":{"state":"Karnataka","district":28,"district_n":"MYSORE","pc":21,"pc_name":"Mysore","ac":210,"ac_name":"Periyapatna","booth":72,"booth_name":"Govt Lower Primary School Dindugadu"},"geometry":{"type":"Point","coordinates":[75.96408,12.4898529]}},{"type":"Feature","properties":{"state":"Karnataka","district":28,"district_n":"MYSORE","pc":21,"pc_name":"Mysore","ac":210,"ac_name":"Periyapatna","booth":74,"booth_name":"Govt Higher Primary School Avarthi"},"geometry":{"type":"Point","coordinates":[75.97745,12.458189]}},{"type":"Feature","properties":{"state":"Karnataka","district":28,"district_n":"MYSORE","pc":21,"pc_name":"Mysore","ac":210,"ac_name":"Periyapatna","booth":32,"booth_name":"Govt Higher Primary School Kambipura"},"geometry":{"type":"Point","coordinates":[76.0266953,12.5300341]}},{"type":"Feature","properties":{"state":"Karnataka","district":28,"district_n":"MYSORE","pc":21,"pc_name":"Mysore","ac":210,"ac_name":"Periyapatna","booth":75,"booth_name":"Govt Higher Primary School Benagalu"},"geometry":{"type":"Point","coordinates":[75.99882,12.4694481]}},{"type":"Feature","properties":{"state":"Karnataka","district":28,"district_n":"MYSORE","pc":21,"pc_name":"Mysore","ac":210,"ac_name":"Periyapatna","booth":130,"booth_name":"Govt Higher Primary School Malanakere"},"geometry":{"type":"Point","coordinates":[76.2229843,12.3869362]}},{"type":"Feature","properties":{"state":"Karnataka","district":28,"district_n":"MYSORE","pc":21,"pc_name":"Mysore","ac":210,"ac_name":"Periyapatna","booth":45,"booth_name":"Govt Higher Primary School Vaddarahalli"},"geometry":{"type":"Point","coordinates":[76.1757355,12.4791212]}},{"type":"Feature","properties":{"state":"Karnataka","district":28,"district_n":"MYSORE","pc":21,"pc_name":"Mysore","ac":210,"ac_name":"Periyapatna","booth":71,"booth_name":"Govt Higher Primary School Doddakamaravalli"},"geometry":{"type":"Point","coordinates":[75.9762,12.5105076]}},{"type":"Feature","properties":{"state":"Karnataka","district":28,"district_n":"MYSORE","pc":21,"pc_name":"Mysore","ac":210,"ac_name":"Periyapatna","booth":13,"booth_name":"Government Higher Primary School Sangarashattahalli"},"geometry":{"type":"Point","coordinates":[76.15437,12.5096006]}},{"type":"Feature","properties":{"state":"Karnataka","district":28,"district_n":"MYSORE","pc":21,"pc_name":"Mysore","ac":210,"ac_name":"Periyapatna","booth":30,"booth_name":"Govt Higher Primary School Shyanuboganahalli"},"geometry":{"type":"Point","coordinates":[75.99422,12.5171633]}},{"type":"Feature","properties":{"state":"Karnataka","district":28,"district_n":"MYSORE","pc":21,"pc_name":"Mysore","ac":210,"ac_name":"Periyapatna","booth":39,"booth_name":"Govt Pre Pre university College (south Wing)bettadapura"},"geometry":{"type":"Point","coordinates":[76.10246,12.46802]}},{"type":"Feature","properties":{"state":"Karnataka","district":28,"district_n":"MYSORE","pc":21,"pc_name":"Mysore","ac":210,"ac_name":"Periyapatna","booth":19,"booth_name":"Govt Lower Primary School Naganahalli"},"geometry":{"type":"Point","coordinates":[76.1262,12.4868116]}},{"type":"Feature","properties":{"state":"Karnataka","district":28,"district_n":"MYSORE","pc":21,"pc_name":"Mysore","ac":210,"ac_name":"Periyapatna","booth":22,"booth_name":"Govt Higher Primary School (left side) Chapparadahalli"},"geometry":{"type":"Point","coordinates":[76.05405,12.50401]}},{"type":"Feature","properties":{"state":"Karnataka","district":28,"district_n":"MYSORE","pc":21,"pc_name":"Mysore","ac":210,"ac_name":"Periyapatna","booth":33,"booth_name":"Govt Higher Primary School Amblare"},"geometry":{"type":"Point","coordinates":[76.02043,12.503417]}},{"type":"Feature","properties":{"state":"Karnataka","district":28,"district_n":"MYSORE","pc":21,"pc_name":"Mysore","ac":210,"ac_name":"Periyapatna","booth":3,"booth_name":"Govt Govt Higher Primary School ( Old Building)right Side Side Kanagalu"},"geometry":{"type":"Point","coordinates":[76.02427,12.5605364]}},{"type":"Feature","properties":{"state":"Karnataka","district":28,"district_n":"MYSORE","pc":21,"pc_name":"Mysore","ac":210,"ac_name":"Periyapatna","booth":105,"booth_name":"Govt Higher Primary School Manchedevanahalli"},"geometry":{"type":"Point","coordinates":[76.00997,12.408967]}},{"type":"Feature","properties":{"state":"Karnataka","district":28,"district_n":"MYSORE","pc":21,"pc_name":"Mysore","ac":210,"ac_name":"Periyapatna","booth":42,"booth_name":"Govt Higher Primary School Bettadapura"},"geometry":{"type":"Point","coordinates":[76.10297,12.4678011]}},{"type":"Feature","properties":{"state":"Karnataka","district":28,"district_n":"MYSORE","pc":21,"pc_name":"Mysore","ac":210,"ac_name":"Periyapatna","booth":93,"booth_name":"Govt Higher Primary School(left Side) Handitahalli"},"geometry":{"type":"Point","coordinates":[76.21223,12.4546967]}},{"type":"Feature","properties":{"state":"Karnataka","district":28,"district_n":"MYSORE","pc":21,"pc_name":"Mysore","ac":210,"ac_name":"Periyapatna","booth":79,"booth_name":"Govt higher primary school Konasuru"},"geometry":{"type":"Point","coordinates":[76.0573349,12.4431906]}}]}