{"type":"FeatureCollection","features":[{"type":"Feature","properties":{"state":"Karnataka","district":28,"district_n":"MYSORE","pc":22,"pc_name":"Chamarajanagar","ac":214,"ac_name":"Nanjangud","booth":5,"booth_name":"Government Lower Primary School,huchagani"},"geometry":{"type":"Point","coordinates":[76.46622,12.0998859]}},{"type":"Feature","properties":{"state":"Karnataka","district":28,"district_n":"MYSORE","pc":22,"pc_name":"Chamarajanagar","ac":214,"ac_name":"Nanjangud","booth":8,"booth_name":"Grama Panchayath Office, Hullahalli"},"geometry":{"type":"Point","coordinates":[76.55706,12.097187]}},{"type":"Feature","properties":{"state":"Karnataka","district":28,"district_n":"MYSORE","pc":22,"pc_name":"Chamarajanagar","ac":214,"ac_name":"Nanjangud","booth":10,"booth_name":"J S S Pre University college (building 2) 2) Hullahalli"},"geometry":{"type":"Point","coordinates":[76.55362,12.0942764]}},{"type":"Feature","properties":{"state":"Karnataka","district":28,"district_n":"MYSORE","pc":22,"pc_name":"Chamarajanagar","ac":214,"ac_name":"Nanjangud","booth":11,"booth_name":"Government Government Higher Primary Primary School, (room 1) S C Colony Colony Hullhalli"},"geometry":{"type":"Point","coordinates":[76.55414,12.098218]}},{"type":"Feature","properties":{"state":"Karnataka","district":28,"district_n":"MYSORE","pc":22,"pc_name":"Chamarajanagar","ac":214,"ac_name":"Nanjangud","booth":13,"booth_name":"Government Girls Higher Primary School,hullhally"},"geometry":{"type":"Point","coordinates":[76.55442,12.0984783]}},{"type":"Feature","properties":{"state":"Karnataka","district":28,"district_n":"MYSORE","pc":22,"pc_name":"Chamarajanagar","ac":214,"ac_name":"Nanjangud","booth":16,"booth_name":"Government Higher Primary School, (right (right Wing),heggadahally"},"geometry":{"type":"Point","coordinates":[76.60215,12.1051264]}},{"type":"Feature","properties":{"state":"Karnataka","district":28,"district_n":"MYSORE","pc":22,"pc_name":"Chamarajanagar","ac":214,"ac_name":"Nanjangud","booth":19,"booth_name":"Govt Lower Primary School, Kongahalli"},"geometry":{"type":"Point","coordinates":[76.58735,12.1085768]}},{"type":"Feature","properties":{"state":"Karnataka","district":28,"district_n":"MYSORE","pc":22,"pc_name":"Chamarajanagar","ac":214,"ac_name":"Nanjangud","booth":22,"booth_name":"Govt Higher Priamry School Building 1(room 1) Debur"},"geometry":{"type":"Point","coordinates":[76.64322,12.119092]}},{"type":"Feature","properties":{"state":"Karnataka","district":28,"district_n":"MYSORE","pc":22,"pc_name":"Chamarajanagar","ac":214,"ac_name":"Nanjangud","booth":25,"booth_name":"Govt Higher Primary School, Kallahalli"},"geometry":{"type":"Point","coordinates":[76.65578,12.136528]}},{"type":"Feature","properties":{"state":"Karnataka","district":28,"district_n":"MYSORE","pc":22,"pc_name":"Chamarajanagar","ac":214,"ac_name":"Nanjangud","booth":27,"booth_name":"Anganavadi Kendra,kathwadipur"},"geometry":{"type":"Point","coordinates":[76.67349,12.1439934]}},{"type":"Feature","properties":{"state":"Karnataka","district":28,"district_n":"MYSORE","pc":22,"pc_name":"Chamarajanagar","ac":214,"ac_name":"Nanjangud","booth":28,"booth_name":"Govt Higher Priamry School, (room No ),halldakeri Nanjanagud Town"},"geometry":{"type":"Point","coordinates":[76.69444,12.116334]}},{"type":"Feature","properties":{"state":"Karnataka","district":28,"district_n":"MYSORE","pc":22,"pc_name":"Chamarajanagar","ac":214,"ac_name":"Nanjangud","booth":30,"booth_name":"Old Taluk Taluk Office Building (survey), Nanjanagudutown"},"geometry":{"type":"Point","coordinates":[76.6917648,12.1197567]}},{"type":"Feature","properties":{"state":"Karnataka","district":28,"district_n":"MYSORE","pc":22,"pc_name":"Chamarajanagar","ac":214,"ac_name":"Nanjangud","booth":31,"booth_name":"Govt Lower Primary School, New Building Rajaji Colony, Nanjanagudtown"},"geometry":{"type":"Point","coordinates":[76.68698,12.115921]}},{"type":"Feature","properties":{"state":"Karnataka","district":28,"district_n":"MYSORE","pc":22,"pc_name":"Chamarajanagar","ac":214,"ac_name":"Nanjangud","booth":33,"booth_name":"Old Taluk Office Building (treasury Office), Nanjanagudutown"},"geometry":{"type":"Point","coordinates":[76.69188,12.1198015]}},{"type":"Feature","properties":{"state":"Karnataka","district":28,"district_n":"MYSORE","pc":22,"pc_name":"Chamarajanagar","ac":214,"ac_name":"Nanjangud","booth":42,"booth_name":"Nagamma Higher Primary School, Nanjanagudu Town"},"geometry":{"type":"Point","coordinates":[76.68465,12.1198368]}},{"type":"Feature","properties":{"state":"Karnataka","district":28,"district_n":"MYSORE","pc":22,"pc_name":"Chamarajanagar","ac":214,"ac_name":"Nanjangud","booth":45,"booth_name":"Govt Girls High School, (govt Girls Juniour College) (room No No 2 ), Nanjanagudu Town"},"geometry":{"type":"Point","coordinates":[76.68096,12.1194744]}},{"type":"Feature","properties":{"state":"Karnataka","district":28,"district_n":"MYSORE","pc":22,"pc_name":"Chamarajanagar","ac":214,"ac_name":"Nanjangud","booth":47,"booth_name":"P W D D Office, (left wing) Ooty Road, Nanjanagudu Town"},"geometry":{"type":"Point","coordinates":[76.67528,12.120182]}},{"type":"Feature","properties":{"state":"Karnataka","district":28,"district_n":"MYSORE","pc":22,"pc_name":"Chamarajanagar","ac":214,"ac_name":"Nanjangud","booth":48,"booth_name":"P W D D Office, (right Wing) Ooty Road, Nanjanagudu Town"},"geometry":{"type":"Point","coordinates":[76.67527,12.1201439]}},{"type":"Feature","properties":{"state":"Karnataka","district":28,"district_n":"MYSORE","pc":22,"pc_name":"Chamarajanagar","ac":214,"ac_name":"Nanjangud","booth":51,"booth_name":"Govt Juniour College( Room No 2) 2) Front Building, Nanjanagudu Town"},"geometry":{"type":"Point","coordinates":[76.67544,12.1181936]}},{"type":"Feature","properties":{"state":"Karnataka","district":28,"district_n":"MYSORE","pc":22,"pc_name":"Chamarajanagar","ac":214,"ac_name":"Nanjangud","booth":53,"booth_name":"Govt Juniour College ( Room No 1 ) ) Behind Behind Building, Nanjanagudu Town"},"geometry":{"type":"Point","coordinates":[76.67596,12.11821]}},{"type":"Feature","properties":{"state":"Karnataka","district":28,"district_n":"MYSORE","pc":22,"pc_name":"Chamarajanagar","ac":214,"ac_name":"Nanjangud","booth":54,"booth_name":"Govt Junior College (room No 2) 2) 2) Behind Building, Nanjanagudu Town"},"geometry":{"type":"Point","coordinates":[76.67605,12.1178436]}},{"type":"Feature","properties":{"state":"Karnataka","district":28,"district_n":"MYSORE","pc":22,"pc_name":"Chamarajanagar","ac":214,"ac_name":"Nanjangud","booth":56,"booth_name":"Govt Higher School, (room No 1) Srirampura, Nanjanagudu Town"},"geometry":{"type":"Point","coordinates":[76.68151,12.1173315]}},{"type":"Feature","properties":{"state":"Karnataka","district":28,"district_n":"MYSORE","pc":22,"pc_name":"Chamarajanagar","ac":214,"ac_name":"Nanjangud","booth":50,"booth_name":"Govt Juniour College( Room No 1) 1) Front Building, Nanjanagudu Town"},"geometry":{"type":"Point","coordinates":[76.67538,12.11827]}},{"type":"Feature","properties":{"state":"Karnataka","district":28,"district_n":"MYSORE","pc":22,"pc_name":"Chamarajanagar","ac":214,"ac_name":"Nanjangud","booth":59,"booth_name":"Govt Higher Primary School, (room No 1) Ashokapuram, Nanjanagudu Town"},"geometry":{"type":"Point","coordinates":[76.681694,12.1219444]}},{"type":"Feature","properties":{"state":"Karnataka","district":28,"district_n":"MYSORE","pc":22,"pc_name":"Chamarajanagar","ac":214,"ac_name":"Nanjangud","booth":62,"booth_name":"Taluk Panchayath Office Building (room No 2), Nanjanagudu Town"},"geometry":{"type":"Point","coordinates":[76.67644,12.1304646]}},{"type":"Feature","properties":{"state":"Karnataka","district":28,"district_n":"MYSORE","pc":22,"pc_name":"Chamarajanagar","ac":214,"ac_name":"Nanjangud","booth":65,"booth_name":"Govt Higher Primary School, (left wing),mullur"},"geometry":{"type":"Point","coordinates":[76.71958,12.1321859]}},{"type":"Feature","properties":{"state":"Karnataka","district":28,"district_n":"MYSORE","pc":22,"pc_name":"Chamarajanagar","ac":214,"ac_name":"Nanjangud","booth":67,"booth_name":"Govt Higher Primary School, (room No 1), Horalavadi"},"geometry":{"type":"Point","coordinates":[76.73233,12.1349821]}},{"type":"Feature","properties":{"state":"Karnataka","district":28,"district_n":"MYSORE","pc":22,"pc_name":"Chamarajanagar","ac":214,"ac_name":"Nanjangud","booth":68,"booth_name":"Govt Higher Primary School, ( Room No 2) , Left Wing,horalavadi"},"geometry":{"type":"Point","coordinates":[76.73236,12.13507]}},{"type":"Feature","properties":{"state":"Karnataka","district":28,"district_n":"MYSORE","pc":22,"pc_name":"Chamarajanagar","ac":214,"ac_name":"Nanjangud","booth":70,"booth_name":"Govt Lower Primary School, Kullankanahundi"},"geometry":{"type":"Point","coordinates":[76.72855,12.1447392]}},{"type":"Feature","properties":{"state":"Karnataka","district":28,"district_n":"MYSORE","pc":22,"pc_name":"Chamarajanagar","ac":214,"ac_name":"Nanjangud","booth":71,"booth_name":"Govt Lower Primary School, (left Wing),veeradevanapura"},"geometry":{"type":"Point","coordinates":[76.73607,12.0778341]}},{"type":"Feature","properties":{"state":"Karnataka","district":28,"district_n":"MYSORE","pc":22,"pc_name":"Chamarajanagar","ac":214,"ac_name":"Nanjangud","booth":73,"booth_name":"Govt Higher Primary School,( Right Right Wing), Chinnadagudi Hundi"},"geometry":{"type":"Point","coordinates":[76.73144,12.0852509]}},{"type":"Feature","properties":{"state":"Karnataka","district":28,"district_n":"MYSORE","pc":22,"pc_name":"Chamarajanagar","ac":214,"ac_name":"Nanjangud","booth":74,"booth_name":"Govt Higher Primary School, (left Wing), Chinnadagudihundi"},"geometry":{"type":"Point","coordinates":[76.7315,12.0852413]}},{"type":"Feature","properties":{"state":"Karnataka","district":28,"district_n":"MYSORE","pc":22,"pc_name":"Chamarajanagar","ac":214,"ac_name":"Nanjangud","booth":79,"booth_name":"Govt Higher Primary Primary School, (room No) 2, Devarasanahalli"},"geometry":{"type":"Point","coordinates":[76.69139,12.0961657]}},{"type":"Feature","properties":{"state":"Karnataka","district":28,"district_n":"MYSORE","pc":22,"pc_name":"Chamarajanagar","ac":214,"ac_name":"Nanjangud","booth":82,"booth_name":"Govt Higher Priamry School, Devirammanahalli"},"geometry":{"type":"Point","coordinates":[76.66553,12.1050158]}},{"type":"Feature","properties":{"state":"Karnataka","district":28,"district_n":"MYSORE","pc":22,"pc_name":"Chamarajanagar","ac":214,"ac_name":"Nanjangud","booth":76,"booth_name":"Govt Higher Primary School,(building No 1)(left Wing)goluru"},"geometry":{"type":"Point","coordinates":[76.70171,12.1133175]}},{"type":"Feature","properties":{"state":"Karnataka","district":28,"district_n":"MYSORE","pc":22,"pc_name":"Chamarajanagar","ac":214,"ac_name":"Nanjangud","booth":85,"booth_name":"Govt Higher Primary School, Inside Compound, Hosahalli"},"geometry":{"type":"Point","coordinates":[76.67731,12.0905561]}},{"type":"Feature","properties":{"state":"Karnataka","district":28,"district_n":"MYSORE","pc":22,"pc_name":"Chamarajanagar","ac":214,"ac_name":"Nanjangud","booth":87,"booth_name":"Govt Higher Primary School, (north Wing) Karlapura"},"geometry":{"type":"Point","coordinates":[76.6569443,12.08495]}},{"type":"Feature","properties":{"state":"Karnataka","district":28,"district_n":"MYSORE","pc":22,"pc_name":"Chamarajanagar","ac":214,"ac_name":"Nanjangud","booth":90,"booth_name":"Govt Higher Primary School, ( North wing) Shiramalli"},"geometry":{"type":"Point","coordinates":[76.57468,12.0912418]}},{"type":"Feature","properties":{"state":"Karnataka","district":28,"district_n":"MYSORE","pc":22,"pc_name":"Chamarajanagar","ac":214,"ac_name":"Nanjangud","booth":93,"booth_name":"Govt Higher Primary School (right wing) Kurihundi"},"geometry":{"type":"Point","coordinates":[76.5368042,12.069561]}},{"type":"Feature","properties":{"state":"Karnataka","district":28,"district_n":"MYSORE","pc":22,"pc_name":"Chamarajanagar","ac":214,"ac_name":"Nanjangud","booth":96,"booth_name":"Govt Higher Primary School (left wing) Tharaganahalli"},"geometry":{"type":"Point","coordinates":[76.51685,12.0705948]}},{"type":"Feature","properties":{"state":"Karnataka","district":28,"district_n":"MYSORE","pc":22,"pc_name":"Chamarajanagar","ac":214,"ac_name":"Nanjangud","booth":94,"booth_name":"Govt Higher Primary School (left Wing) Kurihundi"},"geometry":{"type":"Point","coordinates":[76.53672,12.0694847]}},{"type":"Feature","properties":{"state":"Karnataka","district":28,"district_n":"MYSORE","pc":22,"pc_name":"Chamarajanagar","ac":214,"ac_name":"Nanjangud","booth":99,"booth_name":"Govt Higher Primary School, Madanahalli"},"geometry":{"type":"Point","coordinates":[76.4891739,12.0925188]}},{"type":"Feature","properties":{"state":"Karnataka","district":28,"district_n":"MYSORE","pc":22,"pc_name":"Chamarajanagar","ac":214,"ac_name":"Nanjangud","booth":102,"booth_name":"Govt Higher Primary School, Allayahanapura"},"geometry":{"type":"Point","coordinates":[76.44316,12.0581541]}},{"type":"Feature","properties":{"state":"Karnataka","district":28,"district_n":"MYSORE","pc":22,"pc_name":"Chamarajanagar","ac":214,"ac_name":"Nanjangud","booth":105,"booth_name":"Govt Higher Primary School Nellithalapura"},"geometry":{"type":"Point","coordinates":[76.49438,12.0626793]}},{"type":"Feature","properties":{"state":"Karnataka","district":28,"district_n":"MYSORE","pc":22,"pc_name":"Chamarajanagar","ac":214,"ac_name":"Nanjangud","booth":108,"booth_name":"Govt Lower Primary school Shettahalli"},"geometry":{"type":"Point","coordinates":[76.5158539,12.0419579]}},{"type":"Feature","properties":{"state":"Karnataka","district":28,"district_n":"MYSORE","pc":22,"pc_name":"Chamarajanagar","ac":214,"ac_name":"Nanjangud","booth":111,"booth_name":"Govt Higher Primary School(room No 1) Huskur"},"geometry":{"type":"Point","coordinates":[76.57931,12.0763187]}},{"type":"Feature","properties":{"state":"Karnataka","district":28,"district_n":"MYSORE","pc":22,"pc_name":"Chamarajanagar","ac":214,"ac_name":"Nanjangud","booth":137,"booth_name":"Govt Lower Primary School, ( New Building) Madarahalli"},"geometry":{"type":"Point","coordinates":[76.7146,12.0675983]}},{"type":"Feature","properties":{"state":"Karnataka","district":28,"district_n":"MYSORE","pc":22,"pc_name":"Chamarajanagar","ac":214,"ac_name":"Nanjangud","booth":142,"booth_name":"Govt Higher Primary School (left Wing) Muddahalli"},"geometry":{"type":"Point","coordinates":[76.6602249,12.05078]}},{"type":"Feature","properties":{"state":"Karnataka","district":28,"district_n":"MYSORE","pc":22,"pc_name":"Chamarajanagar","ac":214,"ac_name":"Nanjangud","booth":148,"booth_name":"Govt Higher Primary School, (room No) 2 2 New Building Haginavalu"},"geometry":{"type":"Point","coordinates":[76.63472,12.186677]}},{"type":"Feature","properties":{"state":"Karnataka","district":28,"district_n":"MYSORE","pc":22,"pc_name":"Chamarajanagar","ac":214,"ac_name":"Nanjangud","booth":157,"booth_name":"Govt Higher Primary School Navilur"},"geometry":{"type":"Point","coordinates":[76.64397,12.0424271]}},{"type":"Feature","properties":{"state":"Karnataka","district":28,"district_n":"MYSORE","pc":22,"pc_name":"Chamarajanagar","ac":214,"ac_name":"Nanjangud","booth":134,"booth_name":"Govt High School, School, Hedathale"},"geometry":{"type":"Point","coordinates":[76.74024,12.0543823]}},{"type":"Feature","properties":{"state":"Karnataka","district":28,"district_n":"MYSORE","pc":22,"pc_name":"Chamarajanagar","ac":214,"ac_name":"Nanjangud","booth":136,"booth_name":"Govt Higher Primary School (room No 2) Hedathale"},"geometry":{"type":"Point","coordinates":[76.73691,12.0509338]}},{"type":"Feature","properties":{"state":"Karnataka","district":28,"district_n":"MYSORE","pc":22,"pc_name":"Chamarajanagar","ac":214,"ac_name":"Nanjangud","booth":151,"booth_name":"Govt Higher Primary School (room No 1), Amble"},"geometry":{"type":"Point","coordinates":[76.58627,12.0397577]}},{"type":"Feature","properties":{"state":"Karnataka","district":28,"district_n":"MYSORE","pc":22,"pc_name":"Chamarajanagar","ac":214,"ac_name":"Nanjangud","booth":153,"booth_name":"Govt Higher Primary School, ( Room No 1) Surahalli"},"geometry":{"type":"Point","coordinates":[76.61759,12.0294056]}},{"type":"Feature","properties":{"state":"Karnataka","district":28,"district_n":"MYSORE","pc":22,"pc_name":"Chamarajanagar","ac":214,"ac_name":"Nanjangud","booth":24,"booth_name":"Govt Higher Priamry School, (room No 2) Deburu"},"geometry":{"type":"Point","coordinates":[76.64345,12.1191044]}},{"type":"Feature","properties":{"state":"Karnataka","district":28,"district_n":"MYSORE","pc":22,"pc_name":"Chamarajanagar","ac":214,"ac_name":"Nanjangud","booth":39,"booth_name":"Office of Assistant Executive Engineer Zilla Panchayath,nanjangudu Town"},"geometry":{"type":"Point","coordinates":[76.68397,12.1233244]}},{"type":"Feature","properties":{"state":"Karnataka","district":28,"district_n":"MYSORE","pc":22,"pc_name":"Chamarajanagar","ac":214,"ac_name":"Nanjangud","booth":159,"booth_name":"Govt Higher Primary School, New Building Kurahatti"},"geometry":{"type":"Point","coordinates":[76.6956,12.0349836]}},{"type":"Feature","properties":{"state":"Karnataka","district":28,"district_n":"MYSORE","pc":22,"pc_name":"Chamarajanagar","ac":214,"ac_name":"Nanjangud","booth":162,"booth_name":"Govt Higher Primary School, (north Wing) Hemmaragala"},"geometry":{"type":"Point","coordinates":[76.7347,12.0413618]}},{"type":"Feature","properties":{"state":"Karnataka","district":28,"district_n":"MYSORE","pc":22,"pc_name":"Chamarajanagar","ac":214,"ac_name":"Nanjangud","booth":165,"booth_name":"Govt Higher Primary School (building No No 1) (right wing)nerale"},"geometry":{"type":"Point","coordinates":[76.7606,12.0330162]}},{"type":"Feature","properties":{"state":"Karnataka","district":28,"district_n":"MYSORE","pc":22,"pc_name":"Chamarajanagar","ac":214,"ac_name":"Nanjangud","booth":168,"booth_name":"Govt H P School School (west Wing) (building (building (building 2)nerale"},"geometry":{"type":"Point","coordinates":[76.7602844,12.0326128]}},{"type":"Feature","properties":{"state":"Karnataka","district":28,"district_n":"MYSORE","pc":22,"pc_name":"Chamarajanagar","ac":214,"ac_name":"Nanjangud","booth":170,"booth_name":"Grama Panchayath Building Doddakowalande"},"geometry":{"type":"Point","coordinates":[76.7992859,12.0325794]}},{"type":"Feature","properties":{"state":"Karnataka","district":28,"district_n":"MYSORE","pc":22,"pc_name":"Chamarajanagar","ac":214,"ac_name":"Nanjangud","booth":171,"booth_name":"Govt Lower Primary School, Krishnarajapura"},"geometry":{"type":"Point","coordinates":[76.80568,12.0334215]}},{"type":"Feature","properties":{"state":"Karnataka","district":28,"district_n":"MYSORE","pc":22,"pc_name":"Chamarajanagar","ac":214,"ac_name":"Nanjangud","booth":173,"booth_name":"Govt Higher Primary School,(room No No 2) Gattavadi"},"geometry":{"type":"Point","coordinates":[76.7801,12.0176926]}},{"type":"Feature","properties":{"state":"Karnataka","district":28,"district_n":"MYSORE","pc":22,"pc_name":"Chamarajanagar","ac":214,"ac_name":"Nanjangud","booth":174,"booth_name":"Govt Higher Primary School, New Building (right Wing) Halepura"},"geometry":{"type":"Point","coordinates":[76.75776,12.0149822]}},{"type":"Feature","properties":{"state":"Karnataka","district":28,"district_n":"MYSORE","pc":22,"pc_name":"Chamarajanagar","ac":214,"ac_name":"Nanjangud","booth":176,"booth_name":"Govt Lower Primary School, New Building Hampapura"},"geometry":{"type":"Point","coordinates":[76.75131,12.0285492]}},{"type":"Feature","properties":{"state":"Karnataka","district":28,"district_n":"MYSORE","pc":22,"pc_name":"Chamarajanagar","ac":214,"ac_name":"Nanjangud","booth":177,"booth_name":"Govt Higher Primary School (south Wing) Mallahalli"},"geometry":{"type":"Point","coordinates":[76.73333,12.0149927]}},{"type":"Feature","properties":{"state":"Karnataka","district":28,"district_n":"MYSORE","pc":22,"pc_name":"Chamarajanagar","ac":214,"ac_name":"Nanjangud","booth":179,"booth_name":"Govt Higher Primary School, (south Wing) Kudalapura"},"geometry":{"type":"Point","coordinates":[76.71822,12.0107374]}},{"type":"Feature","properties":{"state":"Karnataka","district":28,"district_n":"MYSORE","pc":22,"pc_name":"Chamarajanagar","ac":214,"ac_name":"Nanjangud","booth":180,"booth_name":"Govt High school, (room No No 1)kudalapura"},"geometry":{"type":"Point","coordinates":[76.71822,12.0110579]}},{"type":"Feature","properties":{"state":"Karnataka","district":28,"district_n":"MYSORE","pc":22,"pc_name":"Chamarajanagar","ac":214,"ac_name":"Nanjangud","booth":182,"booth_name":"Govt Higher Primary School (south wing)hunasanalu"},"geometry":{"type":"Point","coordinates":[76.6924,12.0149984]}},{"type":"Feature","properties":{"state":"Karnataka","district":28,"district_n":"MYSORE","pc":22,"pc_name":"Chamarajanagar","ac":214,"ac_name":"Nanjangud","booth":185,"booth_name":"Govt Lower Primary School Siddaihanahundi"},"geometry":{"type":"Point","coordinates":[76.63428,12.0075512]}},{"type":"Feature","properties":{"state":"Karnataka","district":28,"district_n":"MYSORE","pc":22,"pc_name":"Chamarajanagar","ac":214,"ac_name":"Nanjangud","booth":188,"booth_name":"Govt Higher Primary (room No 2) Kasuvinahalli"},"geometry":{"type":"Point","coordinates":[76.62256,12.0172777]}},{"type":"Feature","properties":{"state":"Karnataka","district":28,"district_n":"MYSORE","pc":22,"pc_name":"Chamarajanagar","ac":214,"ac_name":"Nanjangud","booth":191,"booth_name":"Govt Higher Primary School ( Room No 2) Hallare"},"geometry":{"type":"Point","coordinates":[76.5870743,12.0224743]}},{"type":"Feature","properties":{"state":"Karnataka","district":28,"district_n":"MYSORE","pc":22,"pc_name":"Chamarajanagar","ac":214,"ac_name":"Nanjangud","booth":197,"booth_name":"Govt Higher Primary School Mudalahundi"},"geometry":{"type":"Point","coordinates":[76.51698,12.0145645]}},{"type":"Feature","properties":{"state":"Karnataka","district":28,"district_n":"MYSORE","pc":22,"pc_name":"Chamarajanagar","ac":214,"ac_name":"Nanjangud","booth":199,"booth_name":"Govt Higher Primary School, (left Wing) Ariyuru"},"geometry":{"type":"Point","coordinates":[76.50458,11.9940538]}},{"type":"Feature","properties":{"state":"Karnataka","district":28,"district_n":"MYSORE","pc":22,"pc_name":"Chamarajanagar","ac":214,"ac_name":"Nanjangud","booth":200,"booth_name":"Govt Higher Primary School, (room No 1) Hadaya"},"geometry":{"type":"Point","coordinates":[76.5281448,11.9930172]}},{"type":"Feature","properties":{"state":"Karnataka","district":28,"district_n":"MYSORE","pc":22,"pc_name":"Chamarajanagar","ac":214,"ac_name":"Nanjangud","booth":205,"booth_name":"Govt Lower Primary School, Depegowdanapura"},"geometry":{"type":"Point","coordinates":[76.58745,11.9867649]}},{"type":"Feature","properties":{"state":"Karnataka","district":28,"district_n":"MYSORE","pc":22,"pc_name":"Chamarajanagar","ac":214,"ac_name":"Nanjangud","booth":208,"booth_name":"Govt Higher Primary School Tharadale"},"geometry":{"type":"Point","coordinates":[76.71985,11.9996271]}},{"type":"Feature","properties":{"state":"Karnataka","district":28,"district_n":"MYSORE","pc":22,"pc_name":"Chamarajanagar","ac":214,"ac_name":"Nanjangud","booth":211,"booth_name":"Govt Higher Primary School (right side)gattavadipura"},"geometry":{"type":"Point","coordinates":[76.7791443,11.994278]}},{"type":"Feature","properties":{"state":"Karnataka","district":28,"district_n":"MYSORE","pc":22,"pc_name":"Chamarajanagar","ac":214,"ac_name":"Nanjangud","booth":216,"booth_name":"Govt Higher Primary School, (right Wing) Kandegal"},"geometry":{"type":"Point","coordinates":[76.5124054,11.9800663]}},{"type":"Feature","properties":{"state":"Karnataka","district":28,"district_n":"MYSORE","pc":22,"pc_name":"Chamarajanagar","ac":214,"ac_name":"Nanjangud","booth":220,"booth_name":"Govt Lower Primary School (right Wing ) Hosaveeduhundi"},"geometry":{"type":"Point","coordinates":[76.52618,11.950923]}},{"type":"Feature","properties":{"state":"Karnataka","district":28,"district_n":"MYSORE","pc":22,"pc_name":"Chamarajanagar","ac":214,"ac_name":"Nanjangud","booth":228,"booth_name":"Govt Lower Primary School Chilakahalli"},"geometry":{"type":"Point","coordinates":[76.49688,11.9501524]}},{"type":"Feature","properties":{"state":"Karnataka","district":28,"district_n":"MYSORE","pc":22,"pc_name":"Chamarajanagar","ac":214,"ac_name":"Nanjangud","booth":193,"booth_name":"Govt Higher Primary School,(building School,(building 1) (room (room 2) Mullkundi"},"geometry":{"type":"Point","coordinates":[76.55266,12.0173178]}},{"type":"Feature","properties":{"state":"Karnataka","district":28,"district_n":"MYSORE","pc":22,"pc_name":"Chamarajanagar","ac":214,"ac_name":"Nanjangud","booth":194,"booth_name":"Govt Higher Primary School(building 3) (room No 1) Mallakundi"},"geometry":{"type":"Point","coordinates":[76.55254,12.0173368]}},{"type":"Feature","properties":{"state":"Karnataka","district":28,"district_n":"MYSORE","pc":22,"pc_name":"Chamarajanagar","ac":214,"ac_name":"Nanjangud","booth":202,"booth_name":"Govt Higher Primary School, (room No 1) Hura"},"geometry":{"type":"Point","coordinates":[76.542984,12.0034876]}},{"type":"Feature","properties":{"state":"Karnataka","district":28,"district_n":"MYSORE","pc":22,"pc_name":"Chamarajanagar","ac":214,"ac_name":"Nanjangud","booth":213,"booth_name":"Govt Higher Primary School, School, School, Mallahalli"},"geometry":{"type":"Point","coordinates":[76.55385,11.9825983]}},{"type":"Feature","properties":{"state":"Karnataka","district":28,"district_n":"MYSORE","pc":22,"pc_name":"Chamarajanagar","ac":214,"ac_name":"Nanjangud","booth":214,"booth_name":"Govt Lower Primary School ,kellupura"},"geometry":{"type":"Point","coordinates":[76.55535,11.9750538]}},{"type":"Feature","properties":{"state":"Karnataka","district":28,"district_n":"MYSORE","pc":22,"pc_name":"Chamarajanagar","ac":214,"ac_name":"Nanjangud","booth":217,"booth_name":"Govt Higher Primary School (room No No 1)maduvinahalli"},"geometry":{"type":"Point","coordinates":[76.5220642,11.9537725]}},{"type":"Feature","properties":{"state":"Karnataka","district":28,"district_n":"MYSORE","pc":22,"pc_name":"Chamarajanagar","ac":214,"ac_name":"Nanjangud","booth":219,"booth_name":"Govt Higher Primary School(right Wing ) Hosaveedu"},"geometry":{"type":"Point","coordinates":[76.525,11.9467611]}},{"type":"Feature","properties":{"state":"Karnataka","district":28,"district_n":"MYSORE","pc":22,"pc_name":"Chamarajanagar","ac":214,"ac_name":"Nanjangud","booth":222,"booth_name":"Govt Higher Primary School (left Wing) Devarayashettipura (hanchipura)"},"geometry":{"type":"Point","coordinates":[76.54921,11.9313431]}},{"type":"Feature","properties":{"state":"Karnataka","district":28,"district_n":"MYSORE","pc":22,"pc_name":"Chamarajanagar","ac":214,"ac_name":"Nanjangud","booth":225,"booth_name":"Govt Higher Primary School (right Wing) Hediyala"},"geometry":{"type":"Point","coordinates":[76.49301,11.9409361]}},{"type":"Feature","properties":{"state":"Karnataka","district":28,"district_n":"MYSORE","pc":22,"pc_name":"Chamarajanagar","ac":214,"ac_name":"Nanjangud","booth":231,"booth_name":"Govt Higher Primary School, (left Wing) Naganapura"},"geometry":{"type":"Point","coordinates":[76.53334,11.9060907]}},{"type":"Feature","properties":{"state":"Karnataka","district":28,"district_n":"MYSORE","pc":22,"pc_name":"Chamarajanagar","ac":214,"ac_name":"Nanjangud","booth":4,"booth_name":"Government Higher Primary School, (room 2) Haradanahally"},"geometry":{"type":"Point","coordinates":[76.46525,12.1055756]}},{"type":"Feature","properties":{"state":"Karnataka","district":28,"district_n":"MYSORE","pc":22,"pc_name":"Chamarajanagar","ac":214,"ac_name":"Nanjangud","booth":7,"booth_name":"Government Higher Primary School (left wing ),kanenuru"},"geometry":{"type":"Point","coordinates":[76.5163345,12.0972872]}},{"type":"Feature","properties":{"state":"Karnataka","district":28,"district_n":"MYSORE","pc":22,"pc_name":"Chamarajanagar","ac":214,"ac_name":"Nanjangud","booth":34,"booth_name":"Govt Dalavai Girls Higher Primary School, New Building (room No 1), Nanjanagudutown"},"geometry":{"type":"Point","coordinates":[76.69008,12.120738]}},{"type":"Feature","properties":{"state":"Karnataka","district":28,"district_n":"MYSORE","pc":22,"pc_name":"Chamarajanagar","ac":214,"ac_name":"Nanjangud","booth":36,"booth_name":"Govt Dalavai Girls Higher Primary School, (room No 2) New Building, Nanjanagudutown"},"geometry":{"type":"Point","coordinates":[76.6899261,12.1206255]}},{"type":"Feature","properties":{"state":"Karnataka","district":28,"district_n":"MYSORE","pc":22,"pc_name":"Chamarajanagar","ac":214,"ac_name":"Nanjangud","booth":122,"booth_name":"Grama Panchayath Office Kalale"},"geometry":{"type":"Point","coordinates":[76.66205,12.0730762]}},{"type":"Feature","properties":{"state":"Karnataka","district":28,"district_n":"MYSORE","pc":22,"pc_name":"Chamarajanagar","ac":214,"ac_name":"Nanjangud","booth":128,"booth_name":"Govt Higher Primary School (west Wing) Devanur"},"geometry":{"type":"Point","coordinates":[76.78917,12.073411]}},{"type":"Feature","properties":{"state":"Karnataka","district":28,"district_n":"MYSORE","pc":22,"pc_name":"Chamarajanagar","ac":214,"ac_name":"Nanjangud","booth":130,"booth_name":"Govt Juniour College Devanur"},"geometry":{"type":"Point","coordinates":[76.78811,12.0729532]}},{"type":"Feature","properties":{"state":"Karnataka","district":28,"district_n":"MYSORE","pc":22,"pc_name":"Chamarajanagar","ac":214,"ac_name":"Nanjangud","booth":131,"booth_name":"Govt Lower Primary School Chikkacowlande"},"geometry":{"type":"Point","coordinates":[76.79191,12.0454311]}},{"type":"Feature","properties":{"state":"Karnataka","district":28,"district_n":"MYSORE","pc":22,"pc_name":"Chamarajanagar","ac":214,"ac_name":"Nanjangud","booth":133,"booth_name":"Grama Panchayth Office Building Hedathale"},"geometry":{"type":"Point","coordinates":[76.73713,12.0549479]}},{"type":"Feature","properties":{"state":"Karnataka","district":28,"district_n":"MYSORE","pc":22,"pc_name":"Chamarajanagar","ac":214,"ac_name":"Nanjangud","booth":91,"booth_name":"Govt Higher Primary School ( South wing ) Shirmalli"},"geometry":{"type":"Point","coordinates":[76.57472,12.0912476]}},{"type":"Feature","properties":{"state":"Karnataka","district":28,"district_n":"MYSORE","pc":22,"pc_name":"Chamarajanagar","ac":214,"ac_name":"Nanjangud","booth":139,"booth_name":"Govt Higher Primary School, School, (room No 1) New Building Sinduvalli"},"geometry":{"type":"Point","coordinates":[76.68527,12.0540953]}},{"type":"Feature","properties":{"state":"Karnataka","district":28,"district_n":"MYSORE","pc":22,"pc_name":"Chamarajanagar","ac":214,"ac_name":"Nanjangud","booth":116,"booth_name":"Community Hall (left Wing)kalale"},"geometry":{"type":"Point","coordinates":[76.6626053,12.0744915]}},{"type":"Feature","properties":{"state":"Karnataka","district":28,"district_n":"MYSORE","pc":22,"pc_name":"Chamarajanagar","ac":214,"ac_name":"Nanjangud","booth":117,"booth_name":"Community Hall, (right Side)kalale"},"geometry":{"type":"Point","coordinates":[76.6626358,12.0744953]}},{"type":"Feature","properties":{"state":"Karnataka","district":28,"district_n":"MYSORE","pc":22,"pc_name":"Chamarajanagar","ac":214,"ac_name":"Nanjangud","booth":2,"booth_name":"Government Higher Primary School, Left Wing,ebjala"},"geometry":{"type":"Point","coordinates":[76.44586,12.11281]}},{"type":"Feature","properties":{"state":"Karnataka","district":28,"district_n":"MYSORE","pc":22,"pc_name":"Chamarajanagar","ac":214,"ac_name":"Nanjangud","booth":1,"booth_name":"Govt Higher Primary School, Right wing, Ebjala"},"geometry":{"type":"Point","coordinates":[76.6434555,12.3078661]}},{"type":"Feature","properties":{"state":"Karnataka","district":28,"district_n":"MYSORE","pc":22,"pc_name":"Chamarajanagar","ac":214,"ac_name":"Nanjangud","booth":150,"booth_name":"Govt Lower Primary School Rajur"},"geometry":{"type":"Point","coordinates":[76.48149,12.031599]}},{"type":"Feature","properties":{"state":"Karnataka","district":28,"district_n":"MYSORE","pc":22,"pc_name":"Chamarajanagar","ac":214,"ac_name":"Nanjangud","booth":154,"booth_name":"Govt Higher Primary School, (room No 2) Surahalli"},"geometry":{"type":"Point","coordinates":[76.61777,12.0292645]}},{"type":"Feature","properties":{"state":"Karnataka","district":28,"district_n":"MYSORE","pc":22,"pc_name":"Chamarajanagar","ac":214,"ac_name":"Nanjangud","booth":156,"booth_name":"Govt Higher Primary School, Hosapura"},"geometry":{"type":"Point","coordinates":[76.64055,12.0313234]}},{"type":"Feature","properties":{"state":"Karnataka","district":28,"district_n":"MYSORE","pc":22,"pc_name":"Chamarajanagar","ac":214,"ac_name":"Nanjangud","booth":88,"booth_name":"Govt Higher Primary School (right Wing) Harthale"},"geometry":{"type":"Point","coordinates":[76.62697,12.0892878]}},{"type":"Feature","properties":{"state":"Karnataka","district":28,"district_n":"MYSORE","pc":22,"pc_name":"Chamarajanagar","ac":214,"ac_name":"Nanjangud","booth":119,"booth_name":"Govt Higher Primary School (room ) 2 Kalale"},"geometry":{"type":"Point","coordinates":[76.6625,12.0727606]}},{"type":"Feature","properties":{"state":"Karnataka","district":28,"district_n":"MYSORE","pc":22,"pc_name":"Chamarajanagar","ac":214,"ac_name":"Nanjangud","booth":129,"booth_name":"Govt Higher Primary School, (east Wing) Devanur"},"geometry":{"type":"Point","coordinates":[76.7889938,12.0734415]}},{"type":"Feature","properties":{"state":"Karnataka","district":28,"district_n":"MYSORE","pc":22,"pc_name":"Chamarajanagar","ac":214,"ac_name":"Nanjangud","booth":132,"booth_name":"Govt Lower Primary School Basavattige"},"geometry":{"type":"Point","coordinates":[76.74782,12.0582132]}},{"type":"Feature","properties":{"state":"Karnataka","district":28,"district_n":"MYSORE","pc":22,"pc_name":"Chamarajanagar","ac":214,"ac_name":"Nanjangud","booth":149,"booth_name":"`govt Higher Primary School, New Building Kadabur"},"geometry":{"type":"Point","coordinates":[76.5040741,12.0399542]}},{"type":"Feature","properties":{"state":"Karnataka","district":28,"district_n":"MYSORE","pc":22,"pc_name":"Chamarajanagar","ac":214,"ac_name":"Nanjangud","booth":152,"booth_name":"Govt Higher Primary School, Room No 3, Amble"},"geometry":{"type":"Point","coordinates":[76.5864,12.0397835]}},{"type":"Feature","properties":{"state":"Karnataka","district":28,"district_n":"MYSORE","pc":22,"pc_name":"Chamarajanagar","ac":214,"ac_name":"Nanjangud","booth":145,"booth_name":"Govt Higher Primary School, Old Building Building (room (room 1) Haginavalu"},"geometry":{"type":"Point","coordinates":[76.57911,12.051609]}},{"type":"Feature","properties":{"state":"Karnataka","district":28,"district_n":"MYSORE","pc":22,"pc_name":"Chamarajanagar","ac":214,"ac_name":"Nanjangud","booth":77,"booth_name":"Govt Higher Primary School, (room No No 2) ,goluru"},"geometry":{"type":"Point","coordinates":[76.70227,12.1132593]}},{"type":"Feature","properties":{"state":"Karnataka","district":28,"district_n":"MYSORE","pc":22,"pc_name":"Chamarajanagar","ac":214,"ac_name":"Nanjangud","booth":89,"booth_name":"Govt Higher Primary School (left Wing) Harthale"},"geometry":{"type":"Point","coordinates":[76.62706,12.0892725]}},{"type":"Feature","properties":{"state":"Karnataka","district":28,"district_n":"MYSORE","pc":22,"pc_name":"Chamarajanagar","ac":214,"ac_name":"Nanjangud","booth":100,"booth_name":"Govt Higher Primary School Basapura"},"geometry":{"type":"Point","coordinates":[76.4562149,12.0720139]}},{"type":"Feature","properties":{"state":"Karnataka","district":28,"district_n":"MYSORE","pc":22,"pc_name":"Chamarajanagar","ac":214,"ac_name":"Nanjangud","booth":106,"booth_name":"Govt Higher Primary School, Akala"},"geometry":{"type":"Point","coordinates":[76.50047,12.0562019]}},{"type":"Feature","properties":{"state":"Karnataka","district":28,"district_n":"MYSORE","pc":22,"pc_name":"Chamarajanagar","ac":214,"ac_name":"Nanjangud","booth":112,"booth_name":"Govt Higher Primary School(room No 2) Huskur"},"geometry":{"type":"Point","coordinates":[76.6750946,12.2748728]}},{"type":"Feature","properties":{"state":"Karnataka","district":28,"district_n":"MYSORE","pc":22,"pc_name":"Chamarajanagar","ac":214,"ac_name":"Nanjangud","booth":120,"booth_name":"Govt Higher Primary School, (near Alammana Temple ) ) New Building,(right Wing) Kalale"},"geometry":{"type":"Point","coordinates":[76.66278,12.0747471]}},{"type":"Feature","properties":{"state":"Karnataka","district":28,"district_n":"MYSORE","pc":22,"pc_name":"Chamarajanagar","ac":214,"ac_name":"Nanjangud","booth":123,"booth_name":"Government Higher Primary School,(opposit Gram panchayath) Kalale"},"geometry":{"type":"Point","coordinates":[76.66259,12.0728455]}},{"type":"Feature","properties":{"state":"Karnataka","district":28,"district_n":"MYSORE","pc":22,"pc_name":"Chamarajanagar","ac":214,"ac_name":"Nanjangud","booth":126,"booth_name":"Govt Higher Primary School, (right Wing) Badanvalu"},"geometry":{"type":"Point","coordinates":[76.74879,12.0709915]}},{"type":"Feature","properties":{"state":"Karnataka","district":28,"district_n":"MYSORE","pc":22,"pc_name":"Chamarajanagar","ac":214,"ac_name":"Nanjangud","booth":143,"booth_name":"Govt Higher Primary School(right Side) Muddahalli"},"geometry":{"type":"Point","coordinates":[76.659996,12.0512714]}},{"type":"Feature","properties":{"state":"Karnataka","district":28,"district_n":"MYSORE","pc":22,"pc_name":"Chamarajanagar","ac":214,"ac_name":"Nanjangud","booth":125,"booth_name":"Govt Higher Primary School, (left Wing) Badanvalu"},"geometry":{"type":"Point","coordinates":[76.7489243,12.07099]}},{"type":"Feature","properties":{"state":"Karnataka","district":28,"district_n":"MYSORE","pc":22,"pc_name":"Chamarajanagar","ac":214,"ac_name":"Nanjangud","booth":146,"booth_name":"Govt Higher Primary School, School, Old Building Building (room (room 2) Haginavalu"},"geometry":{"type":"Point","coordinates":[76.57921,12.0515194]}},{"type":"Feature","properties":{"state":"Karnataka","district":28,"district_n":"MYSORE","pc":22,"pc_name":"Chamarajanagar","ac":214,"ac_name":"Nanjangud","booth":12,"booth_name":"J S S pre university College ( Room 3) 3) 3) Hullahalli"},"geometry":{"type":"Point","coordinates":[76.5535355,12.0942268]}},{"type":"Feature","properties":{"state":"Karnataka","district":28,"district_n":"MYSORE","pc":22,"pc_name":"Chamarajanagar","ac":214,"ac_name":"Nanjangud","booth":26,"booth_name":"Govt Higher Primary School,(room No 2)kathwadipur"},"geometry":{"type":"Point","coordinates":[76.67267,12.1433592]}},{"type":"Feature","properties":{"state":"Karnataka","district":28,"district_n":"MYSORE","pc":22,"pc_name":"Chamarajanagar","ac":214,"ac_name":"Nanjangud","booth":63,"booth_name":"Govt Higher Primary School, Chamalapurada Hundi, Nanjanagudu Town"},"geometry":{"type":"Point","coordinates":[76.67249,12.1287289]}},{"type":"Feature","properties":{"state":"Karnataka","district":28,"district_n":"MYSORE","pc":22,"pc_name":"Chamarajanagar","ac":214,"ac_name":"Nanjangud","booth":103,"booth_name":"Govt Lower Primary School Chandravadi"},"geometry":{"type":"Point","coordinates":[76.49703,12.069025]}},{"type":"Feature","properties":{"state":"Karnataka","district":28,"district_n":"MYSORE","pc":22,"pc_name":"Chamarajanagar","ac":214,"ac_name":"Nanjangud","booth":57,"booth_name":"Govt Higher Higher School, ( Room No 2) Srirampura, Nanjanagudu Town"},"geometry":{"type":"Point","coordinates":[76.68143,12.1171722]}},{"type":"Feature","properties":{"state":"Karnataka","district":28,"district_n":"MYSORE","pc":22,"pc_name":"Chamarajanagar","ac":214,"ac_name":"Nanjangud","booth":97,"booth_name":"Govt Higher Priamry School, (room No1) Kappasoge"},"geometry":{"type":"Point","coordinates":[76.50219,12.0771284]}},{"type":"Feature","properties":{"state":"Karnataka","district":28,"district_n":"MYSORE","pc":22,"pc_name":"Chamarajanagar","ac":214,"ac_name":"Nanjangud","booth":110,"booth_name":"Govt Higher Primary School Madapura"},"geometry":{"type":"Point","coordinates":[76.553894,12.0574989]}},{"type":"Feature","properties":{"state":"Karnataka","district":28,"district_n":"MYSORE","pc":22,"pc_name":"Chamarajanagar","ac":214,"ac_name":"Nanjangud","booth":113,"booth_name":"Govt Higher Primary School,(left Wing) Olagere"},"geometry":{"type":"Point","coordinates":[76.61179,12.0733109]}},{"type":"Feature","properties":{"state":"Karnataka","district":28,"district_n":"MYSORE","pc":22,"pc_name":"Chamarajanagar","ac":214,"ac_name":"Nanjangud","booth":114,"booth_name":"Govt Higher Primary School,(right Wing) Olagere"},"geometry":{"type":"Point","coordinates":[76.6118546,12.0733471]}},{"type":"Feature","properties":{"state":"Karnataka","district":28,"district_n":"MYSORE","pc":22,"pc_name":"Chamarajanagar","ac":214,"ac_name":"Nanjangud","booth":23,"booth_name":"Govt Higher Priamry School, Building Building 1(room 2) Debur"},"geometry":{"type":"Point","coordinates":[76.64347,12.1191435]}},{"type":"Feature","properties":{"state":"Karnataka","district":28,"district_n":"MYSORE","pc":22,"pc_name":"Chamarajanagar","ac":214,"ac_name":"Nanjangud","booth":6,"booth_name":"Government Higher Primary School, (right wing) wing) Kanenuru"},"geometry":{"type":"Point","coordinates":[76.5182953,12.0972977]}},{"type":"Feature","properties":{"state":"Karnataka","district":28,"district_n":"MYSORE","pc":22,"pc_name":"Chamarajanagar","ac":214,"ac_name":"Nanjangud","booth":163,"booth_name":"Govt High School, Hemmaragala"},"geometry":{"type":"Point","coordinates":[76.7347946,12.043046]}},{"type":"Feature","properties":{"state":"Karnataka","district":28,"district_n":"MYSORE","pc":22,"pc_name":"Chamarajanagar","ac":214,"ac_name":"Nanjangud","booth":166,"booth_name":"Govt Higher Primary School,(building 1)(left side) Nerale"},"geometry":{"type":"Point","coordinates":[76.7606354,12.03252]}},{"type":"Feature","properties":{"state":"Karnataka","district":28,"district_n":"MYSORE","pc":22,"pc_name":"Chamarajanagar","ac":214,"ac_name":"Nanjangud","booth":169,"booth_name":"Govt Urdu Higher Primary School, New Building Doddakowalande"},"geometry":{"type":"Point","coordinates":[76.79582,12.0330572]}},{"type":"Feature","properties":{"state":"Karnataka","district":28,"district_n":"MYSORE","pc":22,"pc_name":"Chamarajanagar","ac":214,"ac_name":"Nanjangud","booth":172,"booth_name":"Govt Higher Primary School, (room No No 1)gattavadi"},"geometry":{"type":"Point","coordinates":[76.77999,12.0176611]}},{"type":"Feature","properties":{"state":"Karnataka","district":28,"district_n":"MYSORE","pc":22,"pc_name":"Chamarajanagar","ac":214,"ac_name":"Nanjangud","booth":183,"booth_name":"Govt Higher Primary School (north wing) Hunasanalu"},"geometry":{"type":"Point","coordinates":[76.69243,12.0148907]}},{"type":"Feature","properties":{"state":"Karnataka","district":28,"district_n":"MYSORE","pc":22,"pc_name":"Chamarajanagar","ac":214,"ac_name":"Nanjangud","booth":192,"booth_name":"Govt Higher Primary School, (building (building 1)(room 1)(room 1) Mullkundi"},"geometry":{"type":"Point","coordinates":[76.55266,12.0172033]}},{"type":"Feature","properties":{"state":"Karnataka","district":28,"district_n":"MYSORE","pc":22,"pc_name":"Chamarajanagar","ac":214,"ac_name":"Nanjangud","booth":195,"booth_name":"Govt Lower Primary School M Kongahalli"},"geometry":{"type":"Point","coordinates":[76.55231,12.0236492]}},{"type":"Feature","properties":{"state":"Karnataka","district":28,"district_n":"MYSORE","pc":22,"pc_name":"Chamarajanagar","ac":214,"ac_name":"Nanjangud","booth":43,"booth_name":"Gurubhavan, Nanjanagudu Town"},"geometry":{"type":"Point","coordinates":[76.68494,12.119422]}},{"type":"Feature","properties":{"state":"Karnataka","district":28,"district_n":"MYSORE","pc":22,"pc_name":"Chamarajanagar","ac":214,"ac_name":"Nanjangud","booth":186,"booth_name":"Govt Lower Primary School Lakshamanapura"},"geometry":{"type":"Point","coordinates":[76.63457,12.0214739]}},{"type":"Feature","properties":{"state":"Karnataka","district":28,"district_n":"MYSORE","pc":22,"pc_name":"Chamarajanagar","ac":214,"ac_name":"Nanjangud","booth":3,"booth_name":"Government Higher Primary School, (room (room 1) 1) Haradanahallil"},"geometry":{"type":"Point","coordinates":[76.46534,12.1055565]}},{"type":"Feature","properties":{"state":"Karnataka","district":28,"district_n":"MYSORE","pc":22,"pc_name":"Chamarajanagar","ac":214,"ac_name":"Nanjangud","booth":203,"booth_name":"Govt Higher Primary School,( Room No 2) Hura"},"geometry":{"type":"Point","coordinates":[76.54279,12.0034561]}},{"type":"Feature","properties":{"state":"Karnataka","district":28,"district_n":"MYSORE","pc":22,"pc_name":"Chamarajanagar","ac":214,"ac_name":"Nanjangud","booth":206,"booth_name":"Govt Higher Primary School Kugalur"},"geometry":{"type":"Point","coordinates":[76.63983,12.0112686]}},{"type":"Feature","properties":{"state":"Karnataka","district":28,"district_n":"MYSORE","pc":22,"pc_name":"Chamarajanagar","ac":214,"ac_name":"Nanjangud","booth":209,"booth_name":"Govt Lower Primary School Baguru"},"geometry":{"type":"Point","coordinates":[76.7075,11.999979]}},{"type":"Feature","properties":{"state":"Karnataka","district":28,"district_n":"MYSORE","pc":22,"pc_name":"Chamarajanagar","ac":214,"ac_name":"Nanjangud","booth":212,"booth_name":"Govt Lower Primary School Haraganapura"},"geometry":{"type":"Point","coordinates":[76.79448,11.9941473]}},{"type":"Feature","properties":{"state":"Karnataka","district":28,"district_n":"MYSORE","pc":22,"pc_name":"Chamarajanagar","ac":214,"ac_name":"Nanjangud","booth":17,"booth_name":"Government Higher Primary School, (left Wing),heggadahally"},"geometry":{"type":"Point","coordinates":[76.6021957,12.1049747]}},{"type":"Feature","properties":{"state":"Karnataka","district":28,"district_n":"MYSORE","pc":22,"pc_name":"Chamarajanagar","ac":214,"ac_name":"Nanjangud","booth":215,"booth_name":"Govt Higher Primary School, (right Wing) Wing) Channapatana"},"geometry":{"type":"Point","coordinates":[76.54385,11.98721]}},{"type":"Feature","properties":{"state":"Karnataka","district":28,"district_n":"MYSORE","pc":22,"pc_name":"Chamarajanagar","ac":214,"ac_name":"Nanjangud","booth":223,"booth_name":"Govt Higher Primary School, (left Wing) Room No 1 1 Kothanahalli"},"geometry":{"type":"Point","coordinates":[76.56851,11.9278259]}},{"type":"Feature","properties":{"state":"Karnataka","district":28,"district_n":"MYSORE","pc":22,"pc_name":"Chamarajanagar","ac":214,"ac_name":"Nanjangud","booth":226,"booth_name":"Govt Higher Primary School (left Wing) Hediyala"},"geometry":{"type":"Point","coordinates":[76.49272,11.9409323]}},{"type":"Feature","properties":{"state":"Karnataka","district":28,"district_n":"MYSORE","pc":22,"pc_name":"Chamarajanagar","ac":214,"ac_name":"Nanjangud","booth":229,"booth_name":"Govt Lower Primary School, Hadanooru Hadanooru Vadeyanapura"},"geometry":{"type":"Point","coordinates":[76.4923248,11.9152927]}},{"type":"Feature","properties":{"state":"Karnataka","district":28,"district_n":"MYSORE","pc":22,"pc_name":"Chamarajanagar","ac":214,"ac_name":"Nanjangud","booth":232,"booth_name":"Govt Higher Primary School (left Wing) Balluruhundi"},"geometry":{"type":"Point","coordinates":[76.53126,11.9031076]}},{"type":"Feature","properties":{"state":"Karnataka","district":28,"district_n":"MYSORE","pc":22,"pc_name":"Chamarajanagar","ac":214,"ac_name":"Nanjangud","booth":189,"booth_name":"Govt Higher Primary School (front Building) Hallare"},"geometry":{"type":"Point","coordinates":[76.58059,12.0225449]}},{"type":"Feature","properties":{"state":"Karnataka","district":28,"district_n":"MYSORE","pc":22,"pc_name":"Chamarajanagar","ac":214,"ac_name":"Nanjangud","booth":175,"booth_name":"Govt Higher Primary School New Building , (west Wing) Halpura"},"geometry":{"type":"Point","coordinates":[76.75774,12.0149012]}},{"type":"Feature","properties":{"state":"Karnataka","district":28,"district_n":"MYSORE","pc":22,"pc_name":"Chamarajanagar","ac":214,"ac_name":"Nanjangud","booth":141,"booth_name":"Govt Lower Primary School, Kalihundi"},"geometry":{"type":"Point","coordinates":[76.70039,12.0639238]}},{"type":"Feature","properties":{"state":"Karnataka","district":28,"district_n":"MYSORE","pc":22,"pc_name":"Chamarajanagar","ac":214,"ac_name":"Nanjangud","booth":198,"booth_name":"Govt Higher Primary School Badagalahundi"},"geometry":{"type":"Point","coordinates":[76.51698,12.0145645]}},{"type":"Feature","properties":{"state":"Karnataka","district":28,"district_n":"MYSORE","pc":22,"pc_name":"Chamarajanagar","ac":214,"ac_name":"Nanjangud","booth":201,"booth_name":"Govt Higher Primary School,(room No 2)hadya"},"geometry":{"type":"Point","coordinates":[76.5281,11.9929819]}},{"type":"Feature","properties":{"state":"Karnataka","district":28,"district_n":"MYSORE","pc":22,"pc_name":"Chamarajanagar","ac":214,"ac_name":"Nanjangud","booth":204,"booth_name":"Govt Lower Primary School Makanapura"},"geometry":{"type":"Point","coordinates":[76.59991,12.0061855]}},{"type":"Feature","properties":{"state":"Karnataka","district":28,"district_n":"MYSORE","pc":22,"pc_name":"Chamarajanagar","ac":214,"ac_name":"Nanjangud","booth":207,"booth_name":"Govt Higher Primary School Krishnapura"},"geometry":{"type":"Point","coordinates":[76.64103,11.998477]}},{"type":"Feature","properties":{"state":"Karnataka","district":28,"district_n":"MYSORE","pc":22,"pc_name":"Chamarajanagar","ac":214,"ac_name":"Nanjangud","booth":20,"booth_name":"Govt Lower Primary School, Mobballi"},"geometry":{"type":"Point","coordinates":[76.60415,12.10017]}},{"type":"Feature","properties":{"state":"Karnataka","district":28,"district_n":"MYSORE","pc":22,"pc_name":"Chamarajanagar","ac":214,"ac_name":"Nanjangud","booth":29,"booth_name":"Govt Higher Primary School, (room No 2), Halldakeri, Nanjanagudutown"},"geometry":{"type":"Point","coordinates":[76.69437,12.1161585]}},{"type":"Feature","properties":{"state":"Karnataka","district":28,"district_n":"MYSORE","pc":22,"pc_name":"Chamarajanagar","ac":214,"ac_name":"Nanjangud","booth":37,"booth_name":"Muncipal Office, Nanjanagudu Town"},"geometry":{"type":"Point","coordinates":[76.68527,12.1214085]}},{"type":"Feature","properties":{"state":"Karnataka","district":28,"district_n":"MYSORE","pc":22,"pc_name":"Chamarajanagar","ac":214,"ac_name":"Nanjangud","booth":69,"booth_name":"Govt Lower Primary School, Hosur"},"geometry":{"type":"Point","coordinates":[76.72886,12.1216011]}},{"type":"Feature","properties":{"state":"Karnataka","district":28,"district_n":"MYSORE","pc":22,"pc_name":"Chamarajanagar","ac":214,"ac_name":"Nanjangud","booth":83,"booth_name":"J S S First Grade College, Devirammanahalli"},"geometry":{"type":"Point","coordinates":[76.6685944,12.1064014]}},{"type":"Feature","properties":{"state":"Karnataka","district":28,"district_n":"MYSORE","pc":22,"pc_name":"Chamarajanagar","ac":214,"ac_name":"Nanjangud","booth":86,"booth_name":"Govt Lower Primary School, Handuvinahalli"},"geometry":{"type":"Point","coordinates":[76.64916,12.1186876]}},{"type":"Feature","properties":{"state":"Karnataka","district":28,"district_n":"MYSORE","pc":22,"pc_name":"Chamarajanagar","ac":214,"ac_name":"Nanjangud","booth":107,"booth_name":"Govt Higher Primary School, Yalehalli"},"geometry":{"type":"Point","coordinates":[76.52727,12.0567694]}},{"type":"Feature","properties":{"state":"Karnataka","district":28,"district_n":"MYSORE","pc":22,"pc_name":"Chamarajanagar","ac":214,"ac_name":"Nanjangud","booth":115,"booth_name":"Govt Higher Primary School Hosakote U Masage"},"geometry":{"type":"Point","coordinates":[76.64502,12.0688047]}},{"type":"Feature","properties":{"state":"Karnataka","district":28,"district_n":"MYSORE","pc":22,"pc_name":"Chamarajanagar","ac":214,"ac_name":"Nanjangud","booth":124,"booth_name":"Govt Lower Primary School Gonathgal"},"geometry":{"type":"Point","coordinates":[76.71579,12.0733957]}},{"type":"Feature","properties":{"state":"Karnataka","district":28,"district_n":"MYSORE","pc":22,"pc_name":"Chamarajanagar","ac":214,"ac_name":"Nanjangud","booth":147,"booth_name":"Govt Higher Primary School,new Building (room No 1)haginavalu"},"geometry":{"type":"Point","coordinates":[76.57912,12.0518427]}},{"type":"Feature","properties":{"state":"Karnataka","district":28,"district_n":"MYSORE","pc":22,"pc_name":"Chamarajanagar","ac":214,"ac_name":"Nanjangud","booth":38,"booth_name":"Govt Higher Priamry School,(room No 2) Near Sharada Talkies, Nanjanagudu Town"},"geometry":{"type":"Point","coordinates":[76.6861343,12.1185627]}},{"type":"Feature","properties":{"state":"Karnataka","district":28,"district_n":"MYSORE","pc":22,"pc_name":"Chamarajanagar","ac":214,"ac_name":"Nanjangud","booth":64,"booth_name":"Govt Higher School, Geekalli"},"geometry":{"type":"Point","coordinates":[76.71376,12.1149988]}},{"type":"Feature","properties":{"state":"Karnataka","district":28,"district_n":"MYSORE","pc":22,"pc_name":"Chamarajanagar","ac":214,"ac_name":"Nanjangud","booth":104,"booth_name":"Govt Lower Primary School, Motha"},"geometry":{"type":"Point","coordinates":[76.48268,12.08273]}},{"type":"Feature","properties":{"state":"Karnataka","district":28,"district_n":"MYSORE","pc":22,"pc_name":"Chamarajanagar","ac":214,"ac_name":"Nanjangud","booth":138,"booth_name":"Govt Lower Primary School, Singaripura"},"geometry":{"type":"Point","coordinates":[76.72657,12.0666828]}},{"type":"Feature","properties":{"state":"Karnataka","district":28,"district_n":"MYSORE","pc":22,"pc_name":"Chamarajanagar","ac":214,"ac_name":"Nanjangud","booth":121,"booth_name":"Govt Higher Primary School, (near Alammana Temple ) ) New Building(left wing) Kalale"},"geometry":{"type":"Point","coordinates":[76.66262,12.0748205]}},{"type":"Feature","properties":{"state":"Karnataka","district":28,"district_n":"MYSORE","pc":22,"pc_name":"Chamarajanagar","ac":214,"ac_name":"Nanjangud","booth":41,"booth_name":"Govt Higher Priamry School Back side building ( Room No 2 ), Near Sharada Talkies, Nanjanagudu Town"},"geometry":{"type":"Point","coordinates":[76.68625,12.118885]}},{"type":"Feature","properties":{"state":"Karnataka","district":28,"district_n":"MYSORE","pc":22,"pc_name":"Chamarajanagar","ac":214,"ac_name":"Nanjangud","booth":210,"booth_name":"Govt Higher Primary School (left side) Gattavadipura"},"geometry":{"type":"Point","coordinates":[76.77908,11.9942589]}},{"type":"Feature","properties":{"state":"Karnataka","district":28,"district_n":"MYSORE","pc":22,"pc_name":"Chamarajanagar","ac":214,"ac_name":"Nanjangud","booth":218,"booth_name":"Govt Higher Primary School (room No No 2)maduvinahalli"},"geometry":{"type":"Point","coordinates":[76.5220261,11.953783]}},{"type":"Feature","properties":{"state":"Karnataka","district":28,"district_n":"MYSORE","pc":22,"pc_name":"Chamarajanagar","ac":214,"ac_name":"Nanjangud","booth":35,"booth_name":"Govt Urdu Higher Primary School, Chamalapura, Nanjanagudutown"},"geometry":{"type":"Point","coordinates":[76.6873245,12.1209955]}},{"type":"Feature","properties":{"state":"Karnataka","district":28,"district_n":"MYSORE","pc":22,"pc_name":"Chamarajanagar","ac":214,"ac_name":"Nanjangud","booth":221,"booth_name":"Govt Higher Primary School (right Wing) Devarayashettipura (hanchipura)"},"geometry":{"type":"Point","coordinates":[76.54963,11.9314842]}},{"type":"Feature","properties":{"state":"Karnataka","district":28,"district_n":"MYSORE","pc":22,"pc_name":"Chamarajanagar","ac":214,"ac_name":"Nanjangud","booth":224,"booth_name":"Govt Higher Primary School Eregowdanahundi"},"geometry":{"type":"Point","coordinates":[76.51246,11.9364815]}},{"type":"Feature","properties":{"state":"Karnataka","district":28,"district_n":"MYSORE","pc":22,"pc_name":"Chamarajanagar","ac":214,"ac_name":"Nanjangud","booth":227,"booth_name":"Govt High School Hadiyala"},"geometry":{"type":"Point","coordinates":[76.48932,11.9431725]}},{"type":"Feature","properties":{"state":"Karnataka","district":28,"district_n":"MYSORE","pc":22,"pc_name":"Chamarajanagar","ac":214,"ac_name":"Nanjangud","booth":230,"booth_name":"Govt Lower Primary School (right Wing) Bankahalli"},"geometry":{"type":"Point","coordinates":[76.46975,11.8872137]}},{"type":"Feature","properties":{"state":"Karnataka","district":28,"district_n":"MYSORE","pc":22,"pc_name":"Chamarajanagar","ac":214,"ac_name":"Nanjangud","booth":127,"booth_name":"Govt Higher Primary School, (right Wing) S C Colony Badanavalu"},"geometry":{"type":"Point","coordinates":[76.75019,12.068634]}},{"type":"Feature","properties":{"state":"Karnataka","district":28,"district_n":"MYSORE","pc":22,"pc_name":"Chamarajanagar","ac":214,"ac_name":"Nanjangud","booth":144,"booth_name":"Govt Higher Primary School Yechagundala"},"geometry":{"type":"Point","coordinates":[76.6408844,12.0557775]}},{"type":"Feature","properties":{"state":"Karnataka","district":28,"district_n":"MYSORE","pc":22,"pc_name":"Chamarajanagar","ac":214,"ac_name":"Nanjangud","booth":101,"booth_name":"Govt Higher Primary School Katuru"},"geometry":{"type":"Point","coordinates":[76.44326,12.0738487]}},{"type":"Feature","properties":{"state":"Karnataka","district":28,"district_n":"MYSORE","pc":22,"pc_name":"Chamarajanagar","ac":214,"ac_name":"Nanjangud","booth":155,"booth_name":"Govt Lower Primary School, Byalaruhundigovt Lower Primary School, Byalaruhundigovt Lower Primary School, Byalaruhundi"},"geometry":{"type":"Point","coordinates":[76.62876,12.0402117]}},{"type":"Feature","properties":{"state":"Karnataka","district":28,"district_n":"MYSORE","pc":22,"pc_name":"Chamarajanagar","ac":214,"ac_name":"Nanjangud","booth":140,"booth_name":"Govt Higher Primary School, (room No 2) New Building Sinduvalli"},"geometry":{"type":"Point","coordinates":[76.6850739,12.0541582]}},{"type":"Feature","properties":{"state":"Karnataka","district":28,"district_n":"MYSORE","pc":22,"pc_name":"Chamarajanagar","ac":214,"ac_name":"Nanjangud","booth":160,"booth_name":"Govt Lower Primary School, School, Kumbrahalli"},"geometry":{"type":"Point","coordinates":[76.7198944,12.0381546]}},{"type":"Feature","properties":{"state":"Karnataka","district":28,"district_n":"MYSORE","pc":22,"pc_name":"Chamarajanagar","ac":214,"ac_name":"Nanjangud","booth":14,"booth_name":"Government Boys Higher Primary School ,hullhalli"},"geometry":{"type":"Point","coordinates":[76.55433,12.0981417]}},{"type":"Feature","properties":{"state":"Karnataka","district":28,"district_n":"MYSORE","pc":22,"pc_name":"Chamarajanagar","ac":214,"ac_name":"Nanjangud","booth":60,"booth_name":"Govt Higher Primary Primary School (room No 2),ashoka puram, Nanjanagudu Town"},"geometry":{"type":"Point","coordinates":[76.6816559,12.1219311]}},{"type":"Feature","properties":{"state":"Karnataka","district":28,"district_n":"MYSORE","pc":22,"pc_name":"Chamarajanagar","ac":214,"ac_name":"Nanjangud","booth":66,"booth_name":"Govt Higher Primary School( Right wing)mullur"},"geometry":{"type":"Point","coordinates":[76.719635,12.1321926]}},{"type":"Feature","properties":{"state":"Karnataka","district":28,"district_n":"MYSORE","pc":22,"pc_name":"Chamarajanagar","ac":214,"ac_name":"Nanjangud","booth":109,"booth_name":"Govt Higher Primary School Duggahalli"},"geometry":{"type":"Point","coordinates":[76.54506,12.046217]}},{"type":"Feature","properties":{"state":"Karnataka","district":28,"district_n":"MYSORE","pc":22,"pc_name":"Chamarajanagar","ac":214,"ac_name":"Nanjangud","booth":80,"booth_name":"Govt Higher Primary School, ( North wing) Shiramalli"},"geometry":{"type":"Point","coordinates":[76.69434,12.0906782]}},{"type":"Feature","properties":{"state":"Karnataka","district":28,"district_n":"MYSORE","pc":22,"pc_name":"Chamarajanagar","ac":214,"ac_name":"Nanjangud","booth":40,"booth_name":"Govt Higher Primary School, Behind Building (room 1) Near Sharada Talkies, Nanjanagudu Town"},"geometry":{"type":"Point","coordinates":[76.68623,12.1186132]}},{"type":"Feature","properties":{"state":"Karnataka","district":28,"district_n":"MYSORE","pc":22,"pc_name":"Chamarajanagar","ac":214,"ac_name":"Nanjangud","booth":49,"booth_name":"Nanjundeshwara Vidyavadraka High School Ooty Road, Nanjanagudu Town"},"geometry":{"type":"Point","coordinates":[76.67517,12.1200237]}},{"type":"Feature","properties":{"state":"Karnataka","district":28,"district_n":"MYSORE","pc":22,"pc_name":"Chamarajanagar","ac":214,"ac_name":"Nanjangud","booth":46,"booth_name":"Govt Girls High School School (govt Girls Juniour College) (room no 3), Nanjanagudu Town"},"geometry":{"type":"Point","coordinates":[76.68092,12.119462]}},{"type":"Feature","properties":{"state":"Karnataka","district":28,"district_n":"MYSORE","pc":22,"pc_name":"Chamarajanagar","ac":214,"ac_name":"Nanjangud","booth":95,"booth_name":"Govt Higher Primary School(right Wing) Tharaganahalli"},"geometry":{"type":"Point","coordinates":[76.51679,12.0706167]}},{"type":"Feature","properties":{"state":"Karnataka","district":28,"district_n":"MYSORE","pc":22,"pc_name":"Chamarajanagar","ac":214,"ac_name":"Nanjangud","booth":98,"booth_name":"Govt Higher Primary School (room No 2) Kappasoge"},"geometry":{"type":"Point","coordinates":[76.50226,12.0770578]}},{"type":"Feature","properties":{"state":"Karnataka","district":28,"district_n":"MYSORE","pc":22,"pc_name":"Chamarajanagar","ac":214,"ac_name":"Nanjangud","booth":78,"booth_name":"Govt Higher Primary School, (north Wing) Karlapura"},"geometry":{"type":"Point","coordinates":[76.69094,12.0995836]}},{"type":"Feature","properties":{"state":"Karnataka","district":28,"district_n":"MYSORE","pc":22,"pc_name":"Chamarajanagar","ac":214,"ac_name":"Nanjangud","booth":118,"booth_name":"Govt Higher Primary School (room No) 1 Kalale"},"geometry":{"type":"Point","coordinates":[76.66286,12.0727654]}},{"type":"Feature","properties":{"state":"Karnataka","district":28,"district_n":"MYSORE","pc":22,"pc_name":"Chamarajanagar","ac":214,"ac_name":"Nanjangud","booth":15,"booth_name":"Government Higher Primary School , Belale"},"geometry":{"type":"Point","coordinates":[76.5737,12.1143141]}},{"type":"Feature","properties":{"state":"Karnataka","district":28,"district_n":"MYSORE","pc":22,"pc_name":"Chamarajanagar","ac":214,"ac_name":"Nanjangud","booth":92,"booth_name":"Govt Higher Primary School Karaya"},"geometry":{"type":"Point","coordinates":[76.55623,12.07305]}},{"type":"Feature","properties":{"state":"Karnataka","district":28,"district_n":"MYSORE","pc":22,"pc_name":"Chamarajanagar","ac":214,"ac_name":"Nanjangud","booth":81,"booth_name":"Govt Higher Primary School ( South wing ) Shirmalli"},"geometry":{"type":"Point","coordinates":[76.69142,12.0801277]}},{"type":"Feature","properties":{"state":"Karnataka","district":28,"district_n":"MYSORE","pc":22,"pc_name":"Chamarajanagar","ac":214,"ac_name":"Nanjangud","booth":84,"booth_name":"Govt Higher Primary School, Main Road Road New Building, Devirammanahalli Hundi"},"geometry":{"type":"Point","coordinates":[76.66076,12.1001434]}},{"type":"Feature","properties":{"state":"Karnataka","district":28,"district_n":"MYSORE","pc":22,"pc_name":"Chamarajanagar","ac":214,"ac_name":"Nanjangud","booth":9,"booth_name":"J S S Pre University college (building 1) Hullahalli"},"geometry":{"type":"Point","coordinates":[76.55384,12.0942926]}},{"type":"Feature","properties":{"state":"Karnataka","district":28,"district_n":"MYSORE","pc":22,"pc_name":"Chamarajanagar","ac":214,"ac_name":"Nanjangud","booth":18,"booth_name":"Gramapanchayat Office ,heggadahally"},"geometry":{"type":"Point","coordinates":[76.59607,12.1021748]}},{"type":"Feature","properties":{"state":"Karnataka","district":28,"district_n":"MYSORE","pc":22,"pc_name":"Chamarajanagar","ac":214,"ac_name":"Nanjangud","booth":21,"booth_name":"Govt Higher Primary School, Byalaru"},"geometry":{"type":"Point","coordinates":[76.62799,12.1159239]}},{"type":"Feature","properties":{"state":"Karnataka","district":28,"district_n":"MYSORE","pc":22,"pc_name":"Chamarajanagar","ac":214,"ac_name":"Nanjangud","booth":32,"booth_name":"Govt Higher Primary School, (room No 1), Near Sharada Talkies, Nanjanagudutown"},"geometry":{"type":"Point","coordinates":[76.68598,12.1189814]}},{"type":"Feature","properties":{"state":"Karnataka","district":28,"district_n":"MYSORE","pc":22,"pc_name":"Chamarajanagar","ac":214,"ac_name":"Nanjangud","booth":52,"booth_name":"Govt Juniour Juniour College (room No 3) 3) Front Building, Nanjanagudu Town"},"geometry":{"type":"Point","coordinates":[76.67556,12.118166]}},{"type":"Feature","properties":{"state":"Karnataka","district":28,"district_n":"MYSORE","pc":22,"pc_name":"Chamarajanagar","ac":214,"ac_name":"Nanjangud","booth":55,"booth_name":"Govt Junior College (room No 3) 3) 3) Behind Building, Nanjanagudu Town"},"geometry":{"type":"Point","coordinates":[76.6761856,12.1178551]}},{"type":"Feature","properties":{"state":"Karnataka","district":28,"district_n":"MYSORE","pc":22,"pc_name":"Chamarajanagar","ac":214,"ac_name":"Nanjangud","booth":58,"booth_name":"Govt Higher Primary School, Shankarapura, Nanjanagudu Town"},"geometry":{"type":"Point","coordinates":[76.68092,12.1132412]}},{"type":"Feature","properties":{"state":"Karnataka","district":28,"district_n":"MYSORE","pc":22,"pc_name":"Chamarajanagar","ac":214,"ac_name":"Nanjangud","booth":61,"booth_name":"Taluk Panchayithi Office Building (room No 1), Nanjanagudu Town"},"geometry":{"type":"Point","coordinates":[76.67628,12.130558]}},{"type":"Feature","properties":{"state":"Karnataka","district":28,"district_n":"MYSORE","pc":22,"pc_name":"Chamarajanagar","ac":214,"ac_name":"Nanjangud","booth":72,"booth_name":"Govt Lower Primary School, (right Wing), Veeregowdanahundi"},"geometry":{"type":"Point","coordinates":[76.74049,12.08426]}},{"type":"Feature","properties":{"state":"Karnataka","district":28,"district_n":"MYSORE","pc":22,"pc_name":"Chamarajanagar","ac":214,"ac_name":"Nanjangud","booth":75,"booth_name":"Govt Higher Primary School (building No 1)(right Wing) Goluru"},"geometry":{"type":"Point","coordinates":[76.7019653,12.1132154]}},{"type":"Feature","properties":{"state":"Karnataka","district":28,"district_n":"MYSORE","pc":22,"pc_name":"Chamarajanagar","ac":214,"ac_name":"Nanjangud","booth":158,"booth_name":"Govt Higher Primary School, Old Building Sinduvallipura"},"geometry":{"type":"Point","coordinates":[76.67423,12.0308981]}},{"type":"Feature","properties":{"state":"Karnataka","district":28,"district_n":"MYSORE","pc":22,"pc_name":"Chamarajanagar","ac":214,"ac_name":"Nanjangud","booth":161,"booth_name":"Govt Higher Primary School, (south Wing) Hemmaragala"},"geometry":{"type":"Point","coordinates":[76.7346954,12.0410967]}},{"type":"Feature","properties":{"state":"Karnataka","district":28,"district_n":"MYSORE","pc":22,"pc_name":"Chamarajanagar","ac":214,"ac_name":"Nanjangud","booth":164,"booth_name":"Govt Govt Lower Primary School, Bhujangaiahnahundi"},"geometry":{"type":"Point","coordinates":[76.74262,12.0233126]}},{"type":"Feature","properties":{"state":"Karnataka","district":28,"district_n":"MYSORE","pc":22,"pc_name":"Chamarajanagar","ac":214,"ac_name":"Nanjangud","booth":167,"booth_name":"Govt Higher Primary School, (east Wing)(building Wing)(building 2) Nerale"},"geometry":{"type":"Point","coordinates":[76.76044,12.0325108]}},{"type":"Feature","properties":{"state":"Karnataka","district":28,"district_n":"MYSORE","pc":22,"pc_name":"Chamarajanagar","ac":214,"ac_name":"Nanjangud","booth":184,"booth_name":"Govt Higher Primary School Yelachagere"},"geometry":{"type":"Point","coordinates":[76.65759,12.0170956]}},{"type":"Feature","properties":{"state":"Karnataka","district":28,"district_n":"MYSORE","pc":22,"pc_name":"Chamarajanagar","ac":214,"ac_name":"Nanjangud","booth":187,"booth_name":"Govt Higher Primary School (room No 1) Kasuvinahalli"},"geometry":{"type":"Point","coordinates":[76.62254,12.017231]}},{"type":"Feature","properties":{"state":"Karnataka","district":28,"district_n":"MYSORE","pc":22,"pc_name":"Chamarajanagar","ac":214,"ac_name":"Nanjangud","booth":190,"booth_name":"Govt Higher Primary School (back Building) Hallare"},"geometry":{"type":"Point","coordinates":[76.58065,12.02246]}},{"type":"Feature","properties":{"state":"Karnataka","district":28,"district_n":"MYSORE","pc":22,"pc_name":"Chamarajanagar","ac":214,"ac_name":"Nanjangud","booth":178,"booth_name":"Govt Higher Primary School (north Wing) Mallahalli"},"geometry":{"type":"Point","coordinates":[76.7335,12.0152483]}},{"type":"Feature","properties":{"state":"Karnataka","district":28,"district_n":"MYSORE","pc":22,"pc_name":"Chamarajanagar","ac":214,"ac_name":"Nanjangud","booth":135,"booth_name":"Govt Higher Primary School (room No 1) Hedathale"},"geometry":{"type":"Point","coordinates":[76.73675,12.05077]}},{"type":"Feature","properties":{"state":"Karnataka","district":28,"district_n":"MYSORE","pc":22,"pc_name":"Chamarajanagar","ac":214,"ac_name":"Nanjangud","booth":44,"booth_name":"Govt Girls High School, (govt Girls Juniour College) (room No 1), Nanjanagudu Town"},"geometry":{"type":"Point","coordinates":[76.68092,12.1196032]}},{"type":"Feature","properties":{"state":"Karnataka","district":28,"district_n":"MYSORE","pc":22,"pc_name":"Chamarajanagar","ac":214,"ac_name":"Nanjangud","booth":181,"booth_name":"Govt High School (room No No 2) Kudalapura"},"geometry":{"type":"Point","coordinates":[76.7184448,12.01094]}}]}