{"type":"FeatureCollection","features":[{"type":"Feature","properties":{"state":"Karnataka","district":2,"district_n":"BAGALKOT","pc":3,"pc_name":"Bagalkot","ac":22,"ac_name":"Bilgi","booth":1,"booth_name":"Govt Govt Higher Primary School,eist wing Mundaganur"},"geometry":{"type":"Point","coordinates":[75.42266,16.5822048]}},{"type":"Feature","properties":{"state":"Karnataka","district":2,"district_n":"BAGALKOT","pc":3,"pc_name":"Bagalkot","ac":22,"ac_name":"Bilgi","booth":73,"booth_name":"Govt Govt Urdu School, East Side Room 1 Basaveshwar Nagar, Bilagi"},"geometry":{"type":"Point","coordinates":[75.6347656,16.3395214]}},{"type":"Feature","properties":{"state":"Karnataka","district":2,"district_n":"BAGALKOT","pc":3,"pc_name":"Bagalkot","ac":22,"ac_name":"Bilgi","booth":156,"booth_name":"Govt Govt H P S Boys Room No 4,west Side, Gaddanakeri"},"geometry":{"type":"Point","coordinates":[75.6245041,16.18454]}},{"type":"Feature","properties":{"state":"Karnataka","district":2,"district_n":"BAGALKOT","pc":3,"pc_name":"Bagalkot","ac":22,"ac_name":"Bilgi","booth":136,"booth_name":"Govt Govt Higher Primary Kannada Boys School New Building,room No 1, Yadahallli"},"geometry":{"type":"Point","coordinates":[75.61215,16.2152328]}},{"type":"Feature","properties":{"state":"Karnataka","district":2,"district_n":"BAGALKOT","pc":3,"pc_name":"Bagalkot","ac":22,"ac_name":"Bilgi","booth":216,"booth_name":"Govt Govt Kannada higher primary School saganur"},"geometry":{"type":"Point","coordinates":[75.47371,16.0445423]}},{"type":"Feature","properties":{"state":"Karnataka","district":2,"district_n":"BAGALKOT","pc":3,"pc_name":"Bagalkot","ac":22,"ac_name":"Bilgi","booth":219,"booth_name":"Govt higher primary school east wing yankanchi,"},"geometry":{"type":"Point","coordinates":[75.6064758,16.02286]}},{"type":"Feature","properties":{"state":"Karnataka","district":2,"district_n":"BAGALKOT","pc":3,"pc_name":"Bagalkot","ac":22,"ac_name":"Bilgi","booth":27,"booth_name":"Govt Govt Kannada Girls Higher Primary School,left Wing East Side, Galagali"},"geometry":{"type":"Point","coordinates":[75.44041,16.4144363]}},{"type":"Feature","properties":{"state":"Karnataka","district":2,"district_n":"BAGALKOT","pc":3,"pc_name":"Bagalkot","ac":22,"ac_name":"Bilgi","booth":18,"booth_name":"Govt Govt Higher Primary Boys School,garadinni R C"},"geometry":{"type":"Point","coordinates":[75.65183,16.361454]}},{"type":"Feature","properties":{"state":"Karnataka","district":2,"district_n":"BAGALKOT","pc":3,"pc_name":"Bagalkot","ac":22,"ac_name":"Bilgi","booth":21,"booth_name":"Govt Govt Boys Primary School, East wing Takkalaki"},"geometry":{"type":"Point","coordinates":[75.6347656,16.3395214]}},{"type":"Feature","properties":{"state":"Karnataka","district":2,"district_n":"BAGALKOT","pc":3,"pc_name":"Bagalkot","ac":22,"ac_name":"Bilgi","booth":30,"booth_name":"New English Samyukta Samyukta P U College Middle Room,galagali"},"geometry":{"type":"Point","coordinates":[75.4297,16.4215469]}},{"type":"Feature","properties":{"state":"Karnataka","district":2,"district_n":"BAGALKOT","pc":3,"pc_name":"Bagalkot","ac":22,"ac_name":"Bilgi","booth":4,"booth_name":"Govt Govt Higher Primary School,new Building Left Wing Kolur"},"geometry":{"type":"Point","coordinates":[75.44367,16.4656143]}},{"type":"Feature","properties":{"state":"Karnataka","district":2,"district_n":"BAGALKOT","pc":3,"pc_name":"Bagalkot","ac":22,"ac_name":"Bilgi","booth":7,"booth_name":"Govt Govt Kannada Lower Primary School School Patrasa Shedda"},"geometry":{"type":"Point","coordinates":[75.64835,16.3529682]}},{"type":"Feature","properties":{"state":"Karnataka","district":2,"district_n":"BAGALKOT","pc":3,"pc_name":"Bagalkot","ac":22,"ac_name":"Bilgi","booth":38,"booth_name":"Gram Panchayat Building,bisanal"},"geometry":{"type":"Point","coordinates":[75.36956,16.2546463]}},{"type":"Feature","properties":{"state":"Karnataka","district":2,"district_n":"BAGALKOT","pc":3,"pc_name":"Bagalkot","ac":22,"ac_name":"Bilgi","booth":47,"booth_name":"Govt Govt Urdu Primary School,siddapur"},"geometry":{"type":"Point","coordinates":[75.62654,16.47929]}},{"type":"Feature","properties":{"state":"Karnataka","district":2,"district_n":"BAGALKOT","pc":3,"pc_name":"Bagalkot","ac":22,"ac_name":"Bilgi","booth":67,"booth_name":"Govt Govt Urdu Boys Primary School,bilagi"},"geometry":{"type":"Point","coordinates":[75.60227,16.352314]}},{"type":"Feature","properties":{"state":"Karnataka","district":2,"district_n":"BAGALKOT","pc":3,"pc_name":"Bagalkot","ac":22,"ac_name":"Bilgi","booth":70,"booth_name":"Govt Govt Model Kannada Boys School, new building, west Wing room no 4,bilagi"},"geometry":{"type":"Point","coordinates":[75.6024857,16.361454]}},{"type":"Feature","properties":{"state":"Karnataka","district":2,"district_n":"BAGALKOT","pc":3,"pc_name":"Bagalkot","ac":22,"ac_name":"Bilgi","booth":73,"booth_name":"Govt Govt Urdu School, North wing, Basaveshwar nagar,bilagi"},"geometry":{"type":"Point","coordinates":[75.6347656,16.3395214]}},{"type":"Feature","properties":{"state":"Karnataka","district":2,"district_n":"BAGALKOT","pc":3,"pc_name":"Bagalkot","ac":22,"ac_name":"Bilgi","booth":110,"booth_name":"Govt Govt Higher Primary School (left Wing),kataraki"},"geometry":{"type":"Point","coordinates":[75.45198,16.24872]}},{"type":"Feature","properties":{"state":"Karnataka","district":2,"district_n":"BAGALKOT","pc":3,"pc_name":"Bagalkot","ac":22,"ac_name":"Bilgi","booth":113,"booth_name":"Govt Govt Higher Primary School, Left Wing,shiraguppi"},"geometry":{"type":"Point","coordinates":[75.52231,16.2414913]}},{"type":"Feature","properties":{"state":"Karnataka","district":2,"district_n":"BAGALKOT","pc":3,"pc_name":"Bagalkot","ac":22,"ac_name":"Bilgi","booth":121,"booth_name":"Govt Higher Primary School west wing,budihal S H"},"geometry":{"type":"Point","coordinates":[75.6179352,16.29789]}},{"type":"Feature","properties":{"state":"Karnataka","district":2,"district_n":"BAGALKOT","pc":3,"pc_name":"Bagalkot","ac":22,"ac_name":"Bilgi","booth":124,"booth_name":"Kannada Boys Higher Primary School East wing,tummaramatti"},"geometry":{"type":"Point","coordinates":[75.63089,16.27734]}},{"type":"Feature","properties":{"state":"Karnataka","district":2,"district_n":"BAGALKOT","pc":3,"pc_name":"Bagalkot","ac":22,"ac_name":"Bilgi","booth":127,"booth_name":"Gram Panchayat Office Rc Rc Center Herakall R C"},"geometry":{"type":"Point","coordinates":[75.64462,16.3372688]}},{"type":"Feature","properties":{"state":"Karnataka","district":2,"district_n":"BAGALKOT","pc":3,"pc_name":"Bagalkot","ac":22,"ac_name":"Bilgi","booth":130,"booth_name":"Govt Govt Kannada Higher Primary School,yankanchi R C"},"geometry":{"type":"Point","coordinates":[75.70831,16.222702]}},{"type":"Feature","properties":{"state":"Karnataka","district":2,"district_n":"BAGALKOT","pc":3,"pc_name":"Bagalkot","ac":22,"ac_name":"Bilgi","booth":133,"booth_name":"Govt Govt Higher Primary Kannada Boys School Room No 6,sindagi (simikeri)"},"geometry":{"type":"Point","coordinates":[75.60659,16.15978]}},{"type":"Feature","properties":{"state":"Karnataka","district":2,"district_n":"BAGALKOT","pc":3,"pc_name":"Bagalkot","ac":22,"ac_name":"Bilgi","booth":144,"booth_name":"Govt Govt Higher Primary Kannada Boys School,chikkasanshi"},"geometry":{"type":"Point","coordinates":[75.53397,16.2351875]}},{"type":"Feature","properties":{"state":"Karnataka","district":2,"district_n":"BAGALKOT","pc":3,"pc_name":"Bagalkot","ac":22,"ac_name":"Bilgi","booth":147,"booth_name":"Govt Govt Higher Primary Kannada Boys School,sharadal"},"geometry":{"type":"Point","coordinates":[75.47197,16.23328]}},{"type":"Feature","properties":{"state":"Karnataka","district":2,"district_n":"BAGALKOT","pc":3,"pc_name":"Bagalkot","ac":22,"ac_name":"Bilgi","booth":150,"booth_name":"Govt Govt Higher Higher School South Wing (kesanur) Simikeri R C"},"geometry":{"type":"Point","coordinates":[75.60534,16.1660328]}},{"type":"Feature","properties":{"state":"Karnataka","district":2,"district_n":"BAGALKOT","pc":3,"pc_name":"Bagalkot","ac":22,"ac_name":"Bilgi","booth":167,"booth_name":"Govt Govt Urdu Boys School Room No 2 Kaladagi"},"geometry":{"type":"Point","coordinates":[75.50009,16.2113686]}},{"type":"Feature","properties":{"state":"Karnataka","district":2,"district_n":"BAGALKOT","pc":3,"pc_name":"Bagalkot","ac":22,"ac_name":"Bilgi","booth":187,"booth_name":"higher primary School West Wing kagalagomb"},"geometry":{"type":"Point","coordinates":[75.62051,16.1081543]}},{"type":"Feature","properties":{"state":"Karnataka","district":2,"district_n":"BAGALKOT","pc":3,"pc_name":"Bagalkot","ac":22,"ac_name":"Bilgi","booth":190,"booth_name":"Govt Kannada Higher Primary School East Wing,sulikeri"},"geometry":{"type":"Point","coordinates":[75.66188,16.11354]}},{"type":"Feature","properties":{"state":"Karnataka","district":2,"district_n":"BAGALKOT","pc":3,"pc_name":"Bagalkot","ac":22,"ac_name":"Bilgi","booth":210,"booth_name":"Govt Govt Higher Primary School,yaragoppa Inam"},"geometry":{"type":"Point","coordinates":[75.55809,16.07084]}},{"type":"Feature","properties":{"state":"Karnataka","district":2,"district_n":"BAGALKOT","pc":3,"pc_name":"Bagalkot","ac":22,"ac_name":"Bilgi","booth":136,"booth_name":"Govt Govt Higher Primary Kannada Boys School New Building,room No 2,yadahalli"},"geometry":{"type":"Point","coordinates":[75.61215,16.2152328]}},{"type":"Feature","properties":{"state":"Karnataka","district":2,"district_n":"BAGALKOT","pc":3,"pc_name":"Bagalkot","ac":22,"ac_name":"Bilgi","booth":213,"booth_name":"Govt Govt Higher Primary School,hosakoti"},"geometry":{"type":"Point","coordinates":[75.45951,16.063715]}},{"type":"Feature","properties":{"state":"Karnataka","district":2,"district_n":"BAGALKOT","pc":3,"pc_name":"Bagalkot","ac":22,"ac_name":"Bilgi","booth":10,"booth_name":"Govt Govt Kannada Boys Higher Primary School north side,badagi"},"geometry":{"type":"Point","coordinates":[75.54038,16.3894348]}},{"type":"Feature","properties":{"state":"Karnataka","district":2,"district_n":"BAGALKOT","pc":3,"pc_name":"Bagalkot","ac":22,"ac_name":"Bilgi","booth":115,"booth_name":"Govt Govt M L A A M P S Lesf wing Kundaragi"},"geometry":{"type":"Point","coordinates":[75.52231,16.2414913]}},{"type":"Feature","properties":{"state":"Karnataka","district":2,"district_n":"BAGALKOT","pc":3,"pc_name":"Bagalkot","ac":22,"ac_name":"Bilgi","booth":132,"booth_name":"Govt Higher Primary Kannada Boys School,left Side, Kadampur"},"geometry":{"type":"Point","coordinates":[75.69557,16.2112827]}},{"type":"Feature","properties":{"state":"Karnataka","district":2,"district_n":"BAGALKOT","pc":3,"pc_name":"Bagalkot","ac":22,"ac_name":"Bilgi","booth":169,"booth_name":"Anganawadi (old Gram Chawadi ) Building, Kaladagi"},"geometry":{"type":"Point","coordinates":[75.50179,16.2106686]}},{"type":"Feature","properties":{"state":"Karnataka","district":2,"district_n":"BAGALKOT","pc":3,"pc_name":"Bagalkot","ac":22,"ac_name":"Bilgi","booth":174,"booth_name":"Govt Govt Urdu Boys School Room No 7, Kaladagi"},"geometry":{"type":"Point","coordinates":[75.4975052,16.2037067]}},{"type":"Feature","properties":{"state":"Karnataka","district":2,"district_n":"BAGALKOT","pc":3,"pc_name":"Bagalkot","ac":22,"ac_name":"Bilgi","booth":27,"booth_name":"Govt Govt Kannada Girls Higher Primary School,galagali"},"geometry":{"type":"Point","coordinates":[75.44041,16.4144363]}},{"type":"Feature","properties":{"state":"Karnataka","district":2,"district_n":"BAGALKOT","pc":3,"pc_name":"Bagalkot","ac":22,"ac_name":"Bilgi","booth":184,"booth_name":"higher primary school south wing kerakalmatti"},"geometry":{"type":"Point","coordinates":[75.5811,16.132431]}},{"type":"Feature","properties":{"state":"Karnataka","district":2,"district_n":"BAGALKOT","pc":3,"pc_name":"Bagalkot","ac":22,"ac_name":"Bilgi","booth":156,"booth_name":"Govt Govt Lower Primary School , Kannada Boys School Room No 3 West side,gaddanakeri"},"geometry":{"type":"Point","coordinates":[75.6245041,16.18454]}},{"type":"Feature","properties":{"state":"Karnataka","district":2,"district_n":"BAGALKOT","pc":3,"pc_name":"Bagalkot","ac":22,"ac_name":"Bilgi","booth":164,"booth_name":"Govt Govt Higher Primary Kannada Boys School West Wing,tulasigeri"},"geometry":{"type":"Point","coordinates":[75.55543,16.1874218]}},{"type":"Feature","properties":{"state":"Karnataka","district":2,"district_n":"BAGALKOT","pc":3,"pc_name":"Bagalkot","ac":22,"ac_name":"Bilgi","booth":170,"booth_name":"Govt Govt Kannada Girls School North Wing,kaladagi"},"geometry":{"type":"Point","coordinates":[75.50054,16.2092056]}},{"type":"Feature","properties":{"state":"Karnataka","district":2,"district_n":"BAGALKOT","pc":3,"pc_name":"Bagalkot","ac":22,"ac_name":"Bilgi","booth":173,"booth_name":"Govt Govt Higher Kannada Boys School New Building Room No 10 ( North Wing),kaladagi"},"geometry":{"type":"Point","coordinates":[75.49971,16.2073116]}},{"type":"Feature","properties":{"state":"Karnataka","district":2,"district_n":"BAGALKOT","pc":3,"pc_name":"Bagalkot","ac":22,"ac_name":"Bilgi","booth":196,"booth_name":"Govt higher primary school nirbudhihal"},"geometry":{"type":"Point","coordinates":[75.525856,16.1300087]}},{"type":"Feature","properties":{"state":"Karnataka","district":2,"district_n":"BAGALKOT","pc":3,"pc_name":"Bagalkot","ac":22,"ac_name":"Bilgi","booth":227,"booth_name":"Govt Higher Primary School,bellikindi"},"geometry":{"type":"Point","coordinates":[75.4381,16.0257416]}},{"type":"Feature","properties":{"state":"Karnataka","district":2,"district_n":"BAGALKOT","pc":3,"pc_name":"Bagalkot","ac":22,"ac_name":"Bilgi","booth":233,"booth_name":"Govt Higher Primary School Halakurki"},"geometry":{"type":"Point","coordinates":[75.64557,16.004591]}},{"type":"Feature","properties":{"state":"Karnataka","district":2,"district_n":"BAGALKOT","pc":3,"pc_name":"Bagalkot","ac":22,"ac_name":"Bilgi","booth":207,"booth_name":"Govt Higher Primary School,kalabandakeri"},"geometry":{"type":"Point","coordinates":[75.51398,16.0837917]}},{"type":"Feature","properties":{"state":"Karnataka","district":2,"district_n":"BAGALKOT","pc":3,"pc_name":"Bagalkot","ac":22,"ac_name":"Bilgi","booth":44,"booth_name":"Govt Govt Kannada Boys Model Primary School West side ,siddapur"},"geometry":{"type":"Point","coordinates":[75.54038,16.3894348]}},{"type":"Feature","properties":{"state":"Karnataka","district":2,"district_n":"BAGALKOT","pc":3,"pc_name":"Bagalkot","ac":22,"ac_name":"Bilgi","booth":230,"booth_name":"Govt Govt Kannada Boys School,hullikeri Inam"},"geometry":{"type":"Point","coordinates":[75.60299,15.9961081]}},{"type":"Feature","properties":{"state":"Karnataka","district":2,"district_n":"BAGALKOT","pc":3,"pc_name":"Bagalkot","ac":22,"ac_name":"Bilgi","booth":204,"booth_name":"govt higher primary school Anawal"},"geometry":{"type":"Point","coordinates":[75.4728,16.1007366]}},{"type":"Feature","properties":{"state":"Karnataka","district":2,"district_n":"BAGALKOT","pc":3,"pc_name":"Bagalkot","ac":22,"ac_name":"Bilgi","booth":176,"booth_name":"Gram Panchayat Office Kaladgi"},"geometry":{"type":"Point","coordinates":[75.50097,16.204401]}},{"type":"Feature","properties":{"state":"Karnataka","district":2,"district_n":"BAGALKOT","pc":3,"pc_name":"Bagalkot","ac":22,"ac_name":"Bilgi","booth":81,"booth_name":"Govt Govt Higher Primary School West Wing Separate Building,mannikeri"},"geometry":{"type":"Point","coordinates":[75.4015,16.193]}},{"type":"Feature","properties":{"state":"Karnataka","district":2,"district_n":"BAGALKOT","pc":3,"pc_name":"Bagalkot","ac":22,"ac_name":"Bilgi","booth":84,"booth_name":"Govt Govt Kannada Higher Primary School R C"},"geometry":{"type":"Point","coordinates":[75.4217,16.207]}},{"type":"Feature","properties":{"state":"Karnataka","district":2,"district_n":"BAGALKOT","pc":3,"pc_name":"Bagalkot","ac":22,"ac_name":"Bilgi","booth":87,"booth_name":"Govt Govt Kannada Higher Primary School Room No 4,yatnatti"},"geometry":{"type":"Point","coordinates":[75.6308746,16.27747]}},{"type":"Feature","properties":{"state":"Karnataka","district":2,"district_n":"BAGALKOT","pc":3,"pc_name":"Bagalkot","ac":22,"ac_name":"Bilgi","booth":90,"booth_name":"Govt girls primary school left wing,sunag"},"geometry":{"type":"Point","coordinates":[75.63768,16.3231525]}},{"type":"Feature","properties":{"state":"Karnataka","district":2,"district_n":"BAGALKOT","pc":3,"pc_name":"Bagalkot","ac":22,"ac_name":"Bilgi","booth":93,"booth_name":"Govt Govt Boys Higher Primary School West Wing,sunag"},"geometry":{"type":"Point","coordinates":[75.63768,16.3231525]}},{"type":"Feature","properties":{"state":"Karnataka","district":2,"district_n":"BAGALKOT","pc":3,"pc_name":"Bagalkot","ac":22,"ac_name":"Bilgi","booth":101,"booth_name":"Gram Panchayat Office,arakeri"},"geometry":{"type":"Point","coordinates":[75.5084,16.291853]}},{"type":"Feature","properties":{"state":"Karnataka","district":2,"district_n":"BAGALKOT","pc":3,"pc_name":"Bagalkot","ac":22,"ac_name":"Bilgi","booth":104,"booth_name":"Govt Govt Kannada Boys lower Primary School,arakeri L T"},"geometry":{"type":"Point","coordinates":[75.2759,16.15937]}},{"type":"Feature","properties":{"state":"Karnataka","district":2,"district_n":"BAGALKOT","pc":3,"pc_name":"Bagalkot","ac":22,"ac_name":"Bilgi","booth":107,"booth_name":"Govt Govt Higher Primary Primary School,north wing,chikkalagundi"},"geometry":{"type":"Point","coordinates":[75.4158859,16.04667]}},{"type":"Feature","properties":{"state":"Karnataka","district":2,"district_n":"BAGALKOT","pc":3,"pc_name":"Bagalkot","ac":22,"ac_name":"Bilgi","booth":153,"booth_name":"Govt Govt Kannada Boys Higher Primary School,virapur"},"geometry":{"type":"Point","coordinates":[75.60783,16.168354]}},{"type":"Feature","properties":{"state":"Karnataka","district":2,"district_n":"BAGALKOT","pc":3,"pc_name":"Bagalkot","ac":22,"ac_name":"Bilgi","booth":41,"booth_name":"Govt Govt Kannada Boys School,north wing Teggi"},"geometry":{"type":"Point","coordinates":[75.54038,16.3894348]}},{"type":"Feature","properties":{"state":"Karnataka","district":2,"district_n":"BAGALKOT","pc":3,"pc_name":"Bagalkot","ac":22,"ac_name":"Bilgi","booth":50,"booth_name":"Govt Govt Kannada Boys Higher Primary School , Right Wing Nagaral"},"geometry":{"type":"Point","coordinates":[75.6024857,16.3516273]}},{"type":"Feature","properties":{"state":"Karnataka","district":2,"district_n":"BAGALKOT","pc":3,"pc_name":"Bagalkot","ac":22,"ac_name":"Bilgi","booth":53,"booth_name":"Govt Govt Boys Higher Higher Primary School School Room No 1 Rolli R C"},"geometry":{"type":"Point","coordinates":[75.6948853,16.4175625]}},{"type":"Feature","properties":{"state":"Karnataka","district":2,"district_n":"BAGALKOT","pc":3,"pc_name":"Bagalkot","ac":22,"ac_name":"Bilgi","booth":61,"booth_name":"Govt kannada Girls School Left Wing,girisagar"},"geometry":{"type":"Point","coordinates":[75.6948853,16.4175625]}},{"type":"Feature","properties":{"state":"Karnataka","district":2,"district_n":"BAGALKOT","pc":3,"pc_name":"Bagalkot","ac":22,"ac_name":"Bilgi","booth":64,"booth_name":"Vijaya Higher School Left Wing,girisagar"},"geometry":{"type":"Point","coordinates":[75.69555,16.359602]}},{"type":"Feature","properties":{"state":"Karnataka","district":2,"district_n":"BAGALKOT","pc":3,"pc_name":"Bagalkot","ac":22,"ac_name":"Bilgi","booth":188,"booth_name":"higher primary primary School West Wing sulikeri"},"geometry":{"type":"Point","coordinates":[75.66165,16.1135578]}},{"type":"Feature","properties":{"state":"Karnataka","district":2,"district_n":"BAGALKOT","pc":3,"pc_name":"Bagalkot","ac":22,"ac_name":"Bilgi","booth":168,"booth_name":"Govt Govt Urdu Boys School Room No 4 Kaladagi"},"geometry":{"type":"Point","coordinates":[75.49994,16.2114353]}},{"type":"Feature","properties":{"state":"Karnataka","district":2,"district_n":"BAGALKOT","pc":3,"pc_name":"Bagalkot","ac":22,"ac_name":"Bilgi","booth":139,"booth_name":"Govt Govt Higher Primary Kannada Kannada Boys School,sokanadagi"},"geometry":{"type":"Point","coordinates":[75.56704,16.23294]}},{"type":"Feature","properties":{"state":"Karnataka","district":2,"district_n":"BAGALKOT","pc":3,"pc_name":"Bagalkot","ac":22,"ac_name":"Bilgi","booth":151,"booth_name":"Govt Govt Primary School School ( Muranal )east wing Simikeri R C 2"},"geometry":{"type":"Point","coordinates":[75.60956,16.8062572]}},{"type":"Feature","properties":{"state":"Karnataka","district":2,"district_n":"BAGALKOT","pc":3,"pc_name":"Bagalkot","ac":22,"ac_name":"Bilgi","booth":231,"booth_name":"Govt Govt Higher Primary School,hullikeri Inam"},"geometry":{"type":"Point","coordinates":[75.60282,15.9960775]}},{"type":"Feature","properties":{"state":"Karnataka","district":2,"district_n":"BAGALKOT","pc":3,"pc_name":"Bagalkot","ac":22,"ac_name":"Bilgi","booth":171,"booth_name":"Govt Govt Kannada Girls School South Wing,kaladagi"},"geometry":{"type":"Point","coordinates":[75.50033,16.209341]}},{"type":"Feature","properties":{"state":"Karnataka","district":2,"district_n":"BAGALKOT","pc":3,"pc_name":"Bagalkot","ac":22,"ac_name":"Bilgi","booth":108,"booth_name":"Govt Govt Boys School Right Side,koppa S K"},"geometry":{"type":"Point","coordinates":[75.45198,16.24872]}},{"type":"Feature","properties":{"state":"Karnataka","district":2,"district_n":"BAGALKOT","pc":3,"pc_name":"Bagalkot","ac":22,"ac_name":"Bilgi","booth":17,"booth_name":"Govt Govt Kannada Boys Higher Primary School ,west Side Dhawaleshwar R C"},"geometry":{"type":"Point","coordinates":[75.6024857,16.3516273]}},{"type":"Feature","properties":{"state":"Karnataka","district":2,"district_n":"BAGALKOT","pc":3,"pc_name":"Bagalkot","ac":22,"ac_name":"Bilgi","booth":31,"booth_name":"New English Samyukta P U College Central Side to West Wing,galagali"},"geometry":{"type":"Point","coordinates":[75.42967,16.4215469]}},{"type":"Feature","properties":{"state":"Karnataka","district":2,"district_n":"BAGALKOT","pc":3,"pc_name":"Bagalkot","ac":22,"ac_name":"Bilgi","booth":217,"booth_name":"Govt higher primary School pkir budhihal"},"geometry":{"type":"Point","coordinates":[75.4747849,16.0490761]}},{"type":"Feature","properties":{"state":"Karnataka","district":2,"district_n":"BAGALKOT","pc":3,"pc_name":"Bagalkot","ac":22,"ac_name":"Bilgi","booth":218,"booth_name":"Govt higher primary School,narenur Lt 02"},"geometry":{"type":"Point","coordinates":[75.51151,16.0608711]}},{"type":"Feature","properties":{"state":"Karnataka","district":2,"district_n":"BAGALKOT","pc":3,"pc_name":"Bagalkot","ac":22,"ac_name":"Bilgi","booth":220,"booth_name":"Govt higher primary primary School west Wing,yankanchi"},"geometry":{"type":"Point","coordinates":[75.6064453,16.0226879]}},{"type":"Feature","properties":{"state":"Karnataka","district":2,"district_n":"BAGALKOT","pc":3,"pc_name":"Bagalkot","ac":22,"ac_name":"Bilgi","booth":221,"booth_name":"Govt Higher Primary School,narenur"},"geometry":{"type":"Point","coordinates":[75.5070343,16.0408783]}},{"type":"Feature","properties":{"state":"Karnataka","district":2,"district_n":"BAGALKOT","pc":3,"pc_name":"Bagalkot","ac":22,"ac_name":"Bilgi","booth":223,"booth_name":"Govt Govt Higher Primary School,chinchalakatti"},"geometry":{"type":"Point","coordinates":[75.46789,16.0214062]}},{"type":"Feature","properties":{"state":"Karnataka","district":2,"district_n":"BAGALKOT","pc":3,"pc_name":"Bagalkot","ac":22,"ac_name":"Bilgi","booth":224,"booth_name":"Govt Higher Priry School,hulageri"},"geometry":{"type":"Point","coordinates":[75.48233,16.02331]}},{"type":"Feature","properties":{"state":"Karnataka","district":2,"district_n":"BAGALKOT","pc":3,"pc_name":"Bagalkot","ac":22,"ac_name":"Bilgi","booth":226,"booth_name":"Govt Govt Higher Primary School ,jangawad"},"geometry":{"type":"Point","coordinates":[75.4275055,16.0522633]}},{"type":"Feature","properties":{"state":"Karnataka","district":2,"district_n":"BAGALKOT","pc":3,"pc_name":"Bagalkot","ac":22,"ac_name":"Bilgi","booth":222,"booth_name":"Govt Higher Primary School,narenur L T"},"geometry":{"type":"Point","coordinates":[75.49992,16.039402]}},{"type":"Feature","properties":{"state":"Karnataka","district":2,"district_n":"BAGALKOT","pc":3,"pc_name":"Bagalkot","ac":22,"ac_name":"Bilgi","booth":225,"booth_name":"Govt Higher Primary School,havalakod"},"geometry":{"type":"Point","coordinates":[75.45277,16.0253849]}},{"type":"Feature","properties":{"state":"Karnataka","district":2,"district_n":"BAGALKOT","pc":3,"pc_name":"Bagalkot","ac":22,"ac_name":"Bilgi","booth":39,"booth_name":"Govt Govt Kannada Boys Higher Primary School,east wing Teggi"},"geometry":{"type":"Point","coordinates":[75.55213,16.386137]}},{"type":"Feature","properties":{"state":"Karnataka","district":2,"district_n":"BAGALKOT","pc":3,"pc_name":"Bagalkot","ac":22,"ac_name":"Bilgi","booth":42,"booth_name":"Gram Panchyat Office ,teggi"},"geometry":{"type":"Point","coordinates":[75.7127151,16.5691452]}},{"type":"Feature","properties":{"state":"Karnataka","district":2,"district_n":"BAGALKOT","pc":3,"pc_name":"Bagalkot","ac":22,"ac_name":"Bilgi","booth":56,"booth_name":"Govt Godown Room,bilagi cross 1"},"geometry":{"type":"Point","coordinates":[75.3831,16.196]}},{"type":"Feature","properties":{"state":"Karnataka","district":2,"district_n":"BAGALKOT","pc":3,"pc_name":"Bagalkot","ac":22,"ac_name":"Bilgi","booth":62,"booth_name":"Govt kannada Girls School Right Wing,girisagar"},"geometry":{"type":"Point","coordinates":[75.6948853,16.4175625]}},{"type":"Feature","properties":{"state":"Karnataka","district":2,"district_n":"BAGALKOT","pc":3,"pc_name":"Bagalkot","ac":22,"ac_name":"Bilgi","booth":65,"booth_name":"Govt Govt Higher Primary School,badagandi"},"geometry":{"type":"Point","coordinates":[75.647644,16.34512]}},{"type":"Feature","properties":{"state":"Karnataka","district":2,"district_n":"BAGALKOT","pc":3,"pc_name":"Bagalkot","ac":22,"ac_name":"Bilgi","booth":88,"booth_name":"Govt Govt Higher Primary School,tolamatti"},"geometry":{"type":"Point","coordinates":[75.63477,16.2979069]}},{"type":"Feature","properties":{"state":"Karnataka","district":2,"district_n":"BAGALKOT","pc":3,"pc_name":"Bagalkot","ac":22,"ac_name":"Bilgi","booth":96,"booth_name":"Govt Govt Higher Primary School, East Wing,janamatti"},"geometry":{"type":"Point","coordinates":[75.52645,16.2743034]}},{"type":"Feature","properties":{"state":"Karnataka","district":2,"district_n":"BAGALKOT","pc":3,"pc_name":"Bagalkot","ac":22,"ac_name":"Bilgi","booth":99,"booth_name":"Govt Govt Kannada Boys School,kundaragi L T 1"},"geometry":{"type":"Point","coordinates":[75.60973,16.274374]}},{"type":"Feature","properties":{"state":"Karnataka","district":2,"district_n":"BAGALKOT","pc":3,"pc_name":"Bagalkot","ac":22,"ac_name":"Bilgi","booth":102,"booth_name":"Govt Govt Boys Boys Higher Primary School, West Wing,arakeri"},"geometry":{"type":"Point","coordinates":[75.5084,16.291853]}},{"type":"Feature","properties":{"state":"Karnataka","district":2,"district_n":"BAGALKOT","pc":3,"pc_name":"Bagalkot","ac":22,"ac_name":"Bilgi","booth":105,"booth_name":"Govt Govt Junior College left wing,chikkalagundi"},"geometry":{"type":"Point","coordinates":[75.44858,16.2609425]}},{"type":"Feature","properties":{"state":"Karnataka","district":2,"district_n":"BAGALKOT","pc":3,"pc_name":"Bagalkot","ac":22,"ac_name":"Bilgi","booth":159,"booth_name":"Kannada Boys Lower Primary School,anadinni cross"},"geometry":{"type":"Point","coordinates":[75.61164,16.18585]}},{"type":"Feature","properties":{"state":"Karnataka","district":2,"district_n":"BAGALKOT","pc":3,"pc_name":"Bagalkot","ac":22,"ac_name":"Bilgi","booth":162,"booth_name":"Govt Govt Higher Primary Kannada Boys School West Wing,simikeri"},"geometry":{"type":"Point","coordinates":[75.6110458,16.17457]}},{"type":"Feature","properties":{"state":"Karnataka","district":2,"district_n":"BAGALKOT","pc":3,"pc_name":"Bagalkot","ac":22,"ac_name":"Bilgi","booth":165,"booth_name":"Govt Govt Gram Panchayat Office,tulasigeri"},"geometry":{"type":"Point","coordinates":[75.54888,16.1895847]}},{"type":"Feature","properties":{"state":"Karnataka","district":2,"district_n":"BAGALKOT","pc":3,"pc_name":"Bagalkot","ac":22,"ac_name":"Bilgi","booth":179,"booth_name":"Govt Govt Higher Primary Kannada Boys School,klasakoppa"},"geometry":{"type":"Point","coordinates":[75.50904,16.1521835]}},{"type":"Feature","properties":{"state":"Karnataka","district":2,"district_n":"BAGALKOT","pc":3,"pc_name":"Bagalkot","ac":22,"ac_name":"Bilgi","booth":215,"booth_name":"Govt higher primary School ,kainakatti"},"geometry":{"type":"Point","coordinates":[75.44888,16.0744915]}},{"type":"Feature","properties":{"state":"Karnataka","district":2,"district_n":"BAGALKOT","pc":3,"pc_name":"Bagalkot","ac":22,"ac_name":"Bilgi","booth":13,"booth_name":"Anganawadi Building Ballur R C"},"geometry":{"type":"Point","coordinates":[75.3154,16.2325]}},{"type":"Feature","properties":{"state":"Karnataka","district":2,"district_n":"BAGALKOT","pc":3,"pc_name":"Bagalkot","ac":22,"ac_name":"Bilgi","booth":16,"booth_name":"Girls Govt Govt H P S Middle Room,sonna R C"},"geometry":{"type":"Point","coordinates":[75.5648956,16.3529682]}},{"type":"Feature","properties":{"state":"Karnataka","district":2,"district_n":"BAGALKOT","pc":3,"pc_name":"Bagalkot","ac":22,"ac_name":"Bilgi","booth":19,"booth_name":"Govt Govt Kannada Boys Higher Primary School, East wing Bilagi cross 2"},"geometry":{"type":"Point","coordinates":[75.63092,16.34238]}},{"type":"Feature","properties":{"state":"Karnataka","district":2,"district_n":"BAGALKOT","pc":3,"pc_name":"Bagalkot","ac":22,"ac_name":"Bilgi","booth":22,"booth_name":"Govt Govt Higher Primary School,west wing Govinadinni R C"},"geometry":{"type":"Point","coordinates":[75.3804,16.2023]}},{"type":"Feature","properties":{"state":"Karnataka","district":2,"district_n":"BAGALKOT","pc":3,"pc_name":"Bagalkot","ac":22,"ac_name":"Bilgi","booth":25,"booth_name":"Govt Govt Urdu Higher Higher Primary School School Room No 1,galagali"},"geometry":{"type":"Point","coordinates":[75.39765,16.4106522]}},{"type":"Feature","properties":{"state":"Karnataka","district":2,"district_n":"BAGALKOT","pc":3,"pc_name":"Bagalkot","ac":22,"ac_name":"Bilgi","booth":2,"booth_name":"Govt Govt Higher Primary School, west wing Mundaganur"},"geometry":{"type":"Point","coordinates":[75.47345,16.4626865]}},{"type":"Feature","properties":{"state":"Karnataka","district":2,"district_n":"BAGALKOT","pc":3,"pc_name":"Bagalkot","ac":22,"ac_name":"Bilgi","booth":5,"booth_name":"Govt Boys School,chikkahanchinal"},"geometry":{"type":"Point","coordinates":[75.47345,16.4626865]}},{"type":"Feature","properties":{"state":"Karnataka","district":2,"district_n":"BAGALKOT","pc":3,"pc_name":"Bagalkot","ac":22,"ac_name":"Bilgi","booth":33,"booth_name":"Gram Panchayat Building,amalazari"},"geometry":{"type":"Point","coordinates":[75.3944855,16.3961678]}},{"type":"Feature","properties":{"state":"Karnataka","district":2,"district_n":"BAGALKOT","pc":3,"pc_name":"Bagalkot","ac":22,"ac_name":"Bilgi","booth":36,"booth_name":"Govt Model Primary School Left wing,yadahalli"},"geometry":{"type":"Point","coordinates":[75.45548,16.3991947]}},{"type":"Feature","properties":{"state":"Karnataka","district":2,"district_n":"BAGALKOT","pc":3,"pc_name":"Bagalkot","ac":22,"ac_name":"Bilgi","booth":45,"booth_name":"Govt Boys Lower Primary School ,siddapur L T"},"geometry":{"type":"Point","coordinates":[75.55213,16.3683186]}},{"type":"Feature","properties":{"state":"Karnataka","district":2,"district_n":"BAGALKOT","pc":3,"pc_name":"Bagalkot","ac":22,"ac_name":"Bilgi","booth":68,"booth_name":"Govt Kannada Model Boys School, new building, westwing room no 6,bilagi"},"geometry":{"type":"Point","coordinates":[75.65183,16.361454]}},{"type":"Feature","properties":{"state":"Karnataka","district":2,"district_n":"BAGALKOT","pc":3,"pc_name":"Bagalkot","ac":22,"ac_name":"Bilgi","booth":76,"booth_name":"Siddeshawar P U College, West wing,bilagi"},"geometry":{"type":"Point","coordinates":[75.60227,16.352314]}},{"type":"Feature","properties":{"state":"Karnataka","district":2,"district_n":"BAGALKOT","pc":3,"pc_name":"Bagalkot","ac":22,"ac_name":"Bilgi","booth":79,"booth_name":"Govt Govt Higher Primary School East East Wing,mannikeri"},"geometry":{"type":"Point","coordinates":[75.4015,16.193]}},{"type":"Feature","properties":{"state":"Karnataka","district":2,"district_n":"BAGALKOT","pc":3,"pc_name":"Bagalkot","ac":22,"ac_name":"Bilgi","booth":119,"booth_name":"Govt Govt Higher Primary School,kovalli"},"geometry":{"type":"Point","coordinates":[75.58386,16.2322559]}},{"type":"Feature","properties":{"state":"Karnataka","district":2,"district_n":"BAGALKOT","pc":3,"pc_name":"Bagalkot","ac":22,"ac_name":"Bilgi","booth":122,"booth_name":"Govt Higher Primary School School R C C Centre Centre East East Wing,anagawadi"},"geometry":{"type":"Point","coordinates":[75.63089,16.237154]}},{"type":"Feature","properties":{"state":"Karnataka","district":2,"district_n":"BAGALKOT","pc":3,"pc_name":"Bagalkot","ac":22,"ac_name":"Bilgi","booth":125,"booth_name":"Kannada Boys Higher Primary School West Wing,tummaramatti"},"geometry":{"type":"Point","coordinates":[75.3837,16.1544]}},{"type":"Feature","properties":{"state":"Karnataka","district":2,"district_n":"BAGALKOT","pc":3,"pc_name":"Bagalkot","ac":22,"ac_name":"Bilgi","booth":128,"booth_name":"Pragati Primary School Gram Panchayat Building Herakall R C"},"geometry":{"type":"Point","coordinates":[75.64462,16.3372688]}},{"type":"Feature","properties":{"state":"Karnataka","district":2,"district_n":"BAGALKOT","pc":3,"pc_name":"Bagalkot","ac":22,"ac_name":"Bilgi","booth":131,"booth_name":"Govt Govt Lower Primary Kannada Boys School No 3 (sindagi),simikeri R C"},"geometry":{"type":"Point","coordinates":[75.60655,16.159832]}},{"type":"Feature","properties":{"state":"Karnataka","district":2,"district_n":"BAGALKOT","pc":3,"pc_name":"Bagalkot","ac":22,"ac_name":"Bilgi","booth":142,"booth_name":"Govt Govt Higher Primary Kannada Boys School,right side Devanal"},"geometry":{"type":"Point","coordinates":[75.54647,16.22383]}},{"type":"Feature","properties":{"state":"Karnataka","district":2,"district_n":"BAGALKOT","pc":3,"pc_name":"Bagalkot","ac":22,"ac_name":"Bilgi","booth":145,"booth_name":"Govt Govt Higher Primary Kannada Boys Boys School,ankalagi"},"geometry":{"type":"Point","coordinates":[75.487915,16.2177086]}},{"type":"Feature","properties":{"state":"Karnataka","district":2,"district_n":"BAGALKOT","pc":3,"pc_name":"Bagalkot","ac":22,"ac_name":"Bilgi","booth":148,"booth_name":"Govt Govt Higher Primary Kannada Boys School,anadinni"},"geometry":{"type":"Point","coordinates":[75.61797,16.2127666]}},{"type":"Feature","properties":{"state":"Karnataka","district":2,"district_n":"BAGALKOT","pc":3,"pc_name":"Bagalkot","ac":22,"ac_name":"Bilgi","booth":182,"booth_name":"Govt Govt Higher Kannada Boys School R N 5 West Wing,hiresellikeri"},"geometry":{"type":"Point","coordinates":[75.52779,16.15502]}},{"type":"Feature","properties":{"state":"Karnataka","district":2,"district_n":"BAGALKOT","pc":3,"pc_name":"Bagalkot","ac":22,"ac_name":"Bilgi","booth":185,"booth_name":"higher primary School west wing kerakalmatti"},"geometry":{"type":"Point","coordinates":[75.58103,16.1324825]}},{"type":"Feature","properties":{"state":"Karnataka","district":2,"district_n":"BAGALKOT","pc":3,"pc_name":"Bagalkot","ac":22,"ac_name":"Bilgi","booth":191,"booth_name":"govt higher primary School,hulageri"},"geometry":{"type":"Point","coordinates":[75.58188,16.0865555]}},{"type":"Feature","properties":{"state":"Karnataka","district":2,"district_n":"BAGALKOT","pc":3,"pc_name":"Bagalkot","ac":22,"ac_name":"Bilgi","booth":211,"booth_name":"Govt Govt Higher Primary School,agasanakoppa"},"geometry":{"type":"Point","coordinates":[75.56511,16.0572033]}},{"type":"Feature","properties":{"state":"Karnataka","district":2,"district_n":"BAGALKOT","pc":3,"pc_name":"Bagalkot","ac":22,"ac_name":"Bilgi","booth":199,"booth_name":"Govt Govt Higher Primary School,north wing,yandigeri"},"geometry":{"type":"Point","coordinates":[75.49304,16.130188]}},{"type":"Feature","properties":{"state":"Karnataka","district":2,"district_n":"BAGALKOT","pc":3,"pc_name":"Bagalkot","ac":22,"ac_name":"Bilgi","booth":202,"booth_name":"Govt Higher Primary School,east wing,kadarakopp"},"geometry":{"type":"Point","coordinates":[75.41529,16.1332245]}},{"type":"Feature","properties":{"state":"Karnataka","district":2,"district_n":"BAGALKOT","pc":3,"pc_name":"Bagalkot","ac":22,"ac_name":"Bilgi","booth":205,"booth_name":"Govt Govt Higher Primary School West Wing Anwal"},"geometry":{"type":"Point","coordinates":[75.4726944,16.1007366]}},{"type":"Feature","properties":{"state":"Karnataka","district":2,"district_n":"BAGALKOT","pc":3,"pc_name":"Bagalkot","ac":22,"ac_name":"Bilgi","booth":208,"booth_name":"Govt Higher Primary School North wing Jalageri L T"},"geometry":{"type":"Point","coordinates":[75.52847,16.0942383]}},{"type":"Feature","properties":{"state":"Karnataka","district":2,"district_n":"BAGALKOT","pc":3,"pc_name":"Bagalkot","ac":22,"ac_name":"Bilgi","booth":228,"booth_name":"Govt Higher Primary School,hanamaneri"},"geometry":{"type":"Point","coordinates":[75.4959259,16.012701]}},{"type":"Feature","properties":{"state":"Karnataka","district":2,"district_n":"BAGALKOT","pc":3,"pc_name":"Bagalkot","ac":22,"ac_name":"Bilgi","booth":234,"booth_name":"Govt Higher Primary School,halakurki"},"geometry":{"type":"Point","coordinates":[75.6451,16.0049858]}},{"type":"Feature","properties":{"state":"Karnataka","district":2,"district_n":"BAGALKOT","pc":3,"pc_name":"Bagalkot","ac":22,"ac_name":"Bilgi","booth":59,"booth_name":"Govt Lower Primary School,koppa S R"},"geometry":{"type":"Point","coordinates":[75.90464,16.3823586]}},{"type":"Feature","properties":{"state":"Karnataka","district":2,"district_n":"BAGALKOT","pc":3,"pc_name":"Bagalkot","ac":22,"ac_name":"Bilgi","booth":85,"booth_name":"Govt Govt Kannada Higher Primary School, Honnihal R C"},"geometry":{"type":"Point","coordinates":[75.4218,16.2009]}},{"type":"Feature","properties":{"state":"Karnataka","district":2,"district_n":"BAGALKOT","pc":3,"pc_name":"Bagalkot","ac":22,"ac_name":"Bilgi","booth":214,"booth_name":"Govt higher primary School shiparamatti"},"geometry":{"type":"Point","coordinates":[75.43308,16.0717678]}},{"type":"Feature","properties":{"state":"Karnataka","district":2,"district_n":"BAGALKOT","pc":3,"pc_name":"Bagalkot","ac":22,"ac_name":"Bilgi","booth":197,"booth_name":"Govt higher primary school nirabudhihal"},"geometry":{"type":"Point","coordinates":[75.5260849,16.1300068]}},{"type":"Feature","properties":{"state":"Karnataka","district":2,"district_n":"BAGALKOT","pc":3,"pc_name":"Bagalkot","ac":22,"ac_name":"Bilgi","booth":198,"booth_name":"Govt higher primary School karawigudda S A"},"geometry":{"type":"Point","coordinates":[75.50109,16.1304245]}},{"type":"Feature","properties":{"state":"Karnataka","district":2,"district_n":"BAGALKOT","pc":3,"pc_name":"Bagalkot","ac":22,"ac_name":"Bilgi","booth":200,"booth_name":"Govt Govt Higher Primary School,south wing Yandigeri"},"geometry":{"type":"Point","coordinates":[75.4928741,16.1301727]}},{"type":"Feature","properties":{"state":"Karnataka","district":2,"district_n":"BAGALKOT","pc":3,"pc_name":"Bagalkot","ac":22,"ac_name":"Bilgi","booth":201,"booth_name":"Govt higher primary School,hanamaneri inam"},"geometry":{"type":"Point","coordinates":[75.44732,16.139761]}},{"type":"Feature","properties":{"state":"Karnataka","district":2,"district_n":"BAGALKOT","pc":3,"pc_name":"Bagalkot","ac":22,"ac_name":"Bilgi","booth":203,"booth_name":"Govt Govt Higher Primary School,east wing Kadarakoppa"},"geometry":{"type":"Point","coordinates":[75.4155045,16.13316]}},{"type":"Feature","properties":{"state":"Karnataka","district":2,"district_n":"BAGALKOT","pc":3,"pc_name":"Bagalkot","ac":22,"ac_name":"Bilgi","booth":206,"booth_name":"Govt Govt Higher Primary School North Wing,anawal"},"geometry":{"type":"Point","coordinates":[75.4726944,16.1005764]}},{"type":"Feature","properties":{"state":"Karnataka","district":2,"district_n":"BAGALKOT","pc":3,"pc_name":"Bagalkot","ac":22,"ac_name":"Bilgi","booth":229,"booth_name":"Govt Govt Higher Primary School ,mattikatti"},"geometry":{"type":"Point","coordinates":[75.5668,16.0196075]}},{"type":"Feature","properties":{"state":"Karnataka","district":2,"district_n":"BAGALKOT","pc":3,"pc_name":"Bagalkot","ac":22,"ac_name":"Bilgi","booth":232,"booth_name":"Govt Govt Higher Primary School halakurki"},"geometry":{"type":"Point","coordinates":[75.6452255,16.0045319]}},{"type":"Feature","properties":{"state":"Karnataka","district":2,"district_n":"BAGALKOT","pc":3,"pc_name":"Bagalkot","ac":22,"ac_name":"Bilgi","booth":235,"booth_name":"Govt Govt Higher Primary School ,halakurki"},"geometry":{"type":"Point","coordinates":[75.6346741,15.9884653]}},{"type":"Feature","properties":{"state":"Karnataka","district":2,"district_n":"BAGALKOT","pc":3,"pc_name":"Bagalkot","ac":22,"ac_name":"Bilgi","booth":3,"booth_name":"Govt Govt Higher Primary School ,new Building Right wing Kolur"},"geometry":{"type":"Point","coordinates":[75.6254654,16.7111187]}},{"type":"Feature","properties":{"state":"Karnataka","district":2,"district_n":"BAGALKOT","pc":3,"pc_name":"Bagalkot","ac":22,"ac_name":"Bilgi","booth":6,"booth_name":"Govt Govt Boys Boys Higher Primary School,rabakavi"},"geometry":{"type":"Point","coordinates":[75.4297,16.4215469]}},{"type":"Feature","properties":{"state":"Karnataka","district":2,"district_n":"BAGALKOT","pc":3,"pc_name":"Bagalkot","ac":22,"ac_name":"Bilgi","booth":8,"booth_name":"Govt Govt Kannada Lower Lower Primary School Patras Saed,gudadinni"},"geometry":{"type":"Point","coordinates":[75.64835,16.3529682]}},{"type":"Feature","properties":{"state":"Karnataka","district":2,"district_n":"BAGALKOT","pc":3,"pc_name":"Bagalkot","ac":22,"ac_name":"Bilgi","booth":9,"booth_name":"Govt Govt Govt Kannada Boys Higher Primary School South side,badagi"},"geometry":{"type":"Point","coordinates":[75.4546661,16.398922]}},{"type":"Feature","properties":{"state":"Karnataka","district":2,"district_n":"BAGALKOT","pc":3,"pc_name":"Bagalkot","ac":22,"ac_name":"Bilgi","booth":11,"booth_name":"Govt Govt Kannada Boys Higher Primary School Right side,inam Hanchinal"},"geometry":{"type":"Point","coordinates":[75.3128,16.2456]}},{"type":"Feature","properties":{"state":"Karnataka","district":2,"district_n":"BAGALKOT","pc":3,"pc_name":"Bagalkot","ac":22,"ac_name":"Bilgi","booth":12,"booth_name":"Govt Govt Kannada Boys Higher Primary School Left side,inam Hanchinal"},"geometry":{"type":"Point","coordinates":[75.3127,16.2456]}},{"type":"Feature","properties":{"state":"Karnataka","district":2,"district_n":"BAGALKOT","pc":3,"pc_name":"Bagalkot","ac":22,"ac_name":"Bilgi","booth":14,"booth_name":"Govt Govt Kannada Boys Higher Primary School Right side,sonna R C"},"geometry":{"type":"Point","coordinates":[75.64835,16.3529682]}},{"type":"Feature","properties":{"state":"Karnataka","district":2,"district_n":"BAGALKOT","pc":3,"pc_name":"Bagalkot","ac":22,"ac_name":"Bilgi","booth":15,"booth_name":"Govt Govt Kannada Boys Higher Primary School Left side,sonna R C"},"geometry":{"type":"Point","coordinates":[75.64835,16.3529682]}},{"type":"Feature","properties":{"state":"Karnataka","district":2,"district_n":"BAGALKOT","pc":3,"pc_name":"Bagalkot","ac":22,"ac_name":"Bilgi","booth":17,"booth_name":"Govt Govt Kannada Boys Higher Primary School ,dhawaleshwar R C"},"geometry":{"type":"Point","coordinates":[75.6024857,16.3516273]}},{"type":"Feature","properties":{"state":"Karnataka","district":2,"district_n":"BAGALKOT","pc":3,"pc_name":"Bagalkot","ac":22,"ac_name":"Bilgi","booth":20,"booth_name":"Govt Govt Kannada Boys Higher Primary School, West wing Bilagi cross 2"},"geometry":{"type":"Point","coordinates":[75.63092,16.34238]}},{"type":"Feature","properties":{"state":"Karnataka","district":2,"district_n":"BAGALKOT","pc":3,"pc_name":"Bagalkot","ac":22,"ac_name":"Bilgi","booth":23,"booth_name":"Govt Govt Higher Primary School,budihal S G"},"geometry":{"type":"Point","coordinates":[75.47075,16.416769]}},{"type":"Feature","properties":{"state":"Karnataka","district":2,"district_n":"BAGALKOT","pc":3,"pc_name":"Bagalkot","ac":22,"ac_name":"Bilgi","booth":26,"booth_name":"Govt Govt Urdu Higher Higher Primary School School Room No 1,galagali"},"geometry":{"type":"Point","coordinates":[75.4297,16.4215469]}},{"type":"Feature","properties":{"state":"Karnataka","district":2,"district_n":"BAGALKOT","pc":3,"pc_name":"Bagalkot","ac":22,"ac_name":"Bilgi","booth":28,"booth_name":"Govt Govt Urdu Urdu Higher Primary School, Room No 4 Galagali"},"geometry":{"type":"Point","coordinates":[75.44041,16.4144363]}},{"type":"Feature","properties":{"state":"Karnataka","district":2,"district_n":"BAGALKOT","pc":3,"pc_name":"Bagalkot","ac":22,"ac_name":"Bilgi","booth":29,"booth_name":"New English Samyukta Samyukta P U College East Wing,galagali"},"geometry":{"type":"Point","coordinates":[75.4297,16.4215469]}},{"type":"Feature","properties":{"state":"Karnataka","district":2,"district_n":"BAGALKOT","pc":3,"pc_name":"Bagalkot","ac":22,"ac_name":"Bilgi","booth":31,"booth_name":"New English Samyukta P U College West Wing,galagali"},"geometry":{"type":"Point","coordinates":[75.42967,16.4215469]}},{"type":"Feature","properties":{"state":"Karnataka","district":2,"district_n":"BAGALKOT","pc":3,"pc_name":"Bagalkot","ac":22,"ac_name":"Bilgi","booth":32,"booth_name":"Govt Govt Higher Primary School,amalazari"},"geometry":{"type":"Point","coordinates":[75.3944855,16.3961678]}},{"type":"Feature","properties":{"state":"Karnataka","district":2,"district_n":"BAGALKOT","pc":3,"pc_name":"Bagalkot","ac":22,"ac_name":"Bilgi","booth":34,"booth_name":"Govt Govt Model Primary School, Right Right Side, Yadahalli"},"geometry":{"type":"Point","coordinates":[75.45548,16.3991947]}},{"type":"Feature","properties":{"state":"Karnataka","district":2,"district_n":"BAGALKOT","pc":3,"pc_name":"Bagalkot","ac":22,"ac_name":"Bilgi","booth":35,"booth_name":"Gram Panchayat Office Yadahalli"},"geometry":{"type":"Point","coordinates":[75.45548,16.3991947]}},{"type":"Feature","properties":{"state":"Karnataka","district":2,"district_n":"BAGALKOT","pc":3,"pc_name":"Bagalkot","ac":22,"ac_name":"Bilgi","booth":37,"booth_name":"Govt Govt Higher Primary School, Bisanal"},"geometry":{"type":"Point","coordinates":[75.36566,16.2546463]}},{"type":"Feature","properties":{"state":"Karnataka","district":2,"district_n":"BAGALKOT","pc":3,"pc_name":"Bagalkot","ac":22,"ac_name":"Bilgi","booth":46,"booth_name":"Govt Govt Kannada Model Primary School , West Side Siddapur"},"geometry":{"type":"Point","coordinates":[75.54038,16.3894348]}},{"type":"Feature","properties":{"state":"Karnataka","district":2,"district_n":"BAGALKOT","pc":3,"pc_name":"Bagalkot","ac":22,"ac_name":"Bilgi","booth":48,"booth_name":"Govt Govt Kannada Boys Higher Higher School left side,nagaral"},"geometry":{"type":"Point","coordinates":[75.6024857,16.3516273]}},{"type":"Feature","properties":{"state":"Karnataka","district":2,"district_n":"BAGALKOT","pc":3,"pc_name":"Bagalkot","ac":22,"ac_name":"Bilgi","booth":49,"booth_name":"Govt Govt Higher Primary School,kontikall"},"geometry":{"type":"Point","coordinates":[75.45938,16.3813972]}},{"type":"Feature","properties":{"state":"Karnataka","district":2,"district_n":"BAGALKOT","pc":3,"pc_name":"Bagalkot","ac":22,"ac_name":"Bilgi","booth":66,"booth_name":"Govt Govt Gram Chawadi,bilagi"},"geometry":{"type":"Point","coordinates":[75.60227,16.352314]}},{"type":"Feature","properties":{"state":"Karnataka","district":2,"district_n":"BAGALKOT","pc":3,"pc_name":"Bagalkot","ac":22,"ac_name":"Bilgi","booth":69,"booth_name":"Govt Govt Model kannda Boys School, new building, west room no 7,bilagi"},"geometry":{"type":"Point","coordinates":[75.6195145,16.34657]}},{"type":"Feature","properties":{"state":"Karnataka","district":2,"district_n":"BAGALKOT","pc":3,"pc_name":"Bagalkot","ac":22,"ac_name":"Bilgi","booth":71,"booth_name":"Govt Govt Model Kannada Boys School, new building, west room no 2,bilagi"},"geometry":{"type":"Point","coordinates":[75.6024857,16.3516273]}},{"type":"Feature","properties":{"state":"Karnataka","district":2,"district_n":"BAGALKOT","pc":3,"pc_name":"Bagalkot","ac":22,"ac_name":"Bilgi","booth":72,"booth_name":"Govt Govt Urdu School, west wing, basaveshwar nagar,bilagi"},"geometry":{"type":"Point","coordinates":[75.6518555,16.3614216]}},{"type":"Feature","properties":{"state":"Karnataka","district":2,"district_n":"BAGALKOT","pc":3,"pc_name":"Bagalkot","ac":22,"ac_name":"Bilgi","booth":74,"booth_name":"Siddeshwar P U College (middle wing),bilagi"},"geometry":{"type":"Point","coordinates":[75.61899,16.3469067]}},{"type":"Feature","properties":{"state":"Karnataka","district":2,"district_n":"BAGALKOT","pc":3,"pc_name":"Bagalkot","ac":22,"ac_name":"Bilgi","booth":75,"booth_name":"Siddeshawar P U College ( East wing),bilagi"},"geometry":{"type":"Point","coordinates":[75.60227,16.352314]}},{"type":"Feature","properties":{"state":"Karnataka","district":2,"district_n":"BAGALKOT","pc":3,"pc_name":"Bagalkot","ac":22,"ac_name":"Bilgi","booth":77,"booth_name":"Govt Govt Lower Primary School ( Old building)bilagi"},"geometry":{"type":"Point","coordinates":[75.6024857,16.3516273]}},{"type":"Feature","properties":{"state":"Karnataka","district":2,"district_n":"BAGALKOT","pc":3,"pc_name":"Bagalkot","ac":22,"ac_name":"Bilgi","booth":78,"booth_name":"Govt Govt Lower Primary School New Building Bilagi"},"geometry":{"type":"Point","coordinates":[75.6024857,16.3516273]}},{"type":"Feature","properties":{"state":"Karnataka","district":2,"district_n":"BAGALKOT","pc":3,"pc_name":"Bagalkot","ac":22,"ac_name":"Bilgi","booth":80,"booth_name":"Govt Govt Higher Primary School West Wing,mannikeri"},"geometry":{"type":"Point","coordinates":[75.6928558,16.4336357]}},{"type":"Feature","properties":{"state":"Karnataka","district":2,"district_n":"BAGALKOT","pc":3,"pc_name":"Bagalkot","ac":22,"ac_name":"Bilgi","booth":91,"booth_name":"Govt Girls higher Primary School Left wing,sunag"},"geometry":{"type":"Point","coordinates":[75.63768,16.3231525]}},{"type":"Feature","properties":{"state":"Karnataka","district":2,"district_n":"BAGALKOT","pc":3,"pc_name":"Bagalkot","ac":22,"ac_name":"Bilgi","booth":92,"booth_name":"Govt Govt Boys Higher Primary School East Wing"},"geometry":{"type":"Point","coordinates":[75.62913,16.2913666]}},{"type":"Feature","properties":{"state":"Karnataka","district":2,"district_n":"BAGALKOT","pc":3,"pc_name":"Bagalkot","ac":22,"ac_name":"Bilgi","booth":111,"booth_name":"Govt Govt Higher Primary School (right Wing),kataraki"},"geometry":{"type":"Point","coordinates":[75.45198,16.24872]}},{"type":"Feature","properties":{"state":"Karnataka","district":2,"district_n":"BAGALKOT","pc":3,"pc_name":"Bagalkot","ac":22,"ac_name":"Bilgi","booth":112,"booth_name":"Govt Govt Higher Primary School,lingapur S K"},"geometry":{"type":"Point","coordinates":[75.45198,16.24872]}},{"type":"Feature","properties":{"state":"Karnataka","district":2,"district_n":"BAGALKOT","pc":3,"pc_name":"Bagalkot","ac":22,"ac_name":"Bilgi","booth":114,"booth_name":"Govt Govt Higher Primary School Right Wing,shiraguppi"},"geometry":{"type":"Point","coordinates":[75.52231,16.2414913]}},{"type":"Feature","properties":{"state":"Karnataka","district":2,"district_n":"BAGALKOT","pc":3,"pc_name":"Bagalkot","ac":22,"ac_name":"Bilgi","booth":115,"booth_name":"Govt Govt Mla School, Right Side Kundaragi"},"geometry":{"type":"Point","coordinates":[75.52231,16.2414913]}},{"type":"Feature","properties":{"state":"Karnataka","district":2,"district_n":"BAGALKOT","pc":3,"pc_name":"Bagalkot","ac":22,"ac_name":"Bilgi","booth":118,"booth_name":"Govt Govt Kannada Higher Primary School,bavalatti"},"geometry":{"type":"Point","coordinates":[75.60555,16.1926765]}},{"type":"Feature","properties":{"state":"Karnataka","district":2,"district_n":"BAGALKOT","pc":3,"pc_name":"Bagalkot","ac":22,"ac_name":"Bilgi","booth":120,"booth_name":"Govt Higher Primary School East Wing,budihal S H"},"geometry":{"type":"Point","coordinates":[75.6179352,16.29789]}},{"type":"Feature","properties":{"state":"Karnataka","district":2,"district_n":"BAGALKOT","pc":3,"pc_name":"Bagalkot","ac":22,"ac_name":"Bilgi","booth":123,"booth_name":"Govt Higher Primary School Rc centre West Wing,anagawadi"},"geometry":{"type":"Point","coordinates":[75.63089,16.27734]}},{"type":"Feature","properties":{"state":"Karnataka","district":2,"district_n":"BAGALKOT","pc":3,"pc_name":"Bagalkot","ac":22,"ac_name":"Bilgi","booth":126,"booth_name":"Govt Govt Samyukta Higher School Room No 1,herakall R C"},"geometry":{"type":"Point","coordinates":[75.64462,16.3372688]}},{"type":"Feature","properties":{"state":"Karnataka","district":2,"district_n":"BAGALKOT","pc":3,"pc_name":"Bagalkot","ac":22,"ac_name":"Bilgi","booth":129,"booth_name":"Govt Govt Kannada Boys School,yalligutti"},"geometry":{"type":"Point","coordinates":[75.4201,16.1402]}},{"type":"Feature","properties":{"state":"Karnataka","district":2,"district_n":"BAGALKOT","pc":3,"pc_name":"Bagalkot","ac":22,"ac_name":"Bilgi","booth":132,"booth_name":"Govt Higher Primary Kannada Boys School,kadampur"},"geometry":{"type":"Point","coordinates":[75.69557,16.2112827]}},{"type":"Feature","properties":{"state":"Karnataka","district":2,"district_n":"BAGALKOT","pc":3,"pc_name":"Bagalkot","ac":22,"ac_name":"Bilgi","booth":134,"booth_name":"Govt Govt Higher Primary Kannada Boys School,sorakoppa"},"geometry":{"type":"Point","coordinates":[75.6468048,16.2247715]}},{"type":"Feature","properties":{"state":"Karnataka","district":2,"district_n":"BAGALKOT","pc":3,"pc_name":"Bagalkot","ac":22,"ac_name":"Bilgi","booth":135,"booth_name":"Govt Govt Higher Primary Kannada Boys School,nakkaragundi"},"geometry":{"type":"Point","coordinates":[75.66211,16.2266083]}},{"type":"Feature","properties":{"state":"Karnataka","district":2,"district_n":"BAGALKOT","pc":3,"pc_name":"Bagalkot","ac":22,"ac_name":"Bilgi","booth":137,"booth_name":"Govt Govt Higher Primary Kannada Boys School,east wing Chibbi R C"},"geometry":{"type":"Point","coordinates":[75.59546,16.2112541]}},{"type":"Feature","properties":{"state":"Karnataka","district":2,"district_n":"BAGALKOT","pc":3,"pc_name":"Bagalkot","ac":22,"ac_name":"Bilgi","booth":138,"booth_name":"Govt Govt Higher Primary Kannada Boys School,west wing Chibbi R C"},"geometry":{"type":"Point","coordinates":[75.5952454,16.2113323]}},{"type":"Feature","properties":{"state":"Karnataka","district":2,"district_n":"BAGALKOT","pc":3,"pc_name":"Bagalkot","ac":22,"ac_name":"Bilgi","booth":140,"booth_name":"Govt Govt Higher Primary Kannada Kannada Boys School,west wing Sokanadagi"},"geometry":{"type":"Point","coordinates":[75.56668,16.2325535]}},{"type":"Feature","properties":{"state":"Karnataka","district":2,"district_n":"BAGALKOT","pc":3,"pc_name":"Bagalkot","ac":22,"ac_name":"Bilgi","booth":141,"booth_name":"Govt Govt Higher Primary Kannada Boys School,left Side Devanal"},"geometry":{"type":"Point","coordinates":[75.54637,16.22407]}},{"type":"Feature","properties":{"state":"Karnataka","district":2,"district_n":"BAGALKOT","pc":3,"pc_name":"Bagalkot","ac":22,"ac_name":"Bilgi","booth":143,"booth_name":"Govt Higher Primary Kannada Boys School,hiresanshi"},"geometry":{"type":"Point","coordinates":[75.52774,16.228508]}},{"type":"Feature","properties":{"state":"Karnataka","district":2,"district_n":"BAGALKOT","pc":3,"pc_name":"Bagalkot","ac":22,"ac_name":"Bilgi","booth":146,"booth_name":"Govt Govt Higher Primary Kannada Boys School,udagatti"},"geometry":{"type":"Point","coordinates":[75.45935,16.2351437]}},{"type":"Feature","properties":{"state":"Karnataka","district":2,"district_n":"BAGALKOT","pc":3,"pc_name":"Bagalkot","ac":22,"ac_name":"Bilgi","booth":149,"booth_name":"Govt Govt Higher Primary Kannada Boys School,banadinni"},"geometry":{"type":"Point","coordinates":[75.63108,16.217783]}},{"type":"Feature","properties":{"state":"Karnataka","district":2,"district_n":"BAGALKOT","pc":3,"pc_name":"Bagalkot","ac":22,"ac_name":"Bilgi","booth":152,"booth_name":"Govt Govt Model Primary School(muranal) Simikeri R C 2"},"geometry":{"type":"Point","coordinates":[75.60938,16.1808033]}},{"type":"Feature","properties":{"state":"Karnataka","district":2,"district_n":"BAGALKOT","pc":3,"pc_name":"Bagalkot","ac":22,"ac_name":"Bilgi","booth":166,"booth_name":"Govt Govt Kannada Boys School South winggovindakopp"},"geometry":{"type":"Point","coordinates":[75.51346,16.1954327]}},{"type":"Feature","properties":{"state":"Karnataka","district":2,"district_n":"BAGALKOT","pc":3,"pc_name":"Bagalkot","ac":22,"ac_name":"Bilgi","booth":181,"booth_name":"Govt Govt Higher Primary Kannada Boys School Eist Wing,hiresellikeri"},"geometry":{"type":"Point","coordinates":[75.52774,16.1550789]}},{"type":"Feature","properties":{"state":"Karnataka","district":2,"district_n":"BAGALKOT","pc":3,"pc_name":"Bagalkot","ac":22,"ac_name":"Bilgi","booth":183,"booth_name":"higher primary school gangan budihal"},"geometry":{"type":"Point","coordinates":[75.56174,16.1185055]}},{"type":"Feature","properties":{"state":"Karnataka","district":2,"district_n":"BAGALKOT","pc":3,"pc_name":"Bagalkot","ac":22,"ac_name":"Bilgi","booth":186,"booth_name":"higher primary school south wing kagalagomb"},"geometry":{"type":"Point","coordinates":[75.6207,16.108139]}},{"type":"Feature","properties":{"state":"Karnataka","district":2,"district_n":"BAGALKOT","pc":3,"pc_name":"Bagalkot","ac":22,"ac_name":"Bilgi","booth":189,"booth_name":"kannad Higher Primary School South Wing,sulikeri"},"geometry":{"type":"Point","coordinates":[75.661705,16.1135235]}},{"type":"Feature","properties":{"state":"Karnataka","district":2,"district_n":"BAGALKOT","pc":3,"pc_name":"Bagalkot","ac":22,"ac_name":"Bilgi","booth":192,"booth_name":"Govt higher primary School,hulageri"},"geometry":{"type":"Point","coordinates":[75.5817642,16.08668]}},{"type":"Feature","properties":{"state":"Karnataka","district":2,"district_n":"BAGALKOT","pc":3,"pc_name":"Bagalkot","ac":22,"ac_name":"Bilgi","booth":194,"booth_name":"Govt Higher Primary School School,east wing Jalgeri"},"geometry":{"type":"Point","coordinates":[75.54617,16.10477]}},{"type":"Feature","properties":{"state":"Karnataka","district":2,"district_n":"BAGALKOT","pc":3,"pc_name":"Bagalkot","ac":22,"ac_name":"Bilgi","booth":195,"booth_name":"Govt Govt Urdu Higher Primary School South wing,jalageri"},"geometry":{"type":"Point","coordinates":[75.54644,16.10405]}},{"type":"Feature","properties":{"state":"Karnataka","district":2,"district_n":"BAGALKOT","pc":3,"pc_name":"Bagalkot","ac":22,"ac_name":"Bilgi","booth":209,"booth_name":"Govt Higher Primary School East wing Jalageri L T"},"geometry":{"type":"Point","coordinates":[75.5285339,16.0942268]}},{"type":"Feature","properties":{"state":"Karnataka","district":2,"district_n":"BAGALKOT","pc":3,"pc_name":"Bagalkot","ac":22,"ac_name":"Bilgi","booth":212,"booth_name":"Govt Govt Higher Primary School,malagi"},"geometry":{"type":"Point","coordinates":[75.54005,16.0533333]}},{"type":"Feature","properties":{"state":"Karnataka","district":2,"district_n":"BAGALKOT","pc":3,"pc_name":"Bagalkot","ac":22,"ac_name":"Bilgi","booth":161,"booth_name":"Govt Govt Higher Primary Kannada Boys School East Wing,simikeri"},"geometry":{"type":"Point","coordinates":[75.61132,16.174696]}},{"type":"Feature","properties":{"state":"Karnataka","district":2,"district_n":"BAGALKOT","pc":3,"pc_name":"Bagalkot","ac":22,"ac_name":"Bilgi","booth":163,"booth_name":"Govt Govt Higher Primary Kannada Boys School East Wing,tulasigeri"},"geometry":{"type":"Point","coordinates":[75.55567,16.1874924]}},{"type":"Feature","properties":{"state":"Karnataka","district":2,"district_n":"BAGALKOT","pc":3,"pc_name":"Bagalkot","ac":22,"ac_name":"Bilgi","booth":169,"booth_name":"Anganawadi Building,kaladagi"},"geometry":{"type":"Point","coordinates":[75.50179,16.2106686]}},{"type":"Feature","properties":{"state":"Karnataka","district":2,"district_n":"BAGALKOT","pc":3,"pc_name":"Bagalkot","ac":22,"ac_name":"Bilgi","booth":172,"booth_name":"Govt Govt Kannada Girls School New Building South Wing,kaladagi"},"geometry":{"type":"Point","coordinates":[75.50055,16.2092133]}},{"type":"Feature","properties":{"state":"Karnataka","district":2,"district_n":"BAGALKOT","pc":3,"pc_name":"Bagalkot","ac":22,"ac_name":"Bilgi","booth":174,"booth_name":"Govt Govt Urdu Boys School Room No 6,kaladagi"},"geometry":{"type":"Point","coordinates":[75.4975052,16.2037067]}},{"type":"Feature","properties":{"state":"Karnataka","district":2,"district_n":"BAGALKOT","pc":3,"pc_name":"Bagalkot","ac":22,"ac_name":"Bilgi","booth":175,"booth_name":"Govt Govt Urdu Boys School Room No 1 New Building,kaladagi"},"geometry":{"type":"Point","coordinates":[75.4977951,16.2037144]}},{"type":"Feature","properties":{"state":"Karnataka","district":2,"district_n":"BAGALKOT","pc":3,"pc_name":"Bagalkot","ac":22,"ac_name":"Bilgi","booth":177,"booth_name":"Govt Govt Higher Primary Boys School North Wing,khajjidoni"},"geometry":{"type":"Point","coordinates":[75.4500351,16.17482]}},{"type":"Feature","properties":{"state":"Karnataka","district":2,"district_n":"BAGALKOT","pc":3,"pc_name":"Bagalkot","ac":22,"ac_name":"Bilgi","booth":178,"booth_name":"Govt Kannada Higher Primary Boys School South Wing,khajjidoni"},"geometry":{"type":"Point","coordinates":[75.45001,16.17453]}},{"type":"Feature","properties":{"state":"Karnataka","district":2,"district_n":"BAGALKOT","pc":3,"pc_name":"Bagalkot","ac":22,"ac_name":"Bilgi","booth":180,"booth_name":"Govt Govt Higher Primary Kannada Boys School,chikkashellikeri"},"geometry":{"type":"Point","coordinates":[75.5143661,16.1541138]}},{"type":"Feature","properties":{"state":"Karnataka","district":2,"district_n":"BAGALKOT","pc":3,"pc_name":"Bagalkot","ac":22,"ac_name":"Bilgi","booth":103,"booth_name":"Govt Govt Boys Boys Higher Primary School New Buildin South wing Arakeri"},"geometry":{"type":"Point","coordinates":[75.5084,16.291853]}},{"type":"Feature","properties":{"state":"Karnataka","district":2,"district_n":"BAGALKOT","pc":3,"pc_name":"Bagalkot","ac":22,"ac_name":"Bilgi","booth":106,"booth_name":"Govt Govt Higher Primary Primary School South wing Chikkalagundi"},"geometry":{"type":"Point","coordinates":[75.4158859,16.04667]}},{"type":"Feature","properties":{"state":"Karnataka","district":2,"district_n":"BAGALKOT","pc":3,"pc_name":"Bagalkot","ac":22,"ac_name":"Bilgi","booth":109,"booth_name":"Govt Govt Boys Higher Primary School Right Side"},"geometry":{"type":"Point","coordinates":[75.45198,16.24872]}},{"type":"Feature","properties":{"state":"Karnataka","district":2,"district_n":"BAGALKOT","pc":3,"pc_name":"Bagalkot","ac":22,"ac_name":"Bilgi","booth":154,"booth_name":"Govt Higher Primary Kannada Boys Totad School,hale Muranal"},"geometry":{"type":"Point","coordinates":[75.65618,16.203125]}},{"type":"Feature","properties":{"state":"Karnataka","district":2,"district_n":"BAGALKOT","pc":3,"pc_name":"Bagalkot","ac":22,"ac_name":"Bilgi","booth":155,"booth_name":"Govt Govt Higher Primary Primary Boys Boys School School Room No 2 East Wing,gaddanakeri"},"geometry":{"type":"Point","coordinates":[75.62481,16.18462]}},{"type":"Feature","properties":{"state":"Karnataka","district":2,"district_n":"BAGALKOT","pc":3,"pc_name":"Bagalkot","ac":22,"ac_name":"Bilgi","booth":157,"booth_name":"Govt Govt High Primary Primary School,gaddanakeri"},"geometry":{"type":"Point","coordinates":[75.62483,16.184845]}},{"type":"Feature","properties":{"state":"Karnataka","district":2,"district_n":"BAGALKOT","pc":3,"pc_name":"Bagalkot","ac":22,"ac_name":"Bilgi","booth":158,"booth_name":"Shree Maliyappayya Higher School East wing gaddankeri"},"geometry":{"type":"Point","coordinates":[75.61973,16.1843071]}},{"type":"Feature","properties":{"state":"Karnataka","district":2,"district_n":"BAGALKOT","pc":3,"pc_name":"Bagalkot","ac":22,"ac_name":"Bilgi","booth":160,"booth_name":"Govt Govt Higher Primary Kannada Boys School,gaddanakeri L T"},"geometry":{"type":"Point","coordinates":[75.63632,16.1472969]}},{"type":"Feature","properties":{"state":"Karnataka","district":2,"district_n":"BAGALKOT","pc":3,"pc_name":"Bagalkot","ac":22,"ac_name":"Bilgi","booth":63,"booth_name":"Vijaya Higher School Left wing,girisagar"},"geometry":{"type":"Point","coordinates":[75.69555,16.359602]}},{"type":"Feature","properties":{"state":"Karnataka","district":2,"district_n":"BAGALKOT","pc":3,"pc_name":"Bagalkot","ac":22,"ac_name":"Bilgi","booth":83,"booth_name":"Govt Govt Lower Primary School Birakabbi"},"geometry":{"type":"Point","coordinates":[75.90464,16.3823586]}},{"type":"Feature","properties":{"state":"Karnataka","district":2,"district_n":"BAGALKOT","pc":3,"pc_name":"Bagalkot","ac":22,"ac_name":"Bilgi","booth":89,"booth_name":"Govt Govt Higher Primary School Right Building Tolamatti"},"geometry":{"type":"Point","coordinates":[75.63868,16.3183441]}},{"type":"Feature","properties":{"state":"Karnataka","district":2,"district_n":"BAGALKOT","pc":3,"pc_name":"Bagalkot","ac":22,"ac_name":"Bilgi","booth":94,"booth_name":"Govt Govt Higher Primary School,sunag L T 1"},"geometry":{"type":"Point","coordinates":[75.6179352,16.29789]}},{"type":"Feature","properties":{"state":"Karnataka","district":2,"district_n":"BAGALKOT","pc":3,"pc_name":"Bagalkot","ac":22,"ac_name":"Bilgi","booth":95,"booth_name":"Govt Govt lower Primary School,sunag L T 2"},"geometry":{"type":"Point","coordinates":[75.62913,16.2913666]}},{"type":"Feature","properties":{"state":"Karnataka","district":2,"district_n":"BAGALKOT","pc":3,"pc_name":"Bagalkot","ac":22,"ac_name":"Bilgi","booth":97,"booth_name":"Govt Govt Higher Primary School ,(west side) Janamatti"},"geometry":{"type":"Point","coordinates":[75.60973,16.274374]}},{"type":"Feature","properties":{"state":"Karnataka","district":2,"district_n":"BAGALKOT","pc":3,"pc_name":"Bagalkot","ac":22,"ac_name":"Bilgi","booth":98,"booth_name":"Govt Govt Higher Primary School west wing,janamatti"},"geometry":{"type":"Point","coordinates":[75.3235,16.173]}},{"type":"Feature","properties":{"state":"Karnataka","district":2,"district_n":"BAGALKOT","pc":3,"pc_name":"Bagalkot","ac":22,"ac_name":"Bilgi","booth":100,"booth_name":"Boys Govt Govt Boys School East Wing,arakeri"},"geometry":{"type":"Point","coordinates":[75.5084,16.291853]}},{"type":"Feature","properties":{"state":"Karnataka","district":2,"district_n":"BAGALKOT","pc":3,"pc_name":"Bagalkot","ac":22,"ac_name":"Bilgi","booth":40,"booth_name":"Govt Govt Kannada Boys Primary School,shivapur(teggi)"},"geometry":{"type":"Point","coordinates":[75.54038,16.3894348]}},{"type":"Feature","properties":{"state":"Karnataka","district":2,"district_n":"BAGALKOT","pc":3,"pc_name":"Bagalkot","ac":22,"ac_name":"Bilgi","booth":43,"booth_name":"Govt Govt Kannada Boys Model Primary School East side ,siddapur"},"geometry":{"type":"Point","coordinates":[75.54038,16.3894348]}},{"type":"Feature","properties":{"state":"Karnataka","district":2,"district_n":"BAGALKOT","pc":3,"pc_name":"Bagalkot","ac":22,"ac_name":"Bilgi","booth":51,"booth_name":"Gram panchayat building Nagaral"},"geometry":{"type":"Point","coordinates":[75.6024857,16.3516273]}},{"type":"Feature","properties":{"state":"Karnataka","district":2,"district_n":"BAGALKOT","pc":3,"pc_name":"Bagalkot","ac":22,"ac_name":"Bilgi","booth":52,"booth_name":"Govt Higher Primary School,nagaral"},"geometry":{"type":"Point","coordinates":[75.54038,16.3516273]}},{"type":"Feature","properties":{"state":"Karnataka","district":2,"district_n":"BAGALKOT","pc":3,"pc_name":"Bagalkot","ac":22,"ac_name":"Bilgi","booth":54,"booth_name":"Govt Govt Kannada Boys Higher Primary School School R C Centre Centre Centre Room No 4 Rolli R C"},"geometry":{"type":"Point","coordinates":[75.69555,16.37596]}},{"type":"Feature","properties":{"state":"Karnataka","district":2,"district_n":"BAGALKOT","pc":3,"pc_name":"Bagalkot","ac":22,"ac_name":"Bilgi","booth":55,"booth_name":"Gram panchayat Office, R C Centre Centre bilagi Cross no 1,"},"geometry":{"type":"Point","coordinates":[75.64462,16.3372688]}},{"type":"Feature","properties":{"state":"Karnataka","district":2,"district_n":"BAGALKOT","pc":3,"pc_name":"Bagalkot","ac":22,"ac_name":"Bilgi","booth":57,"booth_name":"Govt Govt Higher Primary School School R C centre heggur Heggur Bilagi cross 1"},"geometry":{"type":"Point","coordinates":[75.383,16.2004]}},{"type":"Feature","properties":{"state":"Karnataka","district":2,"district_n":"BAGALKOT","pc":3,"pc_name":"Bagalkot","ac":22,"ac_name":"Bilgi","booth":58,"booth_name":"Govt Govt Higher Primary School muttaladnni R C Bilagi Cross 2"},"geometry":{"type":"Point","coordinates":[75.64462,16.3372688]}},{"type":"Feature","properties":{"state":"Karnataka","district":2,"district_n":"BAGALKOT","pc":3,"pc_name":"Bagalkot","ac":22,"ac_name":"Bilgi","booth":60,"booth_name":"Govt Govt Higher Primary School Room No 1,girisagar"},"geometry":{"type":"Point","coordinates":[75.6948853,16.4175625]}}]}