{"type":"FeatureCollection","features":[{"type":"Feature","properties":{"state":"Karnataka","district":2,"district_n":"BAGALKOT","pc":3,"pc_name":"Bagalkot","ac":24,"ac_name":"Bagalkot","booth":47,"booth_name":"Govt Higher Primary Kannada Boys School , Sangapur"},"geometry":{"type":"Point","coordinates":[75.86793,16.2292938]}},{"type":"Feature","properties":{"state":"Karnataka","district":2,"district_n":"BAGALKOT","pc":3,"pc_name":"Bagalkot","ac":24,"ac_name":"Bagalkot","booth":13,"booth_name":"Govt Govt Higher Primary Kannada Boys School Right Side Bommanagi"},"geometry":{"type":"Point","coordinates":[76.01388,16.2931538]}},{"type":"Feature","properties":{"state":"Karnataka","district":2,"district_n":"BAGALKOT","pc":3,"pc_name":"Bagalkot","ac":24,"ac_name":"Bagalkot","booth":24,"booth_name":"Govt Govt Higher Primary Kannada Boys School, Room no 4 (muatti) Gulabal R C"},"geometry":{"type":"Point","coordinates":[75.8540344,16.30861]}},{"type":"Feature","properties":{"state":"Karnataka","district":2,"district_n":"BAGALKOT","pc":3,"pc_name":"Bagalkot","ac":24,"ac_name":"Bagalkot","booth":81,"booth_name":"St Anni's Convent High School (pri Primary& Primary School),west wing, Vidyagiri Bagalkot"},"geometry":{"type":"Point","coordinates":[75.6630859,16.1807346]}},{"type":"Feature","properties":{"state":"Karnataka","district":2,"district_n":"BAGALKOT","pc":3,"pc_name":"Bagalkot","ac":24,"ac_name":"Bagalkot","booth":173,"booth_name":"Veerashaiva Grameen Vidya Vardhaka Sangha, East Wing, Shirur"},"geometry":{"type":"Point","coordinates":[75.7867,16.1003132]}},{"type":"Feature","properties":{"state":"Karnataka","district":2,"district_n":"BAGALKOT","pc":3,"pc_name":"Bagalkot","ac":24,"ac_name":"Bagalkot","booth":84,"booth_name":"Govt Higher Primary School No 12, Muchakhandi cross, Bagalkot"},"geometry":{"type":"Point","coordinates":[75.6870651,16.1875668]}},{"type":"Feature","properties":{"state":"Karnataka","district":2,"district_n":"BAGALKOT","pc":3,"pc_name":"Bagalkot","ac":24,"ac_name":"Bagalkot","booth":92,"booth_name":"Bharamana Taruna Sangha, Gaythri Pri Primary School Room No 01, (killa) Bagalkot"},"geometry":{"type":"Point","coordinates":[75.7037659,16.1930466]}},{"type":"Feature","properties":{"state":"Karnataka","district":2,"district_n":"BAGALKOT","pc":3,"pc_name":"Bagalkot","ac":24,"ac_name":"Bagalkot","booth":35,"booth_name":"Govt Govt Higher Primary Kannada Boys School, Left side, Timmapur"},"geometry":{"type":"Point","coordinates":[75.8754654,16.2755318]}},{"type":"Feature","properties":{"state":"Karnataka","district":2,"district_n":"BAGALKOT","pc":3,"pc_name":"Bagalkot","ac":24,"ac_name":"Bagalkot","booth":61,"booth_name":"Govt Kannada Boys School room no 1, west wing Bevoor"},"geometry":{"type":"Point","coordinates":[75.89052,16.20468]}},{"type":"Feature","properties":{"state":"Karnataka","district":2,"district_n":"BAGALKOT","pc":3,"pc_name":"Bagalkot","ac":24,"ac_name":"Bagalkot","booth":95,"booth_name":"Govt Model Kannada Boys School No 01, east wing, behind ganapathi temple Bagalkot"},"geometry":{"type":"Point","coordinates":[75.6489258,16.1912632]}},{"type":"Feature","properties":{"state":"Karnataka","district":2,"district_n":"BAGALKOT","pc":3,"pc_name":"Bagalkot","ac":24,"ac_name":"Bagalkot","booth":21,"booth_name":"Grama Panchayat Office Rampur R C"},"geometry":{"type":"Point","coordinates":[75.89083,16.3019981]}},{"type":"Feature","properties":{"state":"Karnataka","district":2,"district_n":"BAGALKOT","pc":3,"pc_name":"Bagalkot","ac":24,"ac_name":"Bagalkot","booth":18,"booth_name":"Govt Higher Primary Primary Kannada Boys School,room No 6,sutagundar"},"geometry":{"type":"Point","coordinates":[75.98829,16.283453]}},{"type":"Feature","properties":{"state":"Karnataka","district":2,"district_n":"BAGALKOT","pc":3,"pc_name":"Bagalkot","ac":24,"ac_name":"Bagalkot","booth":64,"booth_name":"Govt Kannada Boys School room no 6, side room Bevoor"},"geometry":{"type":"Point","coordinates":[75.43,16.20398]}},{"type":"Feature","properties":{"state":"Karnataka","district":2,"district_n":"BAGALKOT","pc":3,"pc_name":"Bagalkot","ac":24,"ac_name":"Bagalkot","booth":32,"booth_name":"Govt Govt Higher Primary Kannada Boys School, Room No 4, Hirehodlur Rc"},"geometry":{"type":"Point","coordinates":[75.8211,16.26102]}},{"type":"Feature","properties":{"state":"Karnataka","district":2,"district_n":"BAGALKOT","pc":3,"pc_name":"Bagalkot","ac":24,"ac_name":"Bagalkot","booth":29,"booth_name":"Govt Govt Govt Higher Primary Kannada Boys School,room No 11,shirguppi R C"},"geometry":{"type":"Point","coordinates":[75.78791,16.2536659]}},{"type":"Feature","properties":{"state":"Karnataka","district":2,"district_n":"BAGALKOT","pc":3,"pc_name":"Bagalkot","ac":24,"ac_name":"Bagalkot","booth":195,"booth_name":"Govt Higher Primary School, New building, East Wing, Hiremagi"},"geometry":{"type":"Point","coordinates":[75.93389,16.1090736]}},{"type":"Feature","properties":{"state":"Karnataka","district":2,"district_n":"BAGALKOT","pc":3,"pc_name":"Bagalkot","ac":24,"ac_name":"Bagalkot","booth":198,"booth_name":"Govt Higher Primary School, Ramthal"},"geometry":{"type":"Point","coordinates":[75.8711,16.091608]}},{"type":"Feature","properties":{"state":"Karnataka","district":2,"district_n":"BAGALKOT","pc":3,"pc_name":"Bagalkot","ac":24,"ac_name":"Bagalkot","booth":201,"booth_name":"Model Primary School, East Wing, Aminagad"},"geometry":{"type":"Point","coordinates":[75.94582,16.0575714]}},{"type":"Feature","properties":{"state":"Karnataka","district":2,"district_n":"BAGALKOT","pc":3,"pc_name":"Bagalkot","ac":24,"ac_name":"Bagalkot","booth":204,"booth_name":"Govt Model Primary School, No 1, Ssa Room, Aminagad (left Side)"},"geometry":{"type":"Point","coordinates":[75.94577,16.0577488]}},{"type":"Feature","properties":{"state":"Karnataka","district":2,"district_n":"BAGALKOT","pc":3,"pc_name":"Bagalkot","ac":24,"ac_name":"Bagalkot","booth":215,"booth_name":"Gpvt Kannada Higher Primary School, Nimbalagundi"},"geometry":{"type":"Point","coordinates":[75.86308,16.0241566]}},{"type":"Feature","properties":{"state":"Karnataka","district":2,"district_n":"BAGALKOT","pc":3,"pc_name":"Bagalkot","ac":24,"ac_name":"Bagalkot","booth":178,"booth_name":"Govt Kannada Higher Primary School, Ambalikoppa"},"geometry":{"type":"Point","coordinates":[75.90999,16.1563358]}},{"type":"Feature","properties":{"state":"Karnataka","district":2,"district_n":"BAGALKOT","pc":3,"pc_name":"Bagalkot","ac":24,"ac_name":"Bagalkot","booth":207,"booth_name":"Anganawadi Kendra No 4, Aminagad"},"geometry":{"type":"Point","coordinates":[75.4474,16.05702]}},{"type":"Feature","properties":{"state":"Karnataka","district":2,"district_n":"BAGALKOT","pc":3,"pc_name":"Bagalkot","ac":24,"ac_name":"Bagalkot","booth":218,"booth_name":"Govt Kannada Higher Primary School, North Wing, Aihole"},"geometry":{"type":"Point","coordinates":[75.8806,16.0202656]}},{"type":"Feature","properties":{"state":"Karnataka","district":2,"district_n":"BAGALKOT","pc":3,"pc_name":"Bagalkot","ac":24,"ac_name":"Bagalkot","booth":41,"booth_name":"Govt Govt Higher Primary Kannada Boys School, Bill Kerur"},"geometry":{"type":"Point","coordinates":[75.86378,16.2618866]}},{"type":"Feature","properties":{"state":"Karnataka","district":2,"district_n":"BAGALKOT","pc":3,"pc_name":"Bagalkot","ac":24,"ac_name":"Bagalkot","booth":72,"booth_name":"Govt Higher Primary Kannada Boys School,mannikatti"},"geometry":{"type":"Point","coordinates":[75.7743,16.5505714]}},{"type":"Feature","properties":{"state":"Karnataka","district":2,"district_n":"BAGALKOT","pc":3,"pc_name":"Bagalkot","ac":24,"ac_name":"Bagalkot","booth":9,"booth_name":"Govt Govt Higher Primary Kannada Boys School ( Left Wing),room No 3 Nayanegali"},"geometry":{"type":"Point","coordinates":[75.94653,16.2890511]}},{"type":"Feature","properties":{"state":"Karnataka","district":2,"district_n":"BAGALKOT","pc":3,"pc_name":"Bagalkot","ac":24,"ac_name":"Bagalkot","booth":12,"booth_name":"Govt Govt Higher Primary Kannada Boys School Left Side Bommanagi"},"geometry":{"type":"Point","coordinates":[76.0140152,16.2933025]}},{"type":"Feature","properties":{"state":"Karnataka","district":2,"district_n":"BAGALKOT","pc":3,"pc_name":"Bagalkot","ac":24,"ac_name":"Bagalkot","booth":15,"booth_name":"Govt Govt Higher Primary Kannada Boys School,room no 2 Hiremageri"},"geometry":{"type":"Point","coordinates":[76.0305252,16.2762]}},{"type":"Feature","properties":{"state":"Karnataka","district":2,"district_n":"BAGALKOT","pc":3,"pc_name":"Bagalkot","ac":24,"ac_name":"Bagalkot","booth":38,"booth_name":"Govt Govt Higher Primary Kannada Boys School, Devalapur"},"geometry":{"type":"Point","coordinates":[75.9608154,16.24739]}},{"type":"Feature","properties":{"state":"Karnataka","district":2,"district_n":"BAGALKOT","pc":3,"pc_name":"Bagalkot","ac":24,"ac_name":"Bagalkot","booth":75,"booth_name":"Govt Kannada Boys School, No 16, Btda coloney, centre room, Bagalkot"},"geometry":{"type":"Point","coordinates":[75.65118,16.1773186]}},{"type":"Feature","properties":{"state":"Karnataka","district":2,"district_n":"BAGALKOT","pc":3,"pc_name":"Bagalkot","ac":24,"ac_name":"Bagalkot","booth":78,"booth_name":"Govt Higher Primary School No 15, Near Kenchamma Temple, east wing, vidyagiri, Bagalkot"},"geometry":{"type":"Point","coordinates":[75.65872,16.1794224]}},{"type":"Feature","properties":{"state":"Karnataka","district":2,"district_n":"BAGALKOT","pc":3,"pc_name":"Bagalkot","ac":24,"ac_name":"Bagalkot","booth":184,"booth_name":"Govt Kannada Boys School, South Wing, Kamatagi"},"geometry":{"type":"Point","coordinates":[75.86482,16.1010838]}},{"type":"Feature","properties":{"state":"Karnataka","district":2,"district_n":"BAGALKOT","pc":3,"pc_name":"Bagalkot","ac":24,"ac_name":"Bagalkot","booth":187,"booth_name":"Govt Higher Primary Girls School, Kamatagi"},"geometry":{"type":"Point","coordinates":[75.86523,16.1005516]}},{"type":"Feature","properties":{"state":"Karnataka","district":2,"district_n":"BAGALKOT","pc":3,"pc_name":"Bagalkot","ac":24,"ac_name":"Bagalkot","booth":79,"booth_name":"Govt Higher School No 15, Near kenchamma temple, west wing, vidyagiri,bagalkot"},"geometry":{"type":"Point","coordinates":[75.6586,16.1796322]}},{"type":"Feature","properties":{"state":"Karnataka","district":2,"district_n":"BAGALKOT","pc":3,"pc_name":"Bagalkot","ac":24,"ac_name":"Bagalkot","booth":144,"booth_name":"Central Model School N0,10 sector41,south wing,navanagar,bagalkot"},"geometry":{"type":"Point","coordinates":[75.65431,16.15267]}},{"type":"Feature","properties":{"state":"Karnataka","district":2,"district_n":"BAGALKOT","pc":3,"pc_name":"Bagalkot","ac":24,"ac_name":"Bagalkot","booth":167,"booth_name":"Govt Higher Primary Kannada Boys School No 2, Near Bus Stand, Shirur"},"geometry":{"type":"Point","coordinates":[75.78241,16.1008434]}},{"type":"Feature","properties":{"state":"Karnataka","district":2,"district_n":"BAGALKOT","pc":3,"pc_name":"Bagalkot","ac":24,"ac_name":"Bagalkot","booth":175,"booth_name":"Govt Higher Primary Kannada Boys School, Room No 2, Ingalagi"},"geometry":{"type":"Point","coordinates":[75.8835449,16.1156139]}},{"type":"Feature","properties":{"state":"Karnataka","district":2,"district_n":"BAGALKOT","pc":3,"pc_name":"Bagalkot","ac":24,"ac_name":"Bagalkot","booth":181,"booth_name":"Govt Kannada Higher Primary School, Muganoor"},"geometry":{"type":"Point","coordinates":[75.9188461,16.1403637]}},{"type":"Feature","properties":{"state":"Karnataka","district":2,"district_n":"BAGALKOT","pc":3,"pc_name":"Bagalkot","ac":24,"ac_name":"Bagalkot","booth":196,"booth_name":"Govt Higher Primary School, New building, West Wing, Hiremagi"},"geometry":{"type":"Point","coordinates":[75.56021,16.0632935]}},{"type":"Feature","properties":{"state":"Karnataka","district":2,"district_n":"BAGALKOT","pc":3,"pc_name":"Bagalkot","ac":24,"ac_name":"Bagalkot","booth":199,"booth_name":"Govt Higher Primary School, Huvinahalli"},"geometry":{"type":"Point","coordinates":[75.86264,16.074]}},{"type":"Feature","properties":{"state":"Karnataka","district":2,"district_n":"BAGALKOT","pc":3,"pc_name":"Bagalkot","ac":24,"ac_name":"Bagalkot","booth":202,"booth_name":"Govt Girls School, East Wing, Aminagad"},"geometry":{"type":"Point","coordinates":[75.94718,16.0552921]}},{"type":"Feature","properties":{"state":"Karnataka","district":2,"district_n":"BAGALKOT","pc":3,"pc_name":"Bagalkot","ac":24,"ac_name":"Bagalkot","booth":210,"booth_name":"Panchayat Office, Aminagad"},"geometry":{"type":"Point","coordinates":[75.95048,16.0530243]}},{"type":"Feature","properties":{"state":"Karnataka","district":2,"district_n":"BAGALKOT","pc":3,"pc_name":"Bagalkot","ac":24,"ac_name":"Bagalkot","booth":213,"booth_name":"Sangameshwar Junior College, West Wing, Aminagad"},"geometry":{"type":"Point","coordinates":[75.94917,16.053093]}},{"type":"Feature","properties":{"state":"Karnataka","district":2,"district_n":"BAGALKOT","pc":3,"pc_name":"Bagalkot","ac":24,"ac_name":"Bagalkot","booth":216,"booth_name":"Govt Girls Higher Primary School, Aihole"},"geometry":{"type":"Point","coordinates":[75.88067,16.0189056]}},{"type":"Feature","properties":{"state":"Karnataka","district":2,"district_n":"BAGALKOT","pc":3,"pc_name":"Bagalkot","ac":24,"ac_name":"Bagalkot","booth":176,"booth_name":"Govt Kannada Lower Primary School, Basarikatti"},"geometry":{"type":"Point","coordinates":[75.85137,16.13469]}},{"type":"Feature","properties":{"state":"Karnataka","district":2,"district_n":"BAGALKOT","pc":3,"pc_name":"Bagalkot","ac":24,"ac_name":"Bagalkot","booth":179,"booth_name":"Govt Kannada Higher Primary School, Budihal S K"},"geometry":{"type":"Point","coordinates":[75.91372,16.1402988]}},{"type":"Feature","properties":{"state":"Karnataka","district":2,"district_n":"BAGALKOT","pc":3,"pc_name":"Bagalkot","ac":24,"ac_name":"Bagalkot","booth":170,"booth_name":"Govt Higher Primary Kannada Girls School, Room No 6, West Wing, Shirur"},"geometry":{"type":"Point","coordinates":[75.78282,16.1005535]}},{"type":"Feature","properties":{"state":"Karnataka","district":2,"district_n":"BAGALKOT","pc":3,"pc_name":"Bagalkot","ac":24,"ac_name":"Bagalkot","booth":182,"booth_name":"Govt Kannada Boys School, Suralikall"},"geometry":{"type":"Point","coordinates":[75.89625,16.1314526]}},{"type":"Feature","properties":{"state":"Karnataka","district":2,"district_n":"BAGALKOT","pc":3,"pc_name":"Bagalkot","ac":24,"ac_name":"Bagalkot","booth":190,"booth_name":"Sri Sevalal Higher Primary School, West Side, Kamatagi"},"geometry":{"type":"Point","coordinates":[75.86794,16.1077957]}},{"type":"Feature","properties":{"state":"Karnataka","district":2,"district_n":"BAGALKOT","pc":3,"pc_name":"Bagalkot","ac":24,"ac_name":"Bagalkot","booth":193,"booth_name":"Shakhambari Pu College, West Wing, Kamatagi"},"geometry":{"type":"Point","coordinates":[75.86129,16.1052914]}},{"type":"Feature","properties":{"state":"Karnataka","district":2,"district_n":"BAGALKOT","pc":3,"pc_name":"Bagalkot","ac":24,"ac_name":"Bagalkot","booth":30,"booth_name":"Govt Govt Higher Primary Kannada Kannada Boys School ,room no 1,bennur R C"},"geometry":{"type":"Point","coordinates":[75.7697,16.2498932]}},{"type":"Feature","properties":{"state":"Karnataka","district":2,"district_n":"BAGALKOT","pc":3,"pc_name":"Bagalkot","ac":24,"ac_name":"Bagalkot","booth":33,"booth_name":"Govt Govt Higher Primary Kannada Boys School, Room No 7 Hodlur R C"},"geometry":{"type":"Point","coordinates":[75.81113,16.261013]}},{"type":"Feature","properties":{"state":"Karnataka","district":2,"district_n":"BAGALKOT","pc":3,"pc_name":"Bagalkot","ac":24,"ac_name":"Bagalkot","booth":87,"booth_name":"Shasakar Model Primary School No 04, west wing, Bagalkot"},"geometry":{"type":"Point","coordinates":[75.6916,16.1836948]}},{"type":"Feature","properties":{"state":"Karnataka","district":2,"district_n":"BAGALKOT","pc":3,"pc_name":"Bagalkot","ac":24,"ac_name":"Bagalkot","booth":90,"booth_name":"Model Primary Kannada Boys School No 1, room No 2, Mokashi Building,bagalkot"},"geometry":{"type":"Point","coordinates":[75.70188,16.1903114]}},{"type":"Feature","properties":{"state":"Karnataka","district":2,"district_n":"BAGALKOT","pc":3,"pc_name":"Bagalkot","ac":24,"ac_name":"Bagalkot","booth":93,"booth_name":"Govt Kannada Girls School No 1, Room No 02, East Wing, Bagalkot"},"geometry":{"type":"Point","coordinates":[75.7033844,16.1917286]}},{"type":"Feature","properties":{"state":"Karnataka","district":2,"district_n":"BAGALKOT","pc":3,"pc_name":"Bagalkot","ac":24,"ac_name":"Bagalkot","booth":36,"booth_name":"Kannada Boys School, Chitaginakopp"},"geometry":{"type":"Point","coordinates":[75.9573746,16.2642746]}},{"type":"Feature","properties":{"state":"Karnataka","district":2,"district_n":"BAGALKOT","pc":3,"pc_name":"Bagalkot","ac":24,"ac_name":"Bagalkot","booth":70,"booth_name":"Govt Higher Primary Kannada Boys School, West wing,benakatti"},"geometry":{"type":"Point","coordinates":[75.80768,16.1538029]}},{"type":"Feature","properties":{"state":"Karnataka","district":2,"district_n":"BAGALKOT","pc":3,"pc_name":"Bagalkot","ac":24,"ac_name":"Bagalkot","booth":76,"booth_name":"Govt Kannada Boys School, no 16 Btda coloney, Right Side Vidyagiri Bagalkot"},"geometry":{"type":"Point","coordinates":[75.65144,16.1773071]}},{"type":"Feature","properties":{"state":"Karnataka","district":2,"district_n":"BAGALKOT","pc":3,"pc_name":"Bagalkot","ac":24,"ac_name":"Bagalkot","booth":7,"booth_name":"Govt Govt Kannada Lower Primary Boys School Nagaral"},"geometry":{"type":"Point","coordinates":[75.93663,16.30089]}},{"type":"Feature","properties":{"state":"Karnataka","district":2,"district_n":"BAGALKOT","pc":3,"pc_name":"Bagalkot","ac":24,"ac_name":"Bagalkot","booth":1,"booth_name":"Govt Govt Kannada Boys School"},"geometry":{"type":"Point","coordinates":[75.86471,16.3207645]}},{"type":"Feature","properties":{"state":"Karnataka","district":2,"district_n":"BAGALKOT","pc":3,"pc_name":"Bagalkot","ac":24,"ac_name":"Bagalkot","booth":133,"booth_name":"B Patil Composite Jonuiour Collage room No 4, Kalidas Navanagar, Bagalkot"},"geometry":{"type":"Point","coordinates":[75.66074,16.1706467]}},{"type":"Feature","properties":{"state":"Karnataka","district":2,"district_n":"BAGALKOT","pc":3,"pc_name":"Bagalkot","ac":24,"ac_name":"Bagalkot","booth":136,"booth_name":"Sharadha Pri Primary School, sector No ,40 North wing, Navanagar, Bagalkot"},"geometry":{"type":"Point","coordinates":[75.6643448,16.1502247]}},{"type":"Feature","properties":{"state":"Karnataka","district":2,"district_n":"BAGALKOT","pc":3,"pc_name":"Bagalkot","ac":24,"ac_name":"Bagalkot","booth":150,"booth_name":"Govt Govt Kannada Boys School No 17, Right Wing, Sector No 43, Navanagar, Bagalkot"},"geometry":{"type":"Point","coordinates":[75.65067,16.151453]}},{"type":"Feature","properties":{"state":"Karnataka","district":2,"district_n":"BAGALKOT","pc":3,"pc_name":"Bagalkot","ac":24,"ac_name":"Bagalkot","booth":142,"booth_name":"Adarsh High School, Navanagar,bagalkot"},"geometry":{"type":"Point","coordinates":[75.65741,16.14886]}},{"type":"Feature","properties":{"state":"Karnataka","district":2,"district_n":"BAGALKOT","pc":3,"pc_name":"Bagalkot","ac":24,"ac_name":"Bagalkot","booth":153,"booth_name":"Govt Higher Primary Kannada Boys School, Muchakhandi Lt 2"},"geometry":{"type":"Point","coordinates":[75.6791153,16.1457329]}},{"type":"Feature","properties":{"state":"Karnataka","district":2,"district_n":"BAGALKOT","pc":3,"pc_name":"Bagalkot","ac":24,"ac_name":"Bagalkot","booth":162,"booth_name":"Govt Higher Primary Kannada Boys School, East Wing, Niralakeri"},"geometry":{"type":"Point","coordinates":[75.69364,16.1277981]}},{"type":"Feature","properties":{"state":"Karnataka","district":2,"district_n":"BAGALKOT","pc":3,"pc_name":"Bagalkot","ac":24,"ac_name":"Bagalkot","booth":139,"booth_name":"Govt Kannada Girls Model School no 02, sector34,left Said Navanagar,bagalkot"},"geometry":{"type":"Point","coordinates":[75.66589,16.1568661]}},{"type":"Feature","properties":{"state":"Karnataka","district":2,"district_n":"BAGALKOT","pc":3,"pc_name":"Bagalkot","ac":24,"ac_name":"Bagalkot","booth":156,"booth_name":"Govt Higher primary Kannada Boys School Right Side,shigikeri"},"geometry":{"type":"Point","coordinates":[75.70117,16.1512012]}},{"type":"Feature","properties":{"state":"Karnataka","district":2,"district_n":"BAGALKOT","pc":3,"pc_name":"Bagalkot","ac":24,"ac_name":"Bagalkot","booth":159,"booth_name":"Govt Higher primary Kannada Boys School Left Side Bevinamatti"},"geometry":{"type":"Point","coordinates":[75.72689,16.14744]}},{"type":"Feature","properties":{"state":"Karnataka","district":2,"district_n":"BAGALKOT","pc":3,"pc_name":"Bagalkot","ac":24,"ac_name":"Bagalkot","booth":104,"booth_name":"Vishwachetan Iti College Bagalkot"},"geometry":{"type":"Point","coordinates":[75.70505,16.1887417]}},{"type":"Feature","properties":{"state":"Karnataka","district":2,"district_n":"BAGALKOT","pc":3,"pc_name":"Bagalkot","ac":24,"ac_name":"Bagalkot","booth":112,"booth_name":"P M Nadagouda Arts and Commerce Junior College, Room no 02, right wing, Bagalkot"},"geometry":{"type":"Point","coordinates":[75.7023544,16.1810913]}},{"type":"Feature","properties":{"state":"Karnataka","district":2,"district_n":"BAGALKOT","pc":3,"pc_name":"Bagalkot","ac":24,"ac_name":"Bagalkot","booth":118,"booth_name":"Nagarasaba Branch Office, right wing, near water tank,(old Slao Office),bagalkot"},"geometry":{"type":"Point","coordinates":[75.6985,16.18498]}},{"type":"Feature","properties":{"state":"Karnataka","district":2,"district_n":"BAGALKOT","pc":3,"pc_name":"Bagalkot","ac":24,"ac_name":"Bagalkot","booth":115,"booth_name":"P M Nadagouda Arts and Commerce P U College, East wing,bagalkot"},"geometry":{"type":"Point","coordinates":[75.70261,16.1811752]}},{"type":"Feature","properties":{"state":"Karnataka","district":2,"district_n":"BAGALKOT","pc":3,"pc_name":"Bagalkot","ac":24,"ac_name":"Bagalkot","booth":124,"booth_name":"Govt Higher Primary Girls School No 03, Room No 3 east Wing sentiment area,bagalkot,"},"geometry":{"type":"Point","coordinates":[75.6988754,16.18611]}},{"type":"Feature","properties":{"state":"Karnataka","district":2,"district_n":"BAGALKOT","pc":3,"pc_name":"Bagalkot","ac":24,"ac_name":"Bagalkot","booth":132,"booth_name":"S B Patil sumyukta P U Collage room No 3 ( Kalidas),navanagar Bagalko"},"geometry":{"type":"Point","coordinates":[75.66119,16.1703835]}},{"type":"Feature","properties":{"state":"Karnataka","district":2,"district_n":"BAGALKOT","pc":3,"pc_name":"Bagalkot","ac":24,"ac_name":"Bagalkot","booth":135,"booth_name":"Govt Kannada Boys School No 6, North wing, sector 15 Navanagar,bagalkot"},"geometry":{"type":"Point","coordinates":[75.65177,16.1691418]}},{"type":"Feature","properties":{"state":"Karnataka","district":2,"district_n":"BAGALKOT","pc":3,"pc_name":"Bagalkot","ac":24,"ac_name":"Bagalkot","booth":138,"booth_name":"Govt Kannada Girls Model School no 02, sector34,rigt Wing Navanagar,bagalkot"},"geometry":{"type":"Point","coordinates":[75.66583,16.1569557]}},{"type":"Feature","properties":{"state":"Karnataka","district":2,"district_n":"BAGALKOT","pc":3,"pc_name":"Bagalkot","ac":24,"ac_name":"Bagalkot","booth":141,"booth_name":"Govt Model Kannada Boys School no, south wing, sector 37, Navanagar,bagalkot"},"geometry":{"type":"Point","coordinates":[75.6646957,16.1529026]}},{"type":"Feature","properties":{"state":"Karnataka","district":2,"district_n":"BAGALKOT","pc":3,"pc_name":"Bagalkot","ac":24,"ac_name":"Bagalkot","booth":158,"booth_name":"Govt Higher primary Kannada Boys School School Right Side Bevinamatti"},"geometry":{"type":"Point","coordinates":[75.7272,16.1474247]}},{"type":"Feature","properties":{"state":"Karnataka","district":2,"district_n":"BAGALKOT","pc":3,"pc_name":"Bagalkot","ac":24,"ac_name":"Bagalkot","booth":161,"booth_name":"Govt Lower Kannada Boys School, Gundanapalli"},"geometry":{"type":"Point","coordinates":[75.74087,16.1370678]}},{"type":"Feature","properties":{"state":"Karnataka","district":2,"district_n":"BAGALKOT","pc":3,"pc_name":"Bagalkot","ac":24,"ac_name":"Bagalkot","booth":147,"booth_name":"Govt Higher Primary School No 3 Rajeev Gandhi Colony Center Room, North wing Navanagar Bagalkot"},"geometry":{"type":"Point","coordinates":[75.65533,16.14531]}},{"type":"Feature","properties":{"state":"Karnataka","district":2,"district_n":"BAGALKOT","pc":3,"pc_name":"Bagalkot","ac":24,"ac_name":"Bagalkot","booth":155,"booth_name":"Govt Higher primary Kannada Boys School Left Side,shigikeri"},"geometry":{"type":"Point","coordinates":[75.70118,16.1510963]}},{"type":"Feature","properties":{"state":"Karnataka","district":2,"district_n":"BAGALKOT","pc":3,"pc_name":"Bagalkot","ac":24,"ac_name":"Bagalkot","booth":164,"booth_name":"Govt Higher Primary Kannada Boys School, Left Side, Room No 2, Shirur Lt (nilanagar)"},"geometry":{"type":"Point","coordinates":[75.7375946,16.0901146]}},{"type":"Feature","properties":{"state":"Karnataka","district":2,"district_n":"BAGALKOT","pc":3,"pc_name":"Bagalkot","ac":24,"ac_name":"Bagalkot","booth":121,"booth_name":"Govt Kannada Girls School no 03,south Wing Setlament area, Bagalkot"},"geometry":{"type":"Point","coordinates":[75.69863,16.1863117]}},{"type":"Feature","properties":{"state":"Karnataka","district":2,"district_n":"BAGALKOT","pc":3,"pc_name":"Bagalkot","ac":24,"ac_name":"Bagalkot","booth":110,"booth_name":"Asst Director of animal husbundray,meeting Hall Bagalkot"},"geometry":{"type":"Point","coordinates":[75.7065353,16.1865463]}},{"type":"Feature","properties":{"state":"Karnataka","district":2,"district_n":"BAGALKOT","pc":3,"pc_name":"Bagalkot","ac":24,"ac_name":"Bagalkot","booth":119,"booth_name":"C M C Branch Office, right wing, near water tank, (old Slao Office),school Bagalkot"},"geometry":{"type":"Point","coordinates":[75.69885,16.1850586]}},{"type":"Feature","properties":{"state":"Karnataka","district":2,"district_n":"BAGALKOT","pc":3,"pc_name":"Bagalkot","ac":24,"ac_name":"Bagalkot","booth":107,"booth_name":"Govt Kannada Boys School No 02, west wing vatarnery hospital behind,bagalkot"},"geometry":{"type":"Point","coordinates":[75.7065,16.1869774]}},{"type":"Feature","properties":{"state":"Karnataka","district":2,"district_n":"BAGALKOT","pc":3,"pc_name":"Bagalkot","ac":24,"ac_name":"Bagalkot","booth":113,"booth_name":"P M Nadagouda Arts and Commerce Junior College, left wing,bagalkot"},"geometry":{"type":"Point","coordinates":[75.70241,16.1812286]}},{"type":"Feature","properties":{"state":"Karnataka","district":2,"district_n":"BAGALKOT","pc":3,"pc_name":"Bagalkot","ac":24,"ac_name":"Bagalkot","booth":116,"booth_name":"Sakri P U College, Vidyabhavan 02, room no 07,bagalkot"},"geometry":{"type":"Point","coordinates":[75.69736,16.18691]}},{"type":"Feature","properties":{"state":"Karnataka","district":2,"district_n":"BAGALKOT","pc":3,"pc_name":"Bagalkot","ac":24,"ac_name":"Bagalkot","booth":127,"booth_name":"Govt Model Urdu Boys School, Sector No13, Rigt side, Navanagar, Bagalkot"},"geometry":{"type":"Point","coordinates":[75.65513,16.1657715]}},{"type":"Feature","properties":{"state":"Karnataka","district":2,"district_n":"BAGALKOT","pc":3,"pc_name":"Bagalkot","ac":24,"ac_name":"Bagalkot","booth":130,"booth_name":"Kannada Model Primary School No 05, sector 03, Navanagar,bagalkot"},"geometry":{"type":"Point","coordinates":[75.65741,16.1676941]}},{"type":"Feature","properties":{"state":"Karnataka","district":2,"district_n":"BAGALKOT","pc":3,"pc_name":"Bagalkot","ac":24,"ac_name":"Bagalkot","booth":49,"booth_name":"Govt Kannada Kannada Boys School Left side Mugalolli R C"},"geometry":{"type":"Point","coordinates":[75.75608,16.2223682]}},{"type":"Feature","properties":{"state":"Karnataka","district":2,"district_n":"BAGALKOT","pc":3,"pc_name":"Bagalkot","ac":24,"ac_name":"Bagalkot","booth":55,"booth_name":"Govt Higher Primary Kannada Boys School West wing Bhagavati"},"geometry":{"type":"Point","coordinates":[75.80999,16.192667]}},{"type":"Feature","properties":{"state":"Karnataka","district":2,"district_n":"BAGALKOT","pc":3,"pc_name":"Bagalkot","ac":24,"ac_name":"Bagalkot","booth":58,"booth_name":"Govt Kannada Boys School, room no 5 eest wing Hallur"},"geometry":{"type":"Point","coordinates":[75.8452759,16.199995]}},{"type":"Feature","properties":{"state":"Karnataka","district":2,"district_n":"BAGALKOT","pc":3,"pc_name":"Bagalkot","ac":24,"ac_name":"Bagalkot","booth":101,"booth_name":"Govt , Higher Primary Urdu Girls School No 01, Main Building, Near Pankha Masjid,bagalkot"},"geometry":{"type":"Point","coordinates":[75.70393,16.1912479]}},{"type":"Feature","properties":{"state":"Karnataka","district":2,"district_n":"BAGALKOT","pc":3,"pc_name":"Bagalkot","ac":24,"ac_name":"Bagalkot","booth":98,"booth_name":"Govt School No,1, East wing,behind Ganapati Temple Bagalkot"},"geometry":{"type":"Point","coordinates":[75.70323,16.17121]}},{"type":"Feature","properties":{"state":"Karnataka","district":2,"district_n":"BAGALKOT","pc":3,"pc_name":"Bagalkot","ac":24,"ac_name":"Bagalkot","booth":52,"booth_name":"Govt Higher Primary Kannada Boys School East wing Kirasur"},"geometry":{"type":"Point","coordinates":[75.75578,16.1934471]}},{"type":"Feature","properties":{"state":"Karnataka","district":2,"district_n":"BAGALKOT","pc":3,"pc_name":"Bagalkot","ac":24,"ac_name":"Bagalkot","booth":91,"booth_name":"Grama Chavadi Bagalkot"},"geometry":{"type":"Point","coordinates":[75.7026,16.1918]}},{"type":"Feature","properties":{"state":"Karnataka","district":2,"district_n":"BAGALKOT","pc":3,"pc_name":"Bagalkot","ac":24,"ac_name":"Bagalkot","booth":94,"booth_name":"Govt Higher Primary Kannada Girls School No 1 Room No 01, East Side Bagalkot"},"geometry":{"type":"Point","coordinates":[75.70647,16.19172]}},{"type":"Feature","properties":{"state":"Karnataka","district":2,"district_n":"BAGALKOT","pc":3,"pc_name":"Bagalkot","ac":24,"ac_name":"Bagalkot","booth":44,"booth_name":"Govt Govt Kannada Boys School,mudapalagivi"},"geometry":{"type":"Point","coordinates":[75.80457,16.2354851]}},{"type":"Feature","properties":{"state":"Karnataka","district":2,"district_n":"BAGALKOT","pc":3,"pc_name":"Bagalkot","ac":24,"ac_name":"Bagalkot","booth":73,"booth_name":"Govt Higher Primary Kannada Boys School,east Wing Honnakatti"},"geometry":{"type":"Point","coordinates":[75.74609,16.168581]}},{"type":"Feature","properties":{"state":"Karnataka","district":2,"district_n":"BAGALKOT","pc":3,"pc_name":"Bagalkot","ac":24,"ac_name":"Bagalkot","booth":4,"booth_name":"Govt Govt Kannada Lower Primary Boys School Manahalli"},"geometry":{"type":"Point","coordinates":[75.90464,16.3116779]}},{"type":"Feature","properties":{"state":"Karnataka","district":2,"district_n":"BAGALKOT","pc":3,"pc_name":"Bagalkot","ac":24,"ac_name":"Bagalkot","booth":10,"booth_name":"Govt Govt Higher Primary Kannada Boys School mankani"},"geometry":{"type":"Point","coordinates":[75.96627,16.2912178]}},{"type":"Feature","properties":{"state":"Karnataka","district":2,"district_n":"BAGALKOT","pc":3,"pc_name":"Bagalkot","ac":24,"ac_name":"Bagalkot","booth":16,"booth_name":"Govt Govt Govt Higher Primary Kannada Boys School,handargal"},"geometry":{"type":"Point","coordinates":[76.04052,16.267643]}},{"type":"Feature","properties":{"state":"Karnataka","district":2,"district_n":"BAGALKOT","pc":3,"pc_name":"Bagalkot","ac":24,"ac_name":"Bagalkot","booth":27,"booth_name":"Govt Govt Govt Higher Higher Primary Kannada Kannada Boys School, Room No, 8, Shiraguppi Ilal"},"geometry":{"type":"Point","coordinates":[75.78792,16.253643]}},{"type":"Feature","properties":{"state":"Karnataka","district":2,"district_n":"BAGALKOT","pc":3,"pc_name":"Bagalkot","ac":24,"ac_name":"Bagalkot","booth":205,"booth_name":"Govt Model Primary School, No 1, Ssa Room, Center Wing, Aminagad"},"geometry":{"type":"Point","coordinates":[75.94573,16.05745]}},{"type":"Feature","properties":{"state":"Karnataka","district":2,"district_n":"BAGALKOT","pc":3,"pc_name":"Bagalkot","ac":24,"ac_name":"Bagalkot","booth":206,"booth_name":"Govt Model Primary School, Samuha Sampanmula Kendra, West Wing, Aminagad"},"geometry":{"type":"Point","coordinates":[75.94541,16.0575352]}},{"type":"Feature","properties":{"state":"Karnataka","district":2,"district_n":"BAGALKOT","pc":3,"pc_name":"Bagalkot","ac":24,"ac_name":"Bagalkot","booth":208,"booth_name":"Govt Kannada Girls School, New Building, West Wing, Aminagad"},"geometry":{"type":"Point","coordinates":[75.94724,16.0552769]}},{"type":"Feature","properties":{"state":"Karnataka","district":2,"district_n":"BAGALKOT","pc":3,"pc_name":"Bagalkot","ac":24,"ac_name":"Bagalkot","booth":209,"booth_name":"Govt Kannada Girls School, New Building, East Wing, Aminagad"},"geometry":{"type":"Point","coordinates":[75.94734,16.0550919]}},{"type":"Feature","properties":{"state":"Karnataka","district":2,"district_n":"BAGALKOT","pc":3,"pc_name":"Bagalkot","ac":24,"ac_name":"Bagalkot","booth":211,"booth_name":"Sangameshwar Junior College, East Wing, Aminagad"},"geometry":{"type":"Point","coordinates":[75.94973,16.0533333]}},{"type":"Feature","properties":{"state":"Karnataka","district":2,"district_n":"BAGALKOT","pc":3,"pc_name":"Bagalkot","ac":24,"ac_name":"Bagalkot","booth":212,"booth_name":"Govt Kannada Boys School No 2, Aminagad"},"geometry":{"type":"Point","coordinates":[75.95269,16.0552082]}},{"type":"Feature","properties":{"state":"Karnataka","district":2,"district_n":"BAGALKOT","pc":3,"pc_name":"Bagalkot","ac":24,"ac_name":"Bagalkot","booth":214,"booth_name":"Govt Kannada Higher Primary School, Kalligudda"},"geometry":{"type":"Point","coordinates":[75.87245,16.0245285]}},{"type":"Feature","properties":{"state":"Karnataka","district":2,"district_n":"BAGALKOT","pc":3,"pc_name":"Bagalkot","ac":24,"ac_name":"Bagalkot","booth":217,"booth_name":"Govt Kannada Higher Primary School, South Wing, Aihole"},"geometry":{"type":"Point","coordinates":[75.8802643,16.0194054]}},{"type":"Feature","properties":{"state":"Karnataka","district":2,"district_n":"BAGALKOT","pc":3,"pc_name":"Bagalkot","ac":24,"ac_name":"Bagalkot","booth":100,"booth_name":"Model Primary School No 01 east wing, Mokashi Building,bagalkot"},"geometry":{"type":"Point","coordinates":[75.70186,16.1901855]}},{"type":"Feature","properties":{"state":"Karnataka","district":2,"district_n":"BAGALKOT","pc":3,"pc_name":"Bagalkot","ac":24,"ac_name":"Bagalkot","booth":102,"booth_name":"Govt Kannada Boys School No 02, room No 03, Vetarnary Hospital behind,bagalkot"},"geometry":{"type":"Point","coordinates":[75.70643,16.1869278]}},{"type":"Feature","properties":{"state":"Karnataka","district":2,"district_n":"BAGALKOT","pc":3,"pc_name":"Bagalkot","ac":24,"ac_name":"Bagalkot","booth":99,"booth_name":"Govt Boys School No,01, East Part Behind Ganapati Temple Bagalkot"},"geometry":{"type":"Point","coordinates":[75.70309,16.1911888]}},{"type":"Feature","properties":{"state":"Karnataka","district":2,"district_n":"BAGALKOT","pc":3,"pc_name":"Bagalkot","ac":24,"ac_name":"Bagalkot","booth":53,"booth_name":"Govt Higher Primary Kannada Boys School West wing Kirasur"},"geometry":{"type":"Point","coordinates":[75.7554245,16.1925755]}},{"type":"Feature","properties":{"state":"Karnataka","district":2,"district_n":"BAGALKOT","pc":3,"pc_name":"Bagalkot","ac":24,"ac_name":"Bagalkot","booth":96,"booth_name":"Govt , Kannada Boys School, No 3, Near virakthmath,bagalkot"},"geometry":{"type":"Point","coordinates":[75.70681,16.1917419]}},{"type":"Feature","properties":{"state":"Karnataka","district":2,"district_n":"BAGALKOT","pc":3,"pc_name":"Bagalkot","ac":24,"ac_name":"Bagalkot","booth":50,"booth_name":"Govt Kannada Boys School Right side Mugalolli R C"},"geometry":{"type":"Point","coordinates":[75.75408,16.2221165]}},{"type":"Feature","properties":{"state":"Karnataka","district":2,"district_n":"BAGALKOT","pc":3,"pc_name":"Bagalkot","ac":24,"ac_name":"Bagalkot","booth":56,"booth_name":"Govt Higher Primary Kannada Boys School, Middle Room,bhagavati"},"geometry":{"type":"Point","coordinates":[75.81034,16.19206]}},{"type":"Feature","properties":{"state":"Karnataka","district":2,"district_n":"BAGALKOT","pc":3,"pc_name":"Bagalkot","ac":24,"ac_name":"Bagalkot","booth":2,"booth_name":"Govt Govt Kannada Boys School (basavanagar)hiregulbal Lt"},"geometry":{"type":"Point","coordinates":[75.84341,16.3070736]}},{"type":"Feature","properties":{"state":"Karnataka","district":2,"district_n":"BAGALKOT","pc":3,"pc_name":"Bagalkot","ac":24,"ac_name":"Bagalkot","booth":3,"booth_name":"Govt Govt Kannada Boys School Sitimani"},"geometry":{"type":"Point","coordinates":[75.89346,16.3162651]}},{"type":"Feature","properties":{"state":"Karnataka","district":2,"district_n":"BAGALKOT","pc":3,"pc_name":"Bagalkot","ac":24,"ac_name":"Bagalkot","booth":5,"booth_name":"Govt Govt Higher Primary Kannada Boys School Hosur"},"geometry":{"type":"Point","coordinates":[75.9167938,16.3098774]}},{"type":"Feature","properties":{"state":"Karnataka","district":2,"district_n":"BAGALKOT","pc":3,"pc_name":"Bagalkot","ac":24,"ac_name":"Bagalkot","booth":6,"booth_name":"Govt Govt Kannada Lower Primary Boys School Nagasampgi"},"geometry":{"type":"Point","coordinates":[75.92763,16.3072739]}},{"type":"Feature","properties":{"state":"Karnataka","district":2,"district_n":"BAGALKOT","pc":3,"pc_name":"Bagalkot","ac":24,"ac_name":"Bagalkot","booth":8,"booth_name":"Govt Govt Higher Primary Kannada Boys School,right Wing Nayinegali"},"geometry":{"type":"Point","coordinates":[75.94623,16.289]}},{"type":"Feature","properties":{"state":"Karnataka","district":2,"district_n":"BAGALKOT","pc":3,"pc_name":"Bagalkot","ac":24,"ac_name":"Bagalkot","booth":11,"booth_name":"Govt Govt Higher Primary Kannada Boys School Domanal"},"geometry":{"type":"Point","coordinates":[76.00084,16.28874]}},{"type":"Feature","properties":{"state":"Karnataka","district":2,"district_n":"BAGALKOT","pc":3,"pc_name":"Bagalkot","ac":24,"ac_name":"Bagalkot","booth":14,"booth_name":"Govt Govt Higher Primary Kannada Boys School Chickamyageri"},"geometry":{"type":"Point","coordinates":[76.0276,16.2756138]}},{"type":"Feature","properties":{"state":"Karnataka","district":2,"district_n":"BAGALKOT","pc":3,"pc_name":"Bagalkot","ac":24,"ac_name":"Bagalkot","booth":17,"booth_name":"Govt Higher Primary Primary Kannada Boys School,room No 1,sutagundar"},"geometry":{"type":"Point","coordinates":[75.9885254,16.283577]}},{"type":"Feature","properties":{"state":"Karnataka","district":2,"district_n":"BAGALKOT","pc":3,"pc_name":"Bagalkot","ac":24,"ac_name":"Bagalkot","booth":19,"booth_name":"Govt Govt Higher Primary Kannada Boys School, East Wing,rampur"},"geometry":{"type":"Point","coordinates":[75.89149,16.2988529]}},{"type":"Feature","properties":{"state":"Karnataka","district":2,"district_n":"BAGALKOT","pc":3,"pc_name":"Bagalkot","ac":24,"ac_name":"Bagalkot","booth":20,"booth_name":"Govt Govt Higher Primary Primary Kannada Boys School, West Wing,rampur"},"geometry":{"type":"Point","coordinates":[75.8917847,16.298893]}},{"type":"Feature","properties":{"state":"Karnataka","district":2,"district_n":"BAGALKOT","pc":3,"pc_name":"Bagalkot","ac":24,"ac_name":"Bagalkot","booth":22,"booth_name":"Govt Govt Higher Primary Kannada Boys School, Room No 1 East Wing, Rampur R C"},"geometry":{"type":"Point","coordinates":[75.89047,16.3025818]}},{"type":"Feature","properties":{"state":"Karnataka","district":2,"district_n":"BAGALKOT","pc":3,"pc_name":"Bagalkot","ac":24,"ac_name":"Bagalkot","booth":23,"booth_name":"Govt Govt Higher Primary Kannada Boys School, Room No 4 Center room,gulbal room,gulbal L T"},"geometry":{"type":"Point","coordinates":[75.8551,16.3122253]}},{"type":"Feature","properties":{"state":"Karnataka","district":2,"district_n":"BAGALKOT","pc":3,"pc_name":"Bagalkot","ac":24,"ac_name":"Bagalkot","booth":25,"booth_name":"Govt Govt Govt Higher Higher Primary Kannada Kannada Boys School , Room No 1, jadramakunti"},"geometry":{"type":"Point","coordinates":[75.82086,16.28462]}},{"type":"Feature","properties":{"state":"Karnataka","district":2,"district_n":"BAGALKOT","pc":3,"pc_name":"Bagalkot","ac":24,"ac_name":"Bagalkot","booth":26,"booth_name":"Govt Govt Govt Higher Higher Primary Kannada Kannada Boys School , Room No 4, Jadramakunti"},"geometry":{"type":"Point","coordinates":[75.82109,16.28161]}},{"type":"Feature","properties":{"state":"Karnataka","district":2,"district_n":"BAGALKOT","pc":3,"pc_name":"Bagalkot","ac":24,"ac_name":"Bagalkot","booth":28,"booth_name":"Govt Higher Primary Primary Kannada Boys School ,room No 4,shiraguppa R C (telgihal)"},"geometry":{"type":"Point","coordinates":[75.78077,16.2537613]}},{"type":"Feature","properties":{"state":"Karnataka","district":2,"district_n":"BAGALKOT","pc":3,"pc_name":"Bagalkot","ac":24,"ac_name":"Bagalkot","booth":31,"booth_name":"Govt Govt Higher Primary Kannada Boys School Room No 4, Bennur R C"},"geometry":{"type":"Point","coordinates":[75.7654,16.2499962]}},{"type":"Feature","properties":{"state":"Karnataka","district":2,"district_n":"BAGALKOT","pc":3,"pc_name":"Bagalkot","ac":24,"ac_name":"Bagalkot","booth":34,"booth_name":"Govt Govt Higher Primary Kannada Boys School,timmapur (right Wing)"},"geometry":{"type":"Point","coordinates":[75.87557,16.2756844]}},{"type":"Feature","properties":{"state":"Karnataka","district":2,"district_n":"BAGALKOT","pc":3,"pc_name":"Bagalkot","ac":24,"ac_name":"Bagalkot","booth":37,"booth_name":"Govt Govt Kannada Lower Primary Boys School, Muduvinkopp"},"geometry":{"type":"Point","coordinates":[75.94945,16.28009]}},{"type":"Feature","properties":{"state":"Karnataka","district":2,"district_n":"BAGALKOT","pc":3,"pc_name":"Bagalkot","ac":24,"ac_name":"Bagalkot","booth":39,"booth_name":"Govt Govt Higher Primary Kannada Boys School (riht Wing)bodanayakadinni"},"geometry":{"type":"Point","coordinates":[75.89798,16.2510262]}},{"type":"Feature","properties":{"state":"Karnataka","district":2,"district_n":"BAGALKOT","pc":3,"pc_name":"Bagalkot","ac":24,"ac_name":"Bagalkot","booth":40,"booth_name":"Govt Govt Higher Primary Kannada Boys School School (left Wing),bodanaikanadinni"},"geometry":{"type":"Point","coordinates":[75.89805,16.2512569]}},{"type":"Feature","properties":{"state":"Karnataka","district":2,"district_n":"BAGALKOT","pc":3,"pc_name":"Bagalkot","ac":24,"ac_name":"Bagalkot","booth":42,"booth_name":"Garma Panchyta Office, Bill Kerur"},"geometry":{"type":"Point","coordinates":[75.86525,16.2624683]}},{"type":"Feature","properties":{"state":"Karnataka","district":2,"district_n":"BAGALKOT","pc":3,"pc_name":"Bagalkot","ac":24,"ac_name":"Bagalkot","booth":43,"booth_name":"Govt Govt Kannada Boys School, Lavaleshvara L T"},"geometry":{"type":"Point","coordinates":[75.81177,16.25556]}},{"type":"Feature","properties":{"state":"Karnataka","district":2,"district_n":"BAGALKOT","pc":3,"pc_name":"Bagalkot","ac":24,"ac_name":"Bagalkot","booth":45,"booth_name":"Govt Govt Higher Primary Kannada Boys School Room No 4,achanur"},"geometry":{"type":"Point","coordinates":[75.82914,16.2366028]}},{"type":"Feature","properties":{"state":"Karnataka","district":2,"district_n":"BAGALKOT","pc":3,"pc_name":"Bagalkot","ac":24,"ac_name":"Bagalkot","booth":46,"booth_name":"Govt Govt Higher Primary Kannada Boys School Room No 6, Achanur"},"geometry":{"type":"Point","coordinates":[75.82905,16.2367153]}},{"type":"Feature","properties":{"state":"Karnataka","district":2,"district_n":"BAGALKOT","pc":3,"pc_name":"Bagalkot","ac":24,"ac_name":"Bagalkot","booth":60,"booth_name":"Govt Kannada Girls School, new building,bevoor"},"geometry":{"type":"Point","coordinates":[75.8922348,16.2060566]}},{"type":"Feature","properties":{"state":"Karnataka","district":2,"district_n":"BAGALKOT","pc":3,"pc_name":"Bagalkot","ac":24,"ac_name":"Bagalkot","booth":62,"booth_name":"Govt Kannada Boys School room no 3, centre room,bevoor"},"geometry":{"type":"Point","coordinates":[75.890625,16.2048]}},{"type":"Feature","properties":{"state":"Karnataka","district":2,"district_n":"BAGALKOT","pc":3,"pc_name":"Bagalkot","ac":24,"ac_name":"Bagalkot","booth":63,"booth_name":"Govt Kannada Boys School room no 8, centre room, Bevoor"},"geometry":{"type":"Point","coordinates":[75.89045,16.20478]}},{"type":"Feature","properties":{"state":"Karnataka","district":2,"district_n":"BAGALKOT","pc":3,"pc_name":"Bagalkot","ac":24,"ac_name":"Bagalkot","booth":66,"booth_name":"Kannada Boys School, Room no 2 Choudapur"},"geometry":{"type":"Point","coordinates":[75.83474,16.1700134]}},{"type":"Feature","properties":{"state":"Karnataka","district":2,"district_n":"BAGALKOT","pc":3,"pc_name":"Bagalkot","ac":24,"ac_name":"Bagalkot","booth":68,"booth_name":"Govt Kannada Boys School room no 1, east wing,bhairamatti"},"geometry":{"type":"Point","coordinates":[75.85303,16.1810513]}},{"type":"Feature","properties":{"state":"Karnataka","district":2,"district_n":"BAGALKOT","pc":3,"pc_name":"Bagalkot","ac":24,"ac_name":"Bagalkot","booth":69,"booth_name":"Govt Higher Primary Kannada Boys School, Room no 8, east wing,benakatti"},"geometry":{"type":"Point","coordinates":[75.8078,16.1522827]}},{"type":"Feature","properties":{"state":"Karnataka","district":2,"district_n":"BAGALKOT","pc":3,"pc_name":"Bagalkot","ac":24,"ac_name":"Bagalkot","booth":71,"booth_name":"Govt Higher Primary Kannada Boys School, room, no 5, east wing, Benakatti"},"geometry":{"type":"Point","coordinates":[75.80762,16.1523666]}},{"type":"Feature","properties":{"state":"Karnataka","district":2,"district_n":"BAGALKOT","pc":3,"pc_name":"Bagalkot","ac":24,"ac_name":"Bagalkot","booth":74,"booth_name":"Govt Higher Primary Kannada Boys School,west wing Honnakatti"},"geometry":{"type":"Point","coordinates":[75.7460251,16.1684418]}},{"type":"Feature","properties":{"state":"Karnataka","district":2,"district_n":"BAGALKOT","pc":3,"pc_name":"Bagalkot","ac":24,"ac_name":"Bagalkot","booth":77,"booth_name":"Govt Kannada Boys School No 16, Btda Coloney, Left side vidyagiri,bagalkot"},"geometry":{"type":"Point","coordinates":[75.65159,16.1771736]}},{"type":"Feature","properties":{"state":"Karnataka","district":2,"district_n":"BAGALKOT","pc":3,"pc_name":"Bagalkot","ac":24,"ac_name":"Bagalkot","booth":80,"booth_name":"St Anni's Convent High School (pri Primary& Primary School),east wing, Vidyagiri Bagalkot"},"geometry":{"type":"Point","coordinates":[75.66308,16.1808853]}},{"type":"Feature","properties":{"state":"Karnataka","district":2,"district_n":"BAGALKOT","pc":3,"pc_name":"Bagalkot","ac":24,"ac_name":"Bagalkot","booth":82,"booth_name":"Exicutive Engineer Office, (keb) Room No 11, Bagalkot"},"geometry":{"type":"Point","coordinates":[75.66993,16.1876068]}},{"type":"Feature","properties":{"state":"Karnataka","district":2,"district_n":"BAGALKOT","pc":3,"pc_name":"Bagalkot","ac":24,"ac_name":"Bagalkot","booth":83,"booth_name":"Govt Kannada Boys School, Haveli,"},"geometry":{"type":"Point","coordinates":[75.68282,16.2025738]}},{"type":"Feature","properties":{"state":"Karnataka","district":2,"district_n":"BAGALKOT","pc":3,"pc_name":"Bagalkot","ac":24,"ac_name":"Bagalkot","booth":85,"booth_name":"I T I College Bagalkot(old Pwd Office)"},"geometry":{"type":"Point","coordinates":[75.69639,16.1898422]}},{"type":"Feature","properties":{"state":"Karnataka","district":2,"district_n":"BAGALKOT","pc":3,"pc_name":"Bagalkot","ac":24,"ac_name":"Bagalkot","booth":86,"booth_name":"Shasakar Model Primary School, No 04, East wing,bagalkot"},"geometry":{"type":"Point","coordinates":[75.6916962,16.1836777]}},{"type":"Feature","properties":{"state":"Karnataka","district":2,"district_n":"BAGALKOT","pc":3,"pc_name":"Bagalkot","ac":24,"ac_name":"Bagalkot","booth":88,"booth_name":"Abu kalam Ajad Urdu Primary School 2nd Class Room Muchakandi Cross Bagalkot"},"geometry":{"type":"Point","coordinates":[75.68696,16.1870232]}},{"type":"Feature","properties":{"state":"Karnataka","district":2,"district_n":"BAGALKOT","pc":3,"pc_name":"Bagalkot","ac":24,"ac_name":"Bagalkot","booth":89,"booth_name":"Taluka Panchayat Office, east side Bagalkot"},"geometry":{"type":"Point","coordinates":[75.69833,16.189024]}},{"type":"Feature","properties":{"state":"Karnataka","district":2,"district_n":"BAGALKOT","pc":3,"pc_name":"Bagalkot","ac":24,"ac_name":"Bagalkot","booth":48,"booth_name":"Govt Higher Primary Kannada Boys School Kadlimatti"},"geometry":{"type":"Point","coordinates":[75.79961,16.2327824]}},{"type":"Feature","properties":{"state":"Karnataka","district":2,"district_n":"BAGALKOT","pc":3,"pc_name":"Bagalkot","ac":24,"ac_name":"Bagalkot","booth":51,"booth_name":"Govt High School School Mugalolli R C"},"geometry":{"type":"Point","coordinates":[75.75651,16.2216072]}},{"type":"Feature","properties":{"state":"Karnataka","district":2,"district_n":"BAGALKOT","pc":3,"pc_name":"Bagalkot","ac":24,"ac_name":"Bagalkot","booth":54,"booth_name":"Govt Higher Primary Kannada Boys School East wing Bhagavati"},"geometry":{"type":"Point","coordinates":[75.80999,16.192667]}},{"type":"Feature","properties":{"state":"Karnataka","district":2,"district_n":"BAGALKOT","pc":3,"pc_name":"Bagalkot","ac":24,"ac_name":"Bagalkot","booth":57,"booth_name":"Govt Kannada Boys School room no 11 East wing,hallur"},"geometry":{"type":"Point","coordinates":[75.8455658,16.2000389]}},{"type":"Feature","properties":{"state":"Karnataka","district":2,"district_n":"BAGALKOT","pc":3,"pc_name":"Bagalkot","ac":24,"ac_name":"Bagalkot","booth":59,"booth_name":"Govt Kannada Boys School, west wing, Hallur"},"geometry":{"type":"Point","coordinates":[75.8453445,16.2001038]}},{"type":"Feature","properties":{"state":"Karnataka","district":2,"district_n":"BAGALKOT","pc":3,"pc_name":"Bagalkot","ac":24,"ac_name":"Bagalkot","booth":97,"booth_name":"Urdu Boys School, No 02, West Wing, Near Fatesha Masjid,bagalkot"},"geometry":{"type":"Point","coordinates":[75.70682,16.1886349]}},{"type":"Feature","properties":{"state":"Karnataka","district":2,"district_n":"BAGALKOT","pc":3,"pc_name":"Bagalkot","ac":24,"ac_name":"Bagalkot","booth":103,"booth_name":"Urdu Boys School, room No 02, east side near fatesha masjid,bagalkot"},"geometry":{"type":"Point","coordinates":[75.706955,16.18817]}},{"type":"Feature","properties":{"state":"Karnataka","district":2,"district_n":"BAGALKOT","pc":3,"pc_name":"Bagalkot","ac":24,"ac_name":"Bagalkot","booth":105,"booth_name":"Govt Higher Primary Kannada Boys School No,09 Room No 01, Bagalkot"},"geometry":{"type":"Point","coordinates":[75.708786,16.18821]}},{"type":"Feature","properties":{"state":"Karnataka","district":2,"district_n":"BAGALKOT","pc":3,"pc_name":"Bagalkot","ac":24,"ac_name":"Bagalkot","booth":106,"booth_name":"Govt Higher Primary Kannada Boys School No 02, east wing room No 02, Vataranery Hospital behind, Bagalkot"},"geometry":{"type":"Point","coordinates":[75.70664,16.1868248]}},{"type":"Feature","properties":{"state":"Karnataka","district":2,"district_n":"BAGALKOT","pc":3,"pc_name":"Bagalkot","ac":24,"ac_name":"Bagalkot","booth":108,"booth_name":"Govt Kannada Boys School No 02, New Building, Vataranery hospital behind,bagalkot"},"geometry":{"type":"Point","coordinates":[75.70632,16.1868668]}},{"type":"Feature","properties":{"state":"Karnataka","district":2,"district_n":"BAGALKOT","pc":3,"pc_name":"Bagalkot","ac":24,"ac_name":"Bagalkot","booth":109,"booth_name":"Asst Director of Animal Husbandray Office room,bagalko"},"geometry":{"type":"Point","coordinates":[75.7063,16.1865921]}},{"type":"Feature","properties":{"state":"Karnataka","district":2,"district_n":"BAGALKOT","pc":3,"pc_name":"Bagalkot","ac":24,"ac_name":"Bagalkot","booth":111,"booth_name":"Sakri High School West Wing,bagalkot"},"geometry":{"type":"Point","coordinates":[75.9669647,16.1878929]}},{"type":"Feature","properties":{"state":"Karnataka","district":2,"district_n":"BAGALKOT","pc":3,"pc_name":"Bagalkot","ac":24,"ac_name":"Bagalkot","booth":114,"booth_name":"P M Nadagouda Arts and Commerce Junior College, east wing,bagalkot"},"geometry":{"type":"Point","coordinates":[75.70257,16.1812172]}},{"type":"Feature","properties":{"state":"Karnataka","district":2,"district_n":"BAGALKOT","pc":3,"pc_name":"Bagalkot","ac":24,"ac_name":"Bagalkot","booth":120,"booth_name":"Govt Higher Primary Kannada Girls School no 03, South Said Setlament area,bagalkot"},"geometry":{"type":"Point","coordinates":[75.6984558,16.1864014]}},{"type":"Feature","properties":{"state":"Karnataka","district":2,"district_n":"BAGALKOT","pc":3,"pc_name":"Bagalkot","ac":24,"ac_name":"Bagalkot","booth":122,"booth_name":"Shasakar Model Primery School No 4 New room No 3 neyrutya Side,bagalkot"},"geometry":{"type":"Point","coordinates":[75.49042,16.1837425]}},{"type":"Feature","properties":{"state":"Karnataka","district":2,"district_n":"BAGALKOT","pc":3,"pc_name":"Bagalkot","ac":24,"ac_name":"Bagalkot","booth":123,"booth_name":"Shasakar Model School no 04, New Building room no 26 South west wing,bagalkot"},"geometry":{"type":"Point","coordinates":[75.690506,16.1838646]}},{"type":"Feature","properties":{"state":"Karnataka","district":2,"district_n":"BAGALKOT","pc":3,"pc_name":"Bagalkot","ac":24,"ac_name":"Bagalkot","booth":125,"booth_name":"Govt Higher Primary Girls School no 03, Centre room, Settalment area,bagalkot"},"geometry":{"type":"Point","coordinates":[75.69839,16.1862]}},{"type":"Feature","properties":{"state":"Karnataka","district":2,"district_n":"BAGALKOT","pc":3,"pc_name":"Bagalkot","ac":24,"ac_name":"Bagalkot","booth":126,"booth_name":"Govt Kannada Boys School No 06, North wing sector 15, navanagar,bagalkot"},"geometry":{"type":"Point","coordinates":[75.65175,16.1619263]}},{"type":"Feature","properties":{"state":"Karnataka","district":2,"district_n":"BAGALKOT","pc":3,"pc_name":"Bagalkot","ac":24,"ac_name":"Bagalkot","booth":128,"booth_name":"Satya Sai Kannada and English Medium Pri Primary School, sector sector 01, navanagar, Bagalkot"},"geometry":{"type":"Point","coordinates":[75.6527252,16.1684437]}},{"type":"Feature","properties":{"state":"Karnataka","district":2,"district_n":"BAGALKOT","pc":3,"pc_name":"Bagalkot","ac":24,"ac_name":"Bagalkot","booth":129,"booth_name":"The Central Model School No 10, sector 41 south wing, navanagar,bagalkot"},"geometry":{"type":"Point","coordinates":[75.65439,16.152914]}},{"type":"Feature","properties":{"state":"Karnataka","district":2,"district_n":"BAGALKOT","pc":3,"pc_name":"Bagalkot","ac":24,"ac_name":"Bagalkot","booth":131,"booth_name":"Govt Govt Model Urdu Boys School, Sector 13, ret side, Navanagar,bagalkot"},"geometry":{"type":"Point","coordinates":[75.6557,16.16564]}},{"type":"Feature","properties":{"state":"Karnataka","district":2,"district_n":"BAGALKOT","pc":3,"pc_name":"Bagalkot","ac":24,"ac_name":"Bagalkot","booth":134,"booth_name":"Govt Kannada Primary Girls Model School No 2,sect No 33, (branch of sect No 34 School No 2,) Navangar Bagalkot"},"geometry":{"type":"Point","coordinates":[75.66585,16.1567879]}},{"type":"Feature","properties":{"state":"Karnataka","district":2,"district_n":"BAGALKOT","pc":3,"pc_name":"Bagalkot","ac":24,"ac_name":"Bagalkot","booth":137,"booth_name":"Govt Govt Urdu School No 06, sector 41 Navanagar,bagalkot"},"geometry":{"type":"Point","coordinates":[75.65435,16.154974]}},{"type":"Feature","properties":{"state":"Karnataka","district":2,"district_n":"BAGALKOT","pc":3,"pc_name":"Bagalkot","ac":24,"ac_name":"Bagalkot","booth":140,"booth_name":"Govt Model Kannada Boys School no 07, sector 37, Navanagar Navanagar Bagalkot"},"geometry":{"type":"Point","coordinates":[75.6647949,16.1531429]}},{"type":"Feature","properties":{"state":"Karnataka","district":2,"district_n":"BAGALKOT","pc":3,"pc_name":"Bagalkot","ac":24,"ac_name":"Bagalkot","booth":143,"booth_name":"Central Model School N0,10 sector41,south wing,navanagar,bagalkot"},"geometry":{"type":"Point","coordinates":[75.65445,16.1528263]}},{"type":"Feature","properties":{"state":"Karnataka","district":2,"district_n":"BAGALKOT","pc":3,"pc_name":"Bagalkot","ac":24,"ac_name":"Bagalkot","booth":145,"booth_name":"Govt Muraji desai Hostel Hostel north wing, Navanagar,bagalkot"},"geometry":{"type":"Point","coordinates":[75.65475,16.1485138]}},{"type":"Feature","properties":{"state":"Karnataka","district":2,"district_n":"BAGALKOT","pc":3,"pc_name":"Bagalkot","ac":24,"ac_name":"Bagalkot","booth":146,"booth_name":"Govt Murarji Desai Residential School, South Wing, Navanagar, Bagalkot"},"geometry":{"type":"Point","coordinates":[75.65438,16.1491547]}},{"type":"Feature","properties":{"state":"Karnataka","district":2,"district_n":"BAGALKOT","pc":3,"pc_name":"Bagalkot","ac":24,"ac_name":"Bagalkot","booth":148,"booth_name":"Govt Higher Primary School No 3 Rajeev Gandhi Colony Center Room, East wing Navanagar Bagalkot"},"geometry":{"type":"Point","coordinates":[75.65549,16.1453934]}},{"type":"Feature","properties":{"state":"Karnataka","district":2,"district_n":"BAGALKOT","pc":3,"pc_name":"Bagalkot","ac":24,"ac_name":"Bagalkot","booth":149,"booth_name":"Commissioner, R&r, Land Acquisition Office Left Wing, Ukp, Sector No 9, Navanagar, Bagalkot"},"geometry":{"type":"Point","coordinates":[75.66409,16.164217]}},{"type":"Feature","properties":{"state":"Karnataka","district":2,"district_n":"BAGALKOT","pc":3,"pc_name":"Bagalkot","ac":24,"ac_name":"Bagalkot","booth":151,"booth_name":"Govt Govt Kannada Boys School No 17, Left Wing, Sector No 43, Navanagar, Bagalkot"},"geometry":{"type":"Point","coordinates":[75.65063,16.1514225]}},{"type":"Feature","properties":{"state":"Karnataka","district":2,"district_n":"BAGALKOT","pc":3,"pc_name":"Bagalkot","ac":24,"ac_name":"Bagalkot","booth":152,"booth_name":"Govt Govt Higher Primary Kannada Boys School, Muchakhandi"},"geometry":{"type":"Point","coordinates":[75.7460251,16.1684418]}},{"type":"Feature","properties":{"state":"Karnataka","district":2,"district_n":"BAGALKOT","pc":3,"pc_name":"Bagalkot","ac":24,"ac_name":"Bagalkot","booth":154,"booth_name":"Govt Higher Primary Kannada Boys School, Muchakhandi Lt 1 (durgadevi Nagar)"},"geometry":{"type":"Point","coordinates":[75.67134,16.1446056]}},{"type":"Feature","properties":{"state":"Karnataka","district":2,"district_n":"BAGALKOT","pc":3,"pc_name":"Bagalkot","ac":24,"ac_name":"Bagalkot","booth":157,"booth_name":"Govt Lower Kannada Boys School , Shiraguppi L T (shigikeri R C)"},"geometry":{"type":"Point","coordinates":[75.6924,16.1527233]}},{"type":"Feature","properties":{"state":"Karnataka","district":2,"district_n":"BAGALKOT","pc":3,"pc_name":"Bagalkot","ac":24,"ac_name":"Bagalkot","booth":160,"booth_name":"Govt Higher primary Kannada Boys School Mallapur ( Bevinamatti R C)"},"geometry":{"type":"Point","coordinates":[75.74102,16.1428089]}},{"type":"Feature","properties":{"state":"Karnataka","district":2,"district_n":"BAGALKOT","pc":3,"pc_name":"Bagalkot","ac":24,"ac_name":"Bagalkot","booth":163,"booth_name":"Govt Higher Primary Kannada Boys School, West Wing, Niralakeri"},"geometry":{"type":"Point","coordinates":[75.693924,16.1277]}},{"type":"Feature","properties":{"state":"Karnataka","district":2,"district_n":"BAGALKOT","pc":3,"pc_name":"Bagalkot","ac":24,"ac_name":"Bagalkot","booth":165,"booth_name":"Govt Higher Primary Kannada Boys School, Right Side, Room No 1, Shirur Lt (nilanagar)"},"geometry":{"type":"Point","coordinates":[75.7375946,16.090126]}},{"type":"Feature","properties":{"state":"Karnataka","district":2,"district_n":"BAGALKOT","pc":3,"pc_name":"Bagalkot","ac":24,"ac_name":"Bagalkot","booth":166,"booth_name":"Govt Higher Primary Kannada Boys School, Right Side, Room No 6, Shirur Lt (nilanagar)"},"geometry":{"type":"Point","coordinates":[75.73752,16.0901012]}},{"type":"Feature","properties":{"state":"Karnataka","district":2,"district_n":"BAGALKOT","pc":3,"pc_name":"Bagalkot","ac":24,"ac_name":"Bagalkot","booth":168,"booth_name":"Sri Siddeshwar High School, Class 8b, North Wing, Shirur"},"geometry":{"type":"Point","coordinates":[75.78057,16.101059]}},{"type":"Feature","properties":{"state":"Karnataka","district":2,"district_n":"BAGALKOT","pc":3,"pc_name":"Bagalkot","ac":24,"ac_name":"Bagalkot","booth":169,"booth_name":"Sri Siddeshwar High School, North Wing, Shirur"},"geometry":{"type":"Point","coordinates":[75.78042,16.1008911]}},{"type":"Feature","properties":{"state":"Karnataka","district":2,"district_n":"BAGALKOT","pc":3,"pc_name":"Bagalkot","ac":24,"ac_name":"Bagalkot","booth":171,"booth_name":"Govt Higher Primary Kannada Girls School, Room No 9, Center Wing, Shirur"},"geometry":{"type":"Point","coordinates":[75.78357,16.0993481]}},{"type":"Feature","properties":{"state":"Karnataka","district":2,"district_n":"BAGALKOT","pc":3,"pc_name":"Bagalkot","ac":24,"ac_name":"Bagalkot","booth":172,"booth_name":"Govt Higher Primary Kannada Boys School, Room No 6, Near Bus Stand, Shirur"},"geometry":{"type":"Point","coordinates":[75.7827759,16.1008873]}},{"type":"Feature","properties":{"state":"Karnataka","district":2,"district_n":"BAGALKOT","pc":3,"pc_name":"Bagalkot","ac":24,"ac_name":"Bagalkot","booth":174,"booth_name":"Veerashaiva Grameen Vidya Vardhaka Sangha, Left wing, Shirur"},"geometry":{"type":"Point","coordinates":[75.787,16.1003265]}},{"type":"Feature","properties":{"state":"Karnataka","district":2,"district_n":"BAGALKOT","pc":3,"pc_name":"Bagalkot","ac":24,"ac_name":"Bagalkot","booth":177,"booth_name":"Govt Kannada Boys School, Kadiwal Kallapur"},"geometry":{"type":"Point","coordinates":[75.880455,16.1360912]}},{"type":"Feature","properties":{"state":"Karnataka","district":2,"district_n":"BAGALKOT","pc":3,"pc_name":"Bagalkot","ac":24,"ac_name":"Bagalkot","booth":180,"booth_name":"Govt Kannada Higher Primary School, Basavanal"},"geometry":{"type":"Point","coordinates":[75.91153,16.14089]}},{"type":"Feature","properties":{"state":"Karnataka","district":2,"district_n":"BAGALKOT","pc":3,"pc_name":"Bagalkot","ac":24,"ac_name":"Bagalkot","booth":183,"booth_name":"Govt Higher Primary Kannada Girls School, South Wing, Kamatagi"},"geometry":{"type":"Point","coordinates":[75.86517,16.1009521]}},{"type":"Feature","properties":{"state":"Karnataka","district":2,"district_n":"BAGALKOT","pc":3,"pc_name":"Bagalkot","ac":24,"ac_name":"Bagalkot","booth":185,"booth_name":"Govt Model Primary School, South Wing, Kamatagi"},"geometry":{"type":"Point","coordinates":[75.86493,16.1013184]}},{"type":"Feature","properties":{"state":"Karnataka","district":2,"district_n":"BAGALKOT","pc":3,"pc_name":"Bagalkot","ac":24,"ac_name":"Bagalkot","booth":186,"booth_name":"Shivasharane Kalyanamma High School, East Wing, Kamatagi"},"geometry":{"type":"Point","coordinates":[75.86588,16.1042728]}},{"type":"Feature","properties":{"state":"Karnataka","district":2,"district_n":"BAGALKOT","pc":3,"pc_name":"Bagalkot","ac":24,"ac_name":"Bagalkot","booth":188,"booth_name":"Vyavasaya Seva Sahakari Sangha, South Wing, Kamatagi"},"geometry":{"type":"Point","coordinates":[75.86441,16.104269]}},{"type":"Feature","properties":{"state":"Karnataka","district":2,"district_n":"BAGALKOT","pc":3,"pc_name":"Bagalkot","ac":24,"ac_name":"Bagalkot","booth":189,"booth_name":"Sri Sevalal Higher Primary School, South West Side, Kamatagi (new Building)"},"geometry":{"type":"Point","coordinates":[75.86806,16.1074486]}},{"type":"Feature","properties":{"state":"Karnataka","district":2,"district_n":"BAGALKOT","pc":3,"pc_name":"Bagalkot","ac":24,"ac_name":"Bagalkot","booth":191,"booth_name":"Shakhambari Pu College, Center Wing, Kamatagi"},"geometry":{"type":"Point","coordinates":[75.86131,16.1053047]}},{"type":"Feature","properties":{"state":"Karnataka","district":2,"district_n":"BAGALKOT","pc":3,"pc_name":"Bagalkot","ac":24,"ac_name":"Bagalkot","booth":192,"booth_name":"Shakhambari Pu College, East Wing, Kamatagi"},"geometry":{"type":"Point","coordinates":[75.88356,16.09016]}},{"type":"Feature","properties":{"state":"Karnataka","district":2,"district_n":"BAGALKOT","pc":3,"pc_name":"Bagalkot","ac":24,"ac_name":"Bagalkot","booth":194,"booth_name":"Govt Higher Primary School, Bevinal"},"geometry":{"type":"Point","coordinates":[75.89269,16.115078]}},{"type":"Feature","properties":{"state":"Karnataka","district":2,"district_n":"BAGALKOT","pc":3,"pc_name":"Bagalkot","ac":24,"ac_name":"Bagalkot","booth":197,"booth_name":"Govt Lower Primary School, Madapur"},"geometry":{"type":"Point","coordinates":[75.94832,16.0980568]}},{"type":"Feature","properties":{"state":"Karnataka","district":2,"district_n":"BAGALKOT","pc":3,"pc_name":"Bagalkot","ac":24,"ac_name":"Bagalkot","booth":200,"booth_name":"Govt Lower Primary School, Mullur"},"geometry":{"type":"Point","coordinates":[75.8592453,16.0577812]}},{"type":"Feature","properties":{"state":"Karnataka","district":2,"district_n":"BAGALKOT","pc":3,"pc_name":"Bagalkot","ac":24,"ac_name":"Bagalkot","booth":203,"booth_name":"Gram Panchayat Library, Aminagad"},"geometry":{"type":"Point","coordinates":[75.94684,16.55293]}}]}