{"type":"FeatureCollection","features":[{"type":"Feature","properties":{"state":"Karnataka","district":2,"district_n":"BAGALKOT","pc":3,"pc_name":"Bagalkot","ac":25,"ac_name":"Hungund","booth":1,"booth_name":"Govt Higher Primary School,katagur /"},"geometry":{"type":"Point","coordinates":[76.0581055,16.25701]}},{"type":"Feature","properties":{"state":"Karnataka","district":2,"district_n":"BAGALKOT","pc":3,"pc_name":"Bagalkot","ac":25,"ac_name":"Hungund","booth":3,"booth_name":"Govt Higher Primary School,bisaladinni"},"geometry":{"type":"Point","coordinates":[76.04015,16.228714]}},{"type":"Feature","properties":{"state":"Karnataka","district":2,"district_n":"BAGALKOT","pc":3,"pc_name":"Bagalkot","ac":25,"ac_name":"Hungund","booth":4,"booth_name":"Govt Lower Primary School Valakaladinni"},"geometry":{"type":"Point","coordinates":[76.04359,16.22337]}},{"type":"Feature","properties":{"state":"Karnataka","district":2,"district_n":"BAGALKOT","pc":3,"pc_name":"Bagalkot","ac":25,"ac_name":"Hungund","booth":18,"booth_name":"Govt Lower Primary School Koujaganur"},"geometry":{"type":"Point","coordinates":[76.19183,16.1617737]}},{"type":"Feature","properties":{"state":"Karnataka","district":2,"district_n":"BAGALKOT","pc":3,"pc_name":"Bagalkot","ac":25,"ac_name":"Hungund","booth":21,"booth_name":"Kannada Boys Higher Primary School , Isalamapur"},"geometry":{"type":"Point","coordinates":[76.23207,16.15111]}},{"type":"Feature","properties":{"state":"Karnataka","district":2,"district_n":"BAGALKOT","pc":3,"pc_name":"Bagalkot","ac":25,"ac_name":"Hungund","booth":23,"booth_name":"Kannada Boys Higher Primary School ,dasabal"},"geometry":{"type":"Point","coordinates":[76.19843,16.1309929]}},{"type":"Feature","properties":{"state":"Karnataka","district":2,"district_n":"BAGALKOT","pc":3,"pc_name":"Bagalkot","ac":25,"ac_name":"Hungund","booth":24,"booth_name":"Govt Higher Primary School Iddalagi"},"geometry":{"type":"Point","coordinates":[76.05246,16.1748943]}},{"type":"Feature","properties":{"state":"Karnataka","district":2,"district_n":"BAGALKOT","pc":3,"pc_name":"Bagalkot","ac":25,"ac_name":"Hungund","booth":26,"booth_name":"Govt Lower Primary School, Varagodadinni"},"geometry":{"type":"Point","coordinates":[76.02147,16.1854763]}},{"type":"Feature","properties":{"state":"Karnataka","district":2,"district_n":"BAGALKOT","pc":3,"pc_name":"Bagalkot","ac":25,"ac_name":"Hungund","booth":27,"booth_name":"Govt Lower Primary School Kengall Kadapatti"},"geometry":{"type":"Point","coordinates":[76.04114,16.182272]}},{"type":"Feature","properties":{"state":"Karnataka","district":2,"district_n":"BAGALKOT","pc":3,"pc_name":"Bagalkot","ac":25,"ac_name":"Hungund","booth":30,"booth_name":"Govt Samukta High Primary School Ganjihal Primary Div (west Side)ganjihal"},"geometry":{"type":"Point","coordinates":[75.98574,16.163332]}},{"type":"Feature","properties":{"state":"Karnataka","district":2,"district_n":"BAGALKOT","pc":3,"pc_name":"Bagalkot","ac":25,"ac_name":"Hungund","booth":32,"booth_name":"Govt Samukta High Primary School Ganjihal (east Wing)"},"geometry":{"type":"Point","coordinates":[75.98533,16.6380062]}},{"type":"Feature","properties":{"state":"Karnataka","district":2,"district_n":"BAGALKOT","pc":3,"pc_name":"Bagalkot","ac":25,"ac_name":"Hungund","booth":33,"booth_name":"Govt High Primary School,belagall"},"geometry":{"type":"Point","coordinates":[76.0197,16.1616478]}},{"type":"Feature","properties":{"state":"Karnataka","district":2,"district_n":"BAGALKOT","pc":3,"pc_name":"Bagalkot","ac":25,"ac_name":"Hungund","booth":35,"booth_name":"Govt Kannada Boys And Girls School Pochapur"},"geometry":{"type":"Point","coordinates":[76.2099152,16.1099052]}},{"type":"Feature","properties":{"state":"Karnataka","district":2,"district_n":"BAGALKOT","pc":3,"pc_name":"Bagalkot","ac":25,"ac_name":"Hungund","booth":38,"booth_name":"Kannada Boys School,kodihal (west Wing)"},"geometry":{"type":"Point","coordinates":[76.30594,16.09234]}},{"type":"Feature","properties":{"state":"Karnataka","district":2,"district_n":"BAGALKOT","pc":3,"pc_name":"Bagalkot","ac":25,"ac_name":"Hungund","booth":41,"booth_name":"Govt Higher Primary School,karadi(east Wing)"},"geometry":{"type":"Point","coordinates":[76.20757,16.1009045]}},{"type":"Feature","properties":{"state":"Karnataka","district":2,"district_n":"BAGALKOT","pc":3,"pc_name":"Bagalkot","ac":25,"ac_name":"Hungund","booth":44,"booth_name":"Govt Higher Primary School Manmathanal ,"},"geometry":{"type":"Point","coordinates":[76.1856842,16.1495285]}},{"type":"Feature","properties":{"state":"Karnataka","district":2,"district_n":"BAGALKOT","pc":3,"pc_name":"Bagalkot","ac":25,"ac_name":"Hungund","booth":46,"booth_name":"Govt Higher Primary School,hadagli(north Wing)"},"geometry":{"type":"Point","coordinates":[75.99691,16.1386757]}},{"type":"Feature","properties":{"state":"Karnataka","district":2,"district_n":"BAGALKOT","pc":3,"pc_name":"Bagalkot","ac":25,"ac_name":"Hungund","booth":47,"booth_name":"Govt Higher Primary School(south Wing) Hadagali"},"geometry":{"type":"Point","coordinates":[75.9970856,16.1387138]}},{"type":"Feature","properties":{"state":"Karnataka","district":2,"district_n":"BAGALKOT","pc":3,"pc_name":"Bagalkot","ac":25,"ac_name":"Hungund","booth":49,"booth_name":"Govt Higher Primary School Chikkamagi"},"geometry":{"type":"Point","coordinates":[75.93614,16.1208057]}},{"type":"Feature","properties":{"state":"Karnataka","district":2,"district_n":"BAGALKOT","pc":3,"pc_name":"Bagalkot","ac":25,"ac_name":"Hungund","booth":50,"booth_name":"Govt Higher Primary School Khairawadagi"},"geometry":{"type":"Point","coordinates":[75.95674,16.1156979]}},{"type":"Feature","properties":{"state":"Karnataka","district":2,"district_n":"BAGALKOT","pc":3,"pc_name":"Bagalkot","ac":25,"ac_name":"Hungund","booth":52,"booth_name":"Govt Higher Primary School(south Wing) Gangur"},"geometry":{"type":"Point","coordinates":[75.9609,16.1113663]}},{"type":"Feature","properties":{"state":"Karnataka","district":2,"district_n":"BAGALKOT","pc":3,"pc_name":"Bagalkot","ac":25,"ac_name":"Hungund","booth":53,"booth_name":"Govt Higher Primary School (east Wing) Chittaragi"},"geometry":{"type":"Point","coordinates":[75.97312,16.117815]}},{"type":"Feature","properties":{"state":"Karnataka","district":2,"district_n":"BAGALKOT","pc":3,"pc_name":"Bagalkot","ac":25,"ac_name":"Hungund","booth":55,"booth_name":"Govt Higher Primary School ,timmapur"},"geometry":{"type":"Point","coordinates":[76.0276,16.0994511]}},{"type":"Feature","properties":{"state":"Karnataka","district":2,"district_n":"BAGALKOT","pc":3,"pc_name":"Bagalkot","ac":25,"ac_name":"Hungund","booth":58,"booth_name":"Govt Higher Primary School,hemawadagi"},"geometry":{"type":"Point","coordinates":[76.1769943,16.08647]}},{"type":"Feature","properties":{"state":"Karnataka","district":2,"district_n":"BAGALKOT","pc":3,"pc_name":"Bagalkot","ac":25,"ac_name":"Hungund","booth":61,"booth_name":"Govt Lower Primary School,chamalapur"},"geometry":{"type":"Point","coordinates":[76.29493,16.0550747]}},{"type":"Feature","properties":{"state":"Karnataka","district":2,"district_n":"BAGALKOT","pc":3,"pc_name":"Bagalkot","ac":25,"ac_name":"Hungund","booth":64,"booth_name":"Kannada Boys School,turamari"},"geometry":{"type":"Point","coordinates":[76.17291,16.0740414]}},{"type":"Feature","properties":{"state":"Karnataka","district":2,"district_n":"BAGALKOT","pc":3,"pc_name":"Bagalkot","ac":25,"ac_name":"Hungund","booth":66,"booth_name":"Kannada Boys School Binjavadagi"},"geometry":{"type":"Point","coordinates":[76.10736,16.0645714]}},{"type":"Feature","properties":{"state":"Karnataka","district":2,"district_n":"BAGALKOT","pc":3,"pc_name":"Bagalkot","ac":25,"ac_name":"Hungund","booth":67,"booth_name":"Govt Higher Primary School Ramawadagi"},"geometry":{"type":"Point","coordinates":[76.10384,16.0706577]}},{"type":"Feature","properties":{"state":"Karnataka","district":2,"district_n":"BAGALKOT","pc":3,"pc_name":"Bagalkot","ac":25,"ac_name":"Hungund","booth":69,"booth_name":"Govt Lower Primary School Hagedal"},"geometry":{"type":"Point","coordinates":[76.11639,16.07988]}},{"type":"Feature","properties":{"state":"Karnataka","district":2,"district_n":"BAGALKOT","pc":3,"pc_name":"Bagalkot","ac":25,"ac_name":"Hungund","booth":70,"booth_name":"Samuday Bhavan Pattan Panchyat Hungund"},"geometry":{"type":"Point","coordinates":[76.05509,16.06042]}},{"type":"Feature","properties":{"state":"Karnataka","district":2,"district_n":"BAGALKOT","pc":3,"pc_name":"Bagalkot","ac":25,"ac_name":"Hungund","booth":72,"booth_name":"Central School Hungund"},"geometry":{"type":"Point","coordinates":[76.05465,16.06075]}},{"type":"Feature","properties":{"state":"Karnataka","district":2,"district_n":"BAGALKOT","pc":3,"pc_name":"Bagalkot","ac":25,"ac_name":"Hungund","booth":73,"booth_name":"Govt Higher Primary School No 1 South Wing Hungund"},"geometry":{"type":"Point","coordinates":[76.0574341,16.06339]}},{"type":"Feature","properties":{"state":"Karnataka","district":2,"district_n":"BAGALKOT","pc":3,"pc_name":"Bagalkot","ac":25,"ac_name":"Hungund","booth":75,"booth_name":"Govt Higher Primary School No 1 (north Wing ),hungund"},"geometry":{"type":"Point","coordinates":[76.05718,16.0635567]}},{"type":"Feature","properties":{"state":"Karnataka","district":2,"district_n":"BAGALKOT","pc":3,"pc_name":"Bagalkot","ac":25,"ac_name":"Hungund","booth":78,"booth_name":"Govt Urdu Boys Higher Primary School (east Side) Hungund"},"geometry":{"type":"Point","coordinates":[76.0614,16.0650425]}},{"type":"Feature","properties":{"state":"Karnataka","district":2,"district_n":"BAGALKOT","pc":3,"pc_name":"Bagalkot","ac":25,"ac_name":"Hungund","booth":81,"booth_name":"Taluka Panchyat Meeting Hall Hungund"},"geometry":{"type":"Point","coordinates":[76.0598755,16.0647774]}},{"type":"Feature","properties":{"state":"Karnataka","district":2,"district_n":"BAGALKOT","pc":3,"pc_name":"Bagalkot","ac":25,"ac_name":"Hungund","booth":84,"booth_name":"Higher Primary School Vidya Nagar (west Wing) Hungund"},"geometry":{"type":"Point","coordinates":[76.06361,16.0532036]}},{"type":"Feature","properties":{"state":"Karnataka","district":2,"district_n":"BAGALKOT","pc":3,"pc_name":"Bagalkot","ac":25,"ac_name":"Hungund","booth":86,"booth_name":"Govt Higher Primary School(west Wing) Hulaginal"},"geometry":{"type":"Point","coordinates":[75.95992,16.0757332]}},{"type":"Feature","properties":{"state":"Karnataka","district":2,"district_n":"BAGALKOT","pc":3,"pc_name":"Bagalkot","ac":25,"ac_name":"Hungund","booth":87,"booth_name":"Govt Higher Primary School(east wing) Rakkasagi"},"geometry":{"type":"Point","coordinates":[75.97364,16.0598068]}},{"type":"Feature","properties":{"state":"Karnataka","district":2,"district_n":"BAGALKOT","pc":3,"pc_name":"Bagalkot","ac":25,"ac_name":"Hungund","booth":89,"booth_name":"Gram Panchyat Office (anganawadi Kendra) No 3 Sulebhavi"},"geometry":{"type":"Point","coordinates":[75.94053,16.04107]}},{"type":"Feature","properties":{"state":"Karnataka","district":2,"district_n":"BAGALKOT","pc":3,"pc_name":"Bagalkot","ac":25,"ac_name":"Hungund","booth":90,"booth_name":"Urdu Boys School Sulebhavi"},"geometry":{"type":"Point","coordinates":[75.94171,16.0414658]}},{"type":"Feature","properties":{"state":"Karnataka","district":2,"district_n":"BAGALKOT","pc":3,"pc_name":"Bagalkot","ac":25,"ac_name":"Hungund","booth":92,"booth_name":"Govt Higher Primary School, Sulebhavi"},"geometry":{"type":"Point","coordinates":[75.56257,16.0233955]}},{"type":"Feature","properties":{"state":"Karnataka","district":2,"district_n":"BAGALKOT","pc":3,"pc_name":"Bagalkot","ac":25,"ac_name":"Hungund","booth":93,"booth_name":"Kannada Girls School New Building ( Center Wing ),sulibhavi"},"geometry":{"type":"Point","coordinates":[75.94003,16.043129]}},{"type":"Feature","properties":{"state":"Karnataka","district":2,"district_n":"BAGALKOT","pc":3,"pc_name":"Bagalkot","ac":25,"ac_name":"Hungund","booth":95,"booth_name":"Kannada Girls School New Building North Wing Sulebhavi"},"geometry":{"type":"Point","coordinates":[75.94015,16.0433083]}},{"type":"Feature","properties":{"state":"Karnataka","district":2,"district_n":"BAGALKOT","pc":3,"pc_name":"Bagalkot","ac":25,"ac_name":"Hungund","booth":98,"booth_name":"Govt Higher Primary School Amaravati"},"geometry":{"type":"Point","coordinates":[76.08285,16.0558434]}},{"type":"Feature","properties":{"state":"Karnataka","district":2,"district_n":"BAGALKOT","pc":3,"pc_name":"Bagalkot","ac":25,"ac_name":"Hungund","booth":101,"booth_name":"Govt Kannada Boys Higher Primary School Jmbaladinni"},"geometry":{"type":"Point","coordinates":[76.15364,16.029726]}},{"type":"Feature","properties":{"state":"Karnataka","district":2,"district_n":"BAGALKOT","pc":3,"pc_name":"Bagalkot","ac":25,"ac_name":"Hungund","booth":104,"booth_name":"Govt Lower Primary School Hire Adapur"},"geometry":{"type":"Point","coordinates":[76.21408,16.0190353]}},{"type":"Feature","properties":{"state":"Karnataka","district":2,"district_n":"BAGALKOT","pc":3,"pc_name":"Bagalkot","ac":25,"ac_name":"Hungund","booth":106,"booth_name":"Kannada Girls School,(south wing) Nandawadagi"},"geometry":{"type":"Point","coordinates":[76.28071,16.0176525]}},{"type":"Feature","properties":{"state":"Karnataka","district":2,"district_n":"BAGALKOT","pc":3,"pc_name":"Bagalkot","ac":25,"ac_name":"Hungund","booth":107,"booth_name":"Kannada Boys School(east wing) Nandawadagi"},"geometry":{"type":"Point","coordinates":[76.28209,16.0163212]}},{"type":"Feature","properties":{"state":"Karnataka","district":2,"district_n":"BAGALKOT","pc":3,"pc_name":"Bagalkot","ac":25,"ac_name":"Hungund","booth":109,"booth_name":"Govt Lower Primary School Gadisunkapur"},"geometry":{"type":"Point","coordinates":[76.1842,16.0188065]}},{"type":"Feature","properties":{"state":"Karnataka","district":2,"district_n":"BAGALKOT","pc":3,"pc_name":"Bagalkot","ac":25,"ac_name":"Hungund","booth":110,"booth_name":"Govt Kannada Higher Primary School,tumba"},"geometry":{"type":"Point","coordinates":[76.13844,16.0117054]}},{"type":"Feature","properties":{"state":"Karnataka","district":2,"district_n":"BAGALKOT","pc":3,"pc_name":"Bagalkot","ac":25,"ac_name":"Hungund","booth":112,"booth_name":"Govt Kannada Higher Primary School,kesarabhavi"},"geometry":{"type":"Point","coordinates":[76.1337662,16.0175934]}},{"type":"Feature","properties":{"state":"Karnataka","district":2,"district_n":"BAGALKOT","pc":3,"pc_name":"Bagalkot","ac":25,"ac_name":"Hungund","booth":113,"booth_name":"Kannada Boys School Bannihatti"},"geometry":{"type":"Point","coordinates":[76.02668,16.0406189]}},{"type":"Feature","properties":{"state":"Karnataka","district":2,"district_n":"BAGALKOT","pc":3,"pc_name":"Bagalkot","ac":25,"ac_name":"Hungund","booth":115,"booth_name":"Govt Govt Primary School Honnarahalli"},"geometry":{"type":"Point","coordinates":[75.9895,16.0368843]}},{"type":"Feature","properties":{"state":"Karnataka","district":2,"district_n":"BAGALKOT","pc":3,"pc_name":"Bagalkot","ac":25,"ac_name":"Hungund","booth":116,"booth_name":"Govt Higher Primary School,kunibenchi"},"geometry":{"type":"Point","coordinates":[75.92643,16.0323429]}},{"type":"Feature","properties":{"state":"Karnataka","district":2,"district_n":"BAGALKOT","pc":3,"pc_name":"Bagalkot","ac":25,"ac_name":"Hungund","booth":118,"booth_name":"Govt Higher Primary School,chilapur"},"geometry":{"type":"Point","coordinates":[75.8906555,16.00759]}},{"type":"Feature","properties":{"state":"Karnataka","district":2,"district_n":"BAGALKOT","pc":3,"pc_name":"Bagalkot","ac":25,"ac_name":"Hungund","booth":121,"booth_name":"Govt Higher Primary School Tallikeri"},"geometry":{"type":"Point","coordinates":[75.9434,15.99418]}},{"type":"Feature","properties":{"state":"Karnataka","district":2,"district_n":"BAGALKOT","pc":3,"pc_name":"Bagalkot","ac":25,"ac_name":"Hungund","booth":124,"booth_name":"Govt Samyukta Higher Primary School ( Girls section ) Nagur"},"geometry":{"type":"Point","coordinates":[76.01277,16.0075474]}},{"type":"Feature","properties":{"state":"Karnataka","district":2,"district_n":"BAGALKOT","pc":3,"pc_name":"Bagalkot","ac":25,"ac_name":"Hungund","booth":127,"booth_name":"Govt Higher Primary School Ingalagi"},"geometry":{"type":"Point","coordinates":[76.13537,15.9861851]}},{"type":"Feature","properties":{"state":"Karnataka","district":2,"district_n":"BAGALKOT","pc":3,"pc_name":"Bagalkot","ac":25,"ac_name":"Hungund","booth":129,"booth_name":"Govt Higher Primary School ( west Wing) Hiresinganagutfti"},"geometry":{"type":"Point","coordinates":[76.19751,15.98978]}},{"type":"Feature","properties":{"state":"Karnataka","district":2,"district_n":"BAGALKOT","pc":3,"pc_name":"Bagalkot","ac":25,"ac_name":"Hungund","booth":130,"booth_name":"Govt Higer Primary School Gonal sk"},"geometry":{"type":"Point","coordinates":[76.2789459,15.9756641]}},{"type":"Feature","properties":{"state":"Karnataka","district":2,"district_n":"BAGALKOT","pc":3,"pc_name":"Bagalkot","ac":25,"ac_name":"Hungund","booth":132,"booth_name":"Govt Lower Primary School Chikkashinganagutti"},"geometry":{"type":"Point","coordinates":[76.18823,15.996109]}},{"type":"Feature","properties":{"state":"Karnataka","district":2,"district_n":"BAGALKOT","pc":3,"pc_name":"Bagalkot","ac":25,"ac_name":"Hungund","booth":133,"booth_name":"Kannada Boys Higher Primary School (east wing) Gorabal"},"geometry":{"type":"Point","coordinates":[76.1229248,15.974576]}},{"type":"Feature","properties":{"state":"Karnataka","district":2,"district_n":"BAGALKOT","pc":3,"pc_name":"Bagalkot","ac":25,"ac_name":"Hungund","booth":135,"booth_name":"Govt Lower Primary School,tondihal"},"geometry":{"type":"Point","coordinates":[76.12098,15.98162]}},{"type":"Feature","properties":{"state":"Karnataka","district":2,"district_n":"BAGALKOT","pc":3,"pc_name":"Bagalkot","ac":25,"ac_name":"Hungund","booth":136,"booth_name":"Vivekananda Higher Primary School Nekar Colony Ilkal"},"geometry":{"type":"Point","coordinates":[76.1070251,15.9771767]}},{"type":"Feature","properties":{"state":"Karnataka","district":2,"district_n":"BAGALKOT","pc":3,"pc_name":"Bagalkot","ac":25,"ac_name":"Hungund","booth":138,"booth_name":"Govt Higher Primary Central School (front Side) Ilkal"},"geometry":{"type":"Point","coordinates":[76.1146545,15.963645]}},{"type":"Feature","properties":{"state":"Karnataka","district":2,"district_n":"BAGALKOT","pc":3,"pc_name":"Bagalkot","ac":25,"ac_name":"Hungund","booth":141,"booth_name":"Govt Higher Primary School No 9 ( East Side ) Ilkal"},"geometry":{"type":"Point","coordinates":[76.112,15.9651175]}},{"type":"Feature","properties":{"state":"Karnataka","district":2,"district_n":"BAGALKOT","pc":3,"pc_name":"Bagalkot","ac":25,"ac_name":"Hungund","booth":144,"booth_name":"T M C Right Side,ilkal"},"geometry":{"type":"Point","coordinates":[76.1123352,15.9629726]}},{"type":"Feature","properties":{"state":"Karnataka","district":2,"district_n":"BAGALKOT","pc":3,"pc_name":"Bagalkot","ac":25,"ac_name":"Hungund","booth":147,"booth_name":"Home Guards Office(west Wing) Ilkal"},"geometry":{"type":"Point","coordinates":[76.11266,15.9602451]}},{"type":"Feature","properties":{"state":"Karnataka","district":2,"district_n":"BAGALKOT","pc":3,"pc_name":"Bagalkot","ac":25,"ac_name":"Hungund","booth":149,"booth_name":"Shakambari Nekara Sahakari Sangha,ilkal"},"geometry":{"type":"Point","coordinates":[76.112915,15.9619551]}},{"type":"Feature","properties":{"state":"Karnataka","district":2,"district_n":"BAGALKOT","pc":3,"pc_name":"Bagalkot","ac":25,"ac_name":"Hungund","booth":150,"booth_name":"Anjuman Nekar Sahakar Sangha Ilkal"},"geometry":{"type":"Point","coordinates":[76.1125641,15.9591742]}},{"type":"Feature","properties":{"state":"Karnataka","district":2,"district_n":"BAGALKOT","pc":3,"pc_name":"Bagalkot","ac":25,"ac_name":"Hungund","booth":152,"booth_name":"Kannada Boys School No 10 North Wing,ilkal"},"geometry":{"type":"Point","coordinates":[76.11224,15.95741]}},{"type":"Feature","properties":{"state":"Karnataka","district":2,"district_n":"BAGALKOT","pc":3,"pc_name":"Bagalkot","ac":25,"ac_name":"Hungund","booth":153,"booth_name":"Kannada Boys School No 10 Middle Wing ,ilkal"},"geometry":{"type":"Point","coordinates":[76.11212,15.9572878]}},{"type":"Feature","properties":{"state":"Karnataka","district":2,"district_n":"BAGALKOT","pc":3,"pc_name":"Bagalkot","ac":25,"ac_name":"Hungund","booth":155,"booth_name":"Govt Higher Primary Girls School No 1 Sapparada Plot West Wing,ilkal"},"geometry":{"type":"Point","coordinates":[76.11046,15.9535522]}},{"type":"Feature","properties":{"state":"Karnataka","district":2,"district_n":"BAGALKOT","pc":3,"pc_name":"Bagalkot","ac":25,"ac_name":"Hungund","booth":156,"booth_name":"Govt Higher Primary Girls School No 1 Sapparada Plot East Wing,ilkal"},"geometry":{"type":"Point","coordinates":[76.11064,15.9534683]}},{"type":"Feature","properties":{"state":"Karnataka","district":2,"district_n":"BAGALKOT","pc":3,"pc_name":"Bagalkot","ac":25,"ac_name":"Hungund","booth":158,"booth_name":"Janata Nekar Sahakar Sangha,ilkal"},"geometry":{"type":"Point","coordinates":[76.1128845,15.9577551]}},{"type":"Feature","properties":{"state":"Karnataka","district":2,"district_n":"BAGALKOT","pc":3,"pc_name":"Bagalkot","ac":25,"ac_name":"Hungund","booth":161,"booth_name":"Dattatreya Reshme Hand loom Sahakari Sangha,ilkal"},"geometry":{"type":"Point","coordinates":[76.11433,15.9568129]}},{"type":"Feature","properties":{"state":"Karnataka","district":2,"district_n":"BAGALKOT","pc":3,"pc_name":"Bagalkot","ac":25,"ac_name":"Hungund","booth":164,"booth_name":"A C O Right Side,ilkal"},"geometry":{"type":"Point","coordinates":[76.11744,15.9588919]}},{"type":"Feature","properties":{"state":"Karnataka","district":2,"district_n":"BAGALKOT","pc":3,"pc_name":"Bagalkot","ac":25,"ac_name":"Hungund","booth":167,"booth_name":"Ilkal Nekar Sahakari Sangha,ilkal"},"geometry":{"type":"Point","coordinates":[76.11448,15.957922]}},{"type":"Feature","properties":{"state":"Karnataka","district":2,"district_n":"BAGALKOT","pc":3,"pc_name":"Bagalkot","ac":25,"ac_name":"Hungund","booth":169,"booth_name":"Govt Higher Primary Central School ( East Wing )ilkal"},"geometry":{"type":"Point","coordinates":[76.11481,15.963666]}},{"type":"Feature","properties":{"state":"Karnataka","district":2,"district_n":"BAGALKOT","pc":3,"pc_name":"Bagalkot","ac":25,"ac_name":"Hungund","booth":170,"booth_name":"Anjuman Islam S M P U college Allampur peth Rigth Side Ilkal"},"geometry":{"type":"Point","coordinates":[76.12323,15.96103]}},{"type":"Feature","properties":{"state":"Karnataka","district":2,"district_n":"BAGALKOT","pc":3,"pc_name":"Bagalkot","ac":25,"ac_name":"Hungund","booth":172,"booth_name":"Kannada Boys School Allampur peth Middle Wing Ilkal"},"geometry":{"type":"Point","coordinates":[76.12109,15.96025]}},{"type":"Feature","properties":{"state":"Karnataka","district":2,"district_n":"BAGALKOT","pc":3,"pc_name":"Bagalkot","ac":25,"ac_name":"Hungund","booth":173,"booth_name":"U B S No 2 Allampur peth Ilkal"},"geometry":{"type":"Point","coordinates":[76.1212158,15.9603748]}},{"type":"Feature","properties":{"state":"Karnataka","district":2,"district_n":"BAGALKOT","pc":3,"pc_name":"Bagalkot","ac":25,"ac_name":"Hungund","booth":175,"booth_name":"Govt Girl high School Allampur peth East side Ilkal"},"geometry":{"type":"Point","coordinates":[76.1216,15.961894]}},{"type":"Feature","properties":{"state":"Karnataka","district":2,"district_n":"BAGALKOT","pc":3,"pc_name":"Bagalkot","ac":25,"ac_name":"Hungund","booth":176,"booth_name":"Govt Girls High School Allampur peth ( west wing ) Ilkal"},"geometry":{"type":"Point","coordinates":[76.1212845,15.96182]}},{"type":"Feature","properties":{"state":"Karnataka","district":2,"district_n":"BAGALKOT","pc":3,"pc_name":"Bagalkot","ac":25,"ac_name":"Hungund","booth":178,"booth_name":"Samaj mandir (p k) Kelur"},"geometry":{"type":"Point","coordinates":[75.9112244,15.977704]}},{"type":"Feature","properties":{"state":"Karnataka","district":2,"district_n":"BAGALKOT","pc":3,"pc_name":"Bagalkot","ac":25,"ac_name":"Hungund","booth":181,"booth_name":"Govt Madariya Primary School (east Wing) Kelur"},"geometry":{"type":"Point","coordinates":[75.91196,15.9781332]}},{"type":"Feature","properties":{"state":"Karnataka","district":2,"district_n":"BAGALKOT","pc":3,"pc_name":"Bagalkot","ac":25,"ac_name":"Hungund","booth":184,"booth_name":"Govt Higher Primary School Old Building Chikanal"},"geometry":{"type":"Point","coordinates":[75.89008,15.9421339]}},{"type":"Feature","properties":{"state":"Karnataka","district":2,"district_n":"BAGALKOT","pc":3,"pc_name":"Bagalkot","ac":25,"ac_name":"Hungund","booth":187,"booth_name":"Govt Highar Primary School New Building ( East Wing),wadageri"},"geometry":{"type":"Point","coordinates":[75.94268,15.9420271]}},{"type":"Feature","properties":{"state":"Karnataka","district":2,"district_n":"BAGALKOT","pc":3,"pc_name":"Bagalkot","ac":25,"ac_name":"Hungund","booth":190,"booth_name":"Model Kannada Boys School Gudur sc"},"geometry":{"type":"Point","coordinates":[75.9177856,15.9400549]}},{"type":"Feature","properties":{"state":"Karnataka","district":2,"district_n":"BAGALKOT","pc":3,"pc_name":"Bagalkot","ac":25,"ac_name":"Hungund","booth":192,"booth_name":"Urdu Girls School (north Wing) Gudur sc"},"geometry":{"type":"Point","coordinates":[75.9120255,15.9404049]}},{"type":"Feature","properties":{"state":"Karnataka","district":2,"district_n":"BAGALKOT","pc":3,"pc_name":"Bagalkot","ac":25,"ac_name":"Hungund","booth":193,"booth_name":"Urdu Boys School ,gudur S C"},"geometry":{"type":"Point","coordinates":[75.91152,15.9402895]}},{"type":"Feature","properties":{"state":"Karnataka","district":2,"district_n":"BAGALKOT","pc":3,"pc_name":"Bagalkot","ac":25,"ac_name":"Hungund","booth":195,"booth_name":"Urdu Girls School , (south Wing) Gudur S C"},"geometry":{"type":"Point","coordinates":[75.9121857,15.9405]}},{"type":"Feature","properties":{"state":"Karnataka","district":2,"district_n":"BAGALKOT","pc":3,"pc_name":"Bagalkot","ac":25,"ac_name":"Hungund","booth":196,"booth_name":"Urdu Girls School , (middle Wing) Gudur S C"},"geometry":{"type":"Point","coordinates":[75.91207,15.9404783]}},{"type":"Feature","properties":{"state":"Karnataka","district":2,"district_n":"BAGALKOT","pc":3,"pc_name":"Bagalkot","ac":25,"ac_name":"Hungund","booth":198,"booth_name":"Kannada Girls School ,gudur sc"},"geometry":{"type":"Point","coordinates":[75.9181747,15.94032]}},{"type":"Feature","properties":{"state":"Karnataka","district":2,"district_n":"BAGALKOT","pc":3,"pc_name":"Bagalkot","ac":25,"ac_name":"Hungund","booth":199,"booth_name":"Grama Panchayat,office (new Building) Gudur sc"},"geometry":{"type":"Point","coordinates":[75.91817,15.939065]}},{"type":"Feature","properties":{"state":"Karnataka","district":2,"district_n":"BAGALKOT","pc":3,"pc_name":"Bagalkot","ac":25,"ac_name":"Hungund","booth":201,"booth_name":"Kannada Boys School(east Wing) Muradi"},"geometry":{"type":"Point","coordinates":[75.95018,15.8684587]}},{"type":"Feature","properties":{"state":"Karnataka","district":2,"district_n":"BAGALKOT","pc":3,"pc_name":"Bagalkot","ac":25,"ac_name":"Hungund","booth":204,"booth_name":"Govt Higher Primary , School Vajjal"},"geometry":{"type":"Point","coordinates":[76.18851,15.9668484]}},{"type":"Feature","properties":{"state":"Karnataka","district":2,"district_n":"BAGALKOT","pc":3,"pc_name":"Bagalkot","ac":25,"ac_name":"Hungund","booth":207,"booth_name":"Govt Higher Girls School,(east Wing) Kandagall"},"geometry":{"type":"Point","coordinates":[76.27381,15.95319]}},{"type":"Feature","properties":{"state":"Karnataka","district":2,"district_n":"BAGALKOT","pc":3,"pc_name":"Bagalkot","ac":25,"ac_name":"Hungund","booth":210,"booth_name":"Govt Higher Urdu Primary School,kandagall"},"geometry":{"type":"Point","coordinates":[76.2743454,15.9569921]}},{"type":"Feature","properties":{"state":"Karnataka","district":2,"district_n":"BAGALKOT","pc":3,"pc_name":"Bagalkot","ac":25,"ac_name":"Hungund","booth":212,"booth_name":"Govt Higher Primary School ,somalapur"},"geometry":{"type":"Point","coordinates":[76.31712,15.9365444]}},{"type":"Feature","properties":{"state":"Karnataka","district":2,"district_n":"BAGALKOT","pc":3,"pc_name":"Bagalkot","ac":25,"ac_name":"Hungund","booth":213,"booth_name":"Govt Lower Primary School Gonal st"},"geometry":{"type":"Point","coordinates":[76.199646,15.9396143]}},{"type":"Feature","properties":{"state":"Karnataka","district":2,"district_n":"BAGALKOT","pc":3,"pc_name":"Bagalkot","ac":25,"ac_name":"Hungund","booth":215,"booth_name":"Govt higer Primary School Guggalamari"},"geometry":{"type":"Point","coordinates":[76.15008,15.9250174]}},{"type":"Feature","properties":{"state":"Karnataka","district":2,"district_n":"BAGALKOT","pc":3,"pc_name":"Bagalkot","ac":25,"ac_name":"Hungund","booth":216,"booth_name":"Govt Higher Primary School(east Wing) Hirekodagali"},"geometry":{"type":"Point","coordinates":[76.13764,15.9269485]}},{"type":"Feature","properties":{"state":"Karnataka","district":2,"district_n":"BAGALKOT","pc":3,"pc_name":"Bagalkot","ac":25,"ac_name":"Hungund","booth":218,"booth_name":"Kannada Boys School Balakundi"},"geometry":{"type":"Point","coordinates":[76.08535,15.9260769]}},{"type":"Feature","properties":{"state":"Karnataka","district":2,"district_n":"BAGALKOT","pc":3,"pc_name":"Bagalkot","ac":25,"ac_name":"Hungund","booth":219,"booth_name":"Govt Haiger Praimary School (ishwar Nagar) Balakundi tanda"},"geometry":{"type":"Point","coordinates":[76.08541,15.9214563]}},{"type":"Feature","properties":{"state":"Karnataka","district":2,"district_n":"BAGALKOT","pc":3,"pc_name":"Bagalkot","ac":25,"ac_name":"Hungund","booth":221,"booth_name":"Kannada Boys School Sankalapur"},"geometry":{"type":"Point","coordinates":[76.1073761,15.9181576]}},{"type":"Feature","properties":{"state":"Karnataka","district":2,"district_n":"BAGALKOT","pc":3,"pc_name":"Bagalkot","ac":25,"ac_name":"Hungund","booth":224,"booth_name":"Govt Lower Primary School Chikkakodagali Klt(sevalala nagar)"},"geometry":{"type":"Point","coordinates":[76.11607,15.8898344]}},{"type":"Feature","properties":{"state":"Karnataka","district":2,"district_n":"BAGALKOT","pc":3,"pc_name":"Bagalkot","ac":25,"ac_name":"Hungund","booth":134,"booth_name":"Kannada Boys Higher Primary School (west Wing) Gorabal"},"geometry":{"type":"Point","coordinates":[76.12341,15.9744987]}},{"type":"Feature","properties":{"state":"Karnataka","district":2,"district_n":"BAGALKOT","pc":3,"pc_name":"Bagalkot","ac":25,"ac_name":"Hungund","booth":137,"booth_name":"Govt Higher Primary Central School (west side) Ilkal"},"geometry":{"type":"Point","coordinates":[76.11491,15.963644]}},{"type":"Feature","properties":{"state":"Karnataka","district":2,"district_n":"BAGALKOT","pc":3,"pc_name":"Bagalkot","ac":25,"ac_name":"Hungund","booth":189,"booth_name":"Govt Higher Primary School,dammur"},"geometry":{"type":"Point","coordinates":[75.96334,15.9302216]}},{"type":"Feature","properties":{"state":"Karnataka","district":2,"district_n":"BAGALKOT","pc":3,"pc_name":"Bagalkot","ac":25,"ac_name":"Hungund","booth":206,"booth_name":"Govt Higher Primary School,chikka Otgeri"},"geometry":{"type":"Point","coordinates":[76.20713,15.9489918]}},{"type":"Feature","properties":{"state":"Karnataka","district":2,"district_n":"BAGALKOT","pc":3,"pc_name":"Bagalkot","ac":25,"ac_name":"Hungund","booth":209,"booth_name":"Kannada Boys School No 1,kandagall"},"geometry":{"type":"Point","coordinates":[76.27338,15.9575491]}},{"type":"Feature","properties":{"state":"Karnataka","district":2,"district_n":"BAGALKOT","pc":3,"pc_name":"Bagalkot","ac":25,"ac_name":"Hungund","booth":177,"booth_name":"Govt Girls High School Allampur peth ( Centeral side) Ilkal"},"geometry":{"type":"Point","coordinates":[76.12138,15.961854]}},{"type":"Feature","properties":{"state":"Karnataka","district":2,"district_n":"BAGALKOT","pc":3,"pc_name":"Bagalkot","ac":25,"ac_name":"Hungund","booth":180,"booth_name":"Govt Madariya Primary School(south Wing) Kelur"},"geometry":{"type":"Point","coordinates":[75.91232,15.9783173]}},{"type":"Feature","properties":{"state":"Karnataka","district":2,"district_n":"BAGALKOT","pc":3,"pc_name":"Bagalkot","ac":25,"ac_name":"Hungund","booth":154,"booth_name":"Kannada Boys School No 10 South Wing,ilkal"},"geometry":{"type":"Point","coordinates":[76.1120758,15.957263]}},{"type":"Feature","properties":{"state":"Karnataka","district":2,"district_n":"BAGALKOT","pc":3,"pc_name":"Bagalkot","ac":25,"ac_name":"Hungund","booth":160,"booth_name":"Govt Urdu Model Primary School Near Bannikatti West Wing Ilkal"},"geometry":{"type":"Point","coordinates":[76.11292,15.9558172]}},{"type":"Feature","properties":{"state":"Karnataka","district":2,"district_n":"BAGALKOT","pc":3,"pc_name":"Bagalkot","ac":25,"ac_name":"Hungund","booth":97,"booth_name":"Kannada Boys School Hirebadavadagi"},"geometry":{"type":"Point","coordinates":[76.03531,16.0476742]}},{"type":"Feature","properties":{"state":"Karnataka","district":2,"district_n":"BAGALKOT","pc":3,"pc_name":"Bagalkot","ac":25,"ac_name":"Hungund","booth":54,"booth_name":"Govt Higher Primary School ( West Wing),chittaragi"},"geometry":{"type":"Point","coordinates":[75.97287,16.1178627]}},{"type":"Feature","properties":{"state":"Karnataka","district":2,"district_n":"BAGALKOT","pc":3,"pc_name":"Bagalkot","ac":25,"ac_name":"Hungund","booth":57,"booth_name":"Govt Higher Primary School Chintakamaladinni"},"geometry":{"type":"Point","coordinates":[76.15121,16.098093]}},{"type":"Feature","properties":{"state":"Karnataka","district":2,"district_n":"BAGALKOT","pc":3,"pc_name":"Bagalkot","ac":25,"ac_name":"Hungund","booth":123,"booth_name":"Govt Samyukta Higher Primary School ( Primary section ) Nagur"},"geometry":{"type":"Point","coordinates":[76.01406,16.0094032]}},{"type":"Feature","properties":{"state":"Karnataka","district":2,"district_n":"BAGALKOT","pc":3,"pc_name":"Bagalkot","ac":25,"ac_name":"Hungund","booth":40,"booth_name":"Govt Higher Primary School,(west Wing) karadi"},"geometry":{"type":"Point","coordinates":[76.20721,16.1009254]}},{"type":"Feature","properties":{"state":"Karnataka","district":2,"district_n":"BAGALKOT","pc":3,"pc_name":"Bagalkot","ac":25,"ac_name":"Hungund","booth":33,"booth_name":"Govt High Primary School,belagall"},"geometry":{"type":"Point","coordinates":[75.98533,16.6380062]}},{"type":"Feature","properties":{"state":"Karnataka","district":2,"district_n":"BAGALKOT","pc":3,"pc_name":"Bagalkot","ac":25,"ac_name":"Hungund","booth":126,"booth_name":"Govt Higher Primary School Herur"},"geometry":{"type":"Point","coordinates":[76.13134,15.994792]}},{"type":"Feature","properties":{"state":"Karnataka","district":2,"district_n":"BAGALKOT","pc":3,"pc_name":"Bagalkot","ac":25,"ac_name":"Hungund","booth":103,"booth_name":"Govt Higher Primary School Chikka Aadapur"},"geometry":{"type":"Point","coordinates":[76.212616,16.0383244]}},{"type":"Feature","properties":{"state":"Karnataka","district":2,"district_n":"BAGALKOT","pc":3,"pc_name":"Bagalkot","ac":25,"ac_name":"Hungund","booth":77,"booth_name":"V M High School (east Wing ) Hungund"},"geometry":{"type":"Point","coordinates":[76.0564,16.0597134]}},{"type":"Feature","properties":{"state":"Karnataka","district":2,"district_n":"BAGALKOT","pc":3,"pc_name":"Bagalkot","ac":25,"ac_name":"Hungund","booth":94,"booth_name":"Kannada Girls School New Building ( West Wing ) Sulibhavi"},"geometry":{"type":"Point","coordinates":[75.93981,16.0432053]}},{"type":"Feature","properties":{"state":"Karnataka","district":2,"district_n":"BAGALKOT","pc":3,"pc_name":"Bagalkot","ac":25,"ac_name":"Hungund","booth":74,"booth_name":"Teacher Co Co Op Society Hungund"},"geometry":{"type":"Point","coordinates":[76.05728,16.0624866]}},{"type":"Feature","properties":{"state":"Karnataka","district":2,"district_n":"BAGALKOT","pc":3,"pc_name":"Bagalkot","ac":25,"ac_name":"Hungund","booth":83,"booth_name":"Higher Primary School Vidya Nagar (central Wing) Hungund"},"geometry":{"type":"Point","coordinates":[76.06404,16.0534515]}},{"type":"Feature","properties":{"state":"Karnataka","district":2,"district_n":"BAGALKOT","pc":3,"pc_name":"Bagalkot","ac":25,"ac_name":"Hungund","booth":226,"booth_name":"Govt Lower Primary School,(west Wing) Maratageri"},"geometry":{"type":"Point","coordinates":[76.27504,15.9151154]}},{"type":"Feature","properties":{"state":"Karnataka","district":2,"district_n":"BAGALKOT","pc":3,"pc_name":"Bagalkot","ac":25,"ac_name":"Hungund","booth":51,"booth_name":"Govt Higher Primary School(north Wing) Gangur"},"geometry":{"type":"Point","coordinates":[75.96071,16.1115475]}},{"type":"Feature","properties":{"state":"Karnataka","district":2,"district_n":"BAGALKOT","pc":3,"pc_name":"Bagalkot","ac":25,"ac_name":"Hungund","booth":60,"booth_name":"Govt Higher Primary School,kambalihal"},"geometry":{"type":"Point","coordinates":[76.2932,16.0663586]}},{"type":"Feature","properties":{"state":"Karnataka","district":2,"district_n":"BAGALKOT","pc":3,"pc_name":"Bagalkot","ac":25,"ac_name":"Hungund","booth":63,"booth_name":"Kannada Boys School Budihal sk"},"geometry":{"type":"Point","coordinates":[76.17711,16.068655]}},{"type":"Feature","properties":{"state":"Karnataka","district":2,"district_n":"BAGALKOT","pc":3,"pc_name":"Bagalkot","ac":25,"ac_name":"Hungund","booth":71,"booth_name":"Pattan Panchyat Office,hungund"},"geometry":{"type":"Point","coordinates":[76.05524,16.05978]}},{"type":"Feature","properties":{"state":"Karnataka","district":2,"district_n":"BAGALKOT","pc":3,"pc_name":"Bagalkot","ac":25,"ac_name":"Hungund","booth":80,"booth_name":"A E E P W D Office Middle Wing,hungund"},"geometry":{"type":"Point","coordinates":[76.0603,16.0658741]}},{"type":"Feature","properties":{"state":"Karnataka","district":2,"district_n":"BAGALKOT","pc":3,"pc_name":"Bagalkot","ac":25,"ac_name":"Hungund","booth":100,"booth_name":"Govt Lower Primary School Chatnihal"},"geometry":{"type":"Point","coordinates":[76.15436,16.0453739]}},{"type":"Feature","properties":{"state":"Karnataka","district":2,"district_n":"BAGALKOT","pc":3,"pc_name":"Bagalkot","ac":25,"ac_name":"Hungund","booth":20,"booth_name":"Govt Higher Primary School, Amaravadagi"},"geometry":{"type":"Point","coordinates":[76.22505,16.14727]}},{"type":"Feature","properties":{"state":"Karnataka","district":2,"district_n":"BAGALKOT","pc":3,"pc_name":"Bagalkot","ac":25,"ac_name":"Hungund","booth":34,"booth_name":"Govt Lower Primary School Bisanalakoppa"},"geometry":{"type":"Point","coordinates":[76.03505,16.1708584]}},{"type":"Feature","properties":{"state":"Karnataka","district":2,"district_n":"BAGALKOT","pc":3,"pc_name":"Bagalkot","ac":25,"ac_name":"Hungund","booth":114,"booth_name":"Kannada Boys School Veerapur"},"geometry":{"type":"Point","coordinates":[76.03258,16.03609]}},{"type":"Feature","properties":{"state":"Karnataka","district":2,"district_n":"BAGALKOT","pc":3,"pc_name":"Bagalkot","ac":25,"ac_name":"Hungund","booth":120,"booth_name":"Govt Lower Primary School Siddanakolla"},"geometry":{"type":"Point","coordinates":[75.85977,15.9785728]}},{"type":"Feature","properties":{"state":"Karnataka","district":2,"district_n":"BAGALKOT","pc":3,"pc_name":"Bagalkot","ac":25,"ac_name":"Hungund","booth":140,"booth_name":"Govt Higher Primary School No 9 Left Side,ilkal"},"geometry":{"type":"Point","coordinates":[76.11186,15.9648561]}},{"type":"Feature","properties":{"state":"Karnataka","district":2,"district_n":"BAGALKOT","pc":3,"pc_name":"Bagalkot","ac":25,"ac_name":"Hungund","booth":143,"booth_name":"T M C Left Side Ilkal"},"geometry":{"type":"Point","coordinates":[76.11245,15.9629679]}},{"type":"Feature","properties":{"state":"Karnataka","district":2,"district_n":"BAGALKOT","pc":3,"pc_name":"Bagalkot","ac":25,"ac_name":"Hungund","booth":146,"booth_name":"T M C Meeting Holl Ilkal"},"geometry":{"type":"Point","coordinates":[76.11243,15.9626827]}},{"type":"Feature","properties":{"state":"Karnataka","district":2,"district_n":"BAGALKOT","pc":3,"pc_name":"Bagalkot","ac":25,"ac_name":"Hungund","booth":157,"booth_name":"Markandayya Nekar Sahakar Sangha,ilkal"},"geometry":{"type":"Point","coordinates":[76.1120453,15.9542322]}},{"type":"Feature","properties":{"state":"Karnataka","district":2,"district_n":"BAGALKOT","pc":3,"pc_name":"Bagalkot","ac":25,"ac_name":"Hungund","booth":163,"booth_name":"Govt Lower Primary School West Wing (khdc) Ilkal"},"geometry":{"type":"Point","coordinates":[76.1124,15.9543467]}},{"type":"Feature","properties":{"state":"Karnataka","district":2,"district_n":"BAGALKOT","pc":3,"pc_name":"Bagalkot","ac":25,"ac_name":"Hungund","booth":166,"booth_name":"Govt Animal Husbandry Despensary,ilkal"},"geometry":{"type":"Point","coordinates":[76.1136,15.9577856]}},{"type":"Feature","properties":{"state":"Karnataka","district":2,"district_n":"BAGALKOT","pc":3,"pc_name":"Bagalkot","ac":25,"ac_name":"Hungund","booth":174,"booth_name":"Govt Boys Primary School Alampurpeth Ilkal"},"geometry":{"type":"Point","coordinates":[76.1208649,15.9602013]}},{"type":"Feature","properties":{"state":"Karnataka","district":2,"district_n":"BAGALKOT","pc":3,"pc_name":"Bagalkot","ac":25,"ac_name":"Hungund","booth":183,"booth_name":"Govt Lower Primary School Upanal sc"},"geometry":{"type":"Point","coordinates":[75.85994,15.96085]}},{"type":"Feature","properties":{"state":"Karnataka","district":2,"district_n":"BAGALKOT","pc":3,"pc_name":"Bagalkot","ac":25,"ac_name":"Hungund","booth":186,"booth_name":"Govt Higher Primary School Ilal"},"geometry":{"type":"Point","coordinates":[75.96321,15.959897]}},{"type":"Feature","properties":{"state":"Karnataka","district":2,"district_n":"BAGALKOT","pc":3,"pc_name":"Bagalkot","ac":25,"ac_name":"Hungund","booth":197,"booth_name":"Kannada Boys School ,gudur sc"},"geometry":{"type":"Point","coordinates":[75.91756,15.9393311]}},{"type":"Feature","properties":{"state":"Karnataka","district":2,"district_n":"BAGALKOT","pc":3,"pc_name":"Bagalkot","ac":25,"ac_name":"Hungund","booth":200,"booth_name":"Kannada Boys School(west Wing) Muradi"},"geometry":{"type":"Point","coordinates":[75.9501,15.8684893]}},{"type":"Feature","properties":{"state":"Karnataka","district":2,"district_n":"BAGALKOT","pc":3,"pc_name":"Bagalkot","ac":25,"ac_name":"Hungund","booth":203,"booth_name":"Kannada Boys School Hireupanal"},"geometry":{"type":"Point","coordinates":[76.1099854,15.94418]}},{"type":"Feature","properties":{"state":"Karnataka","district":2,"district_n":"BAGALKOT","pc":3,"pc_name":"Bagalkot","ac":25,"ac_name":"Hungund","booth":217,"booth_name":"Govt Higher Primary School(west Wing) Hirekodagali"},"geometry":{"type":"Point","coordinates":[76.139,15.9284229]}},{"type":"Feature","properties":{"state":"Karnataka","district":2,"district_n":"BAGALKOT","pc":3,"pc_name":"Bagalkot","ac":25,"ac_name":"Hungund","booth":220,"booth_name":"Govt higer Boys Primary School Ishwar Nagar (balakundi tanda) Right Wing"},"geometry":{"type":"Point","coordinates":[76.07499,15.9060307]}},{"type":"Feature","properties":{"state":"Karnataka","district":2,"district_n":"BAGALKOT","pc":3,"pc_name":"Bagalkot","ac":25,"ac_name":"Hungund","booth":223,"booth_name":"Govt Lower Primary School,chikkakodagali Mlt (sevalal nagar)"},"geometry":{"type":"Point","coordinates":[76.11201,15.8932276]}},{"type":"Feature","properties":{"state":"Karnataka","district":2,"district_n":"BAGALKOT","pc":3,"pc_name":"Bagalkot","ac":25,"ac_name":"Hungund","booth":31,"booth_name":"Govt Samukta High Primary School Ganjihal (middle Side) /"},"geometry":{"type":"Point","coordinates":[75.9857,16.1633]}},{"type":"Feature","properties":{"state":"Karnataka","district":2,"district_n":"BAGALKOT","pc":3,"pc_name":"Bagalkot","ac":25,"ac_name":"Hungund","booth":37,"booth_name":"Kannada Boys School,kodihal(east Wing)"},"geometry":{"type":"Point","coordinates":[76.30617,16.0923958]}},{"type":"Feature","properties":{"state":"Karnataka","district":2,"district_n":"BAGALKOT","pc":3,"pc_name":"Bagalkot","ac":25,"ac_name":"Hungund","booth":43,"booth_name":"Govt Higher Primary School Jalakamaladinni"},"geometry":{"type":"Point","coordinates":[76.16539,16.1045361]}},{"type":"Feature","properties":{"state":"Karnataka","district":2,"district_n":"BAGALKOT","pc":3,"pc_name":"Bagalkot","ac":25,"ac_name":"Hungund","booth":28,"booth_name":"Govt Higher Primary School Huvanur"},"geometry":{"type":"Point","coordinates":[76.01068,16.1725559]}},{"type":"Feature","properties":{"state":"Karnataka","district":2,"district_n":"BAGALKOT","pc":3,"pc_name":"Bagalkot","ac":25,"ac_name":"Hungund","booth":91,"booth_name":"Govt Higher Primary Old Building (north Wing) Sulebhavi"},"geometry":{"type":"Point","coordinates":[75.84059,16.0427628]}},{"type":"Feature","properties":{"state":"Karnataka","district":2,"district_n":"BAGALKOT","pc":3,"pc_name":"Bagalkot","ac":25,"ac_name":"Hungund","booth":6,"booth_name":"Govt Higher Primary School Sangam (west Side) Sangam"},"geometry":{"type":"Point","coordinates":[76.0586548,16.20119]}},{"type":"Feature","properties":{"state":"Karnataka","district":2,"district_n":"BAGALKOT","pc":3,"pc_name":"Bagalkot","ac":25,"ac_name":"Hungund","booth":7,"booth_name":"Sangameshwar Higher Secondary School Sangam"},"geometry":{"type":"Point","coordinates":[76.0583344,16.2048435]}},{"type":"Feature","properties":{"state":"Karnataka","district":2,"district_n":"BAGALKOT","pc":3,"pc_name":"Bagalkot","ac":25,"ac_name":"Hungund","booth":9,"booth_name":"Kannada Boys Higher Primary School"},"geometry":{"type":"Point","coordinates":[76.07077,16.1963081]}},{"type":"Feature","properties":{"state":"Karnataka","district":2,"district_n":"BAGALKOT","pc":3,"pc_name":"Bagalkot","ac":25,"ac_name":"Hungund","booth":10,"booth_name":"Kannada Primary School,kamadatta"},"geometry":{"type":"Point","coordinates":[76.07261,16.1864834]}},{"type":"Feature","properties":{"state":"Karnataka","district":2,"district_n":"BAGALKOT","pc":3,"pc_name":"Bagalkot","ac":25,"ac_name":"Hungund","booth":12,"booth_name":"Urdu Lower Primary School,dhannur"},"geometry":{"type":"Point","coordinates":[76.09288,16.1881657]}},{"type":"Feature","properties":{"state":"Karnataka","district":2,"district_n":"BAGALKOT","pc":3,"pc_name":"Bagalkot","ac":25,"ac_name":"Hungund","booth":15,"booth_name":"Govt lower Primary School ,koppa S M"},"geometry":{"type":"Point","coordinates":[76.1291,16.16679]}},{"type":"Feature","properties":{"state":"Karnataka","district":2,"district_n":"BAGALKOT","pc":3,"pc_name":"Bagalkot","ac":25,"ac_name":"Hungund","booth":11,"booth_name":"Kannada Boys Higher Primary School,dhannur"},"geometry":{"type":"Point","coordinates":[76.0925751,16.1877613]}},{"type":"Feature","properties":{"state":"Karnataka","district":2,"district_n":"BAGALKOT","pc":3,"pc_name":"Bagalkot","ac":25,"ac_name":"Hungund","booth":14,"booth_name":"Govt Higher Primary School ,marol"},"geometry":{"type":"Point","coordinates":[76.1291351,16.1660652]}},{"type":"Feature","properties":{"state":"Karnataka","district":2,"district_n":"BAGALKOT","pc":3,"pc_name":"Bagalkot","ac":25,"ac_name":"Hungund","booth":17,"booth_name":"Govt Higher Primary School,havaragi"},"geometry":{"type":"Point","coordinates":[76.1637344,16.1689129]}},{"type":"Feature","properties":{"state":"Karnataka","district":2,"district_n":"BAGALKOT","pc":3,"pc_name":"Bagalkot","ac":25,"ac_name":"Hungund","booth":8,"booth_name":"Govt Kgs School (archakar colony) Sangam"},"geometry":{"type":"Point","coordinates":[76.0486,16.1988583]}},{"type":"Feature","properties":{"state":"Karnataka","district":2,"district_n":"BAGALKOT","pc":3,"pc_name":"Bagalkot","ac":25,"ac_name":"Hungund","booth":117,"booth_name":"Govt Lower Primary School Kyadigeri"},"geometry":{"type":"Point","coordinates":[75.89361,16.0097866]}},{"type":"Feature","properties":{"state":"Karnataka","district":2,"district_n":"BAGALKOT","pc":3,"pc_name":"Bagalkot","ac":25,"ac_name":"Hungund","booth":22,"booth_name":"Kannada Boys Higher Primary School ,kamaladinni"},"geometry":{"type":"Point","coordinates":[76.1829,16.1329517]}},{"type":"Feature","properties":{"state":"Karnataka","district":2,"district_n":"BAGALKOT","pc":3,"pc_name":"Bagalkot","ac":25,"ac_name":"Hungund","booth":25,"booth_name":"Sharana Basaveshwar High School Iddalagi"},"geometry":{"type":"Point","coordinates":[76.0539246,16.17281]}},{"type":"Feature","properties":{"state":"Karnataka","district":2,"district_n":"BAGALKOT","pc":3,"pc_name":"Bagalkot","ac":25,"ac_name":"Hungund","booth":36,"booth_name":"Govt Higher Primary School Chinnapur sk"},"geometry":{"type":"Point","coordinates":[76.21362,16.1266842]}},{"type":"Feature","properties":{"state":"Karnataka","district":2,"district_n":"BAGALKOT","pc":3,"pc_name":"Bagalkot","ac":25,"ac_name":"Hungund","booth":205,"booth_name":"Govt Higher Primary School Hireotageri"},"geometry":{"type":"Point","coordinates":[76.1978149,15.9521093]}},{"type":"Feature","properties":{"state":"Karnataka","district":2,"district_n":"BAGALKOT","pc":3,"pc_name":"Bagalkot","ac":25,"ac_name":"Hungund","booth":39,"booth_name":"Govt Kannada Girls Lower Primary School,kodihal"},"geometry":{"type":"Point","coordinates":[76.30317,16.0950089]}},{"type":"Feature","properties":{"state":"Karnataka","district":2,"district_n":"BAGALKOT","pc":3,"pc_name":"Bagalkot","ac":25,"ac_name":"Hungund","booth":42,"booth_name":"Gram Panchayat Office,karadi"},"geometry":{"type":"Point","coordinates":[76.20675,16.1002674]}},{"type":"Feature","properties":{"state":"Karnataka","district":2,"district_n":"BAGALKOT","pc":3,"pc_name":"Bagalkot","ac":25,"ac_name":"Hungund","booth":105,"booth_name":"Kannada Girls School(north wing) Nandawadagi"},"geometry":{"type":"Point","coordinates":[76.28076,16.0177231]}},{"type":"Feature","properties":{"state":"Karnataka","district":2,"district_n":"BAGALKOT","pc":3,"pc_name":"Bagalkot","ac":25,"ac_name":"Hungund","booth":225,"booth_name":"Govt Lower Primary School(east Wing) Maratageri"},"geometry":{"type":"Point","coordinates":[76.2754745,15.91486]}},{"type":"Feature","properties":{"state":"Karnataka","district":2,"district_n":"BAGALKOT","pc":3,"pc_name":"Bagalkot","ac":25,"ac_name":"Hungund","booth":122,"booth_name":"Govt Higher Primary School Gorajanal"},"geometry":{"type":"Point","coordinates":[75.9571,16.0016518]}},{"type":"Feature","properties":{"state":"Karnataka","district":2,"district_n":"BAGALKOT","pc":3,"pc_name":"Bagalkot","ac":25,"ac_name":"Hungund","booth":125,"booth_name":"Govt Higher Primary School Chittawadagi"},"geometry":{"type":"Point","coordinates":[76.03229,16.0220051]}},{"type":"Feature","properties":{"state":"Karnataka","district":2,"district_n":"BAGALKOT","pc":3,"pc_name":"Bagalkot","ac":25,"ac_name":"Hungund","booth":131,"booth_name":"Govt Higher Primary School Krishnapur"},"geometry":{"type":"Point","coordinates":[76.2194748,15.9877176]}},{"type":"Feature","properties":{"state":"Karnataka","district":2,"district_n":"BAGALKOT","pc":3,"pc_name":"Bagalkot","ac":25,"ac_name":"Hungund","booth":139,"booth_name":"Govt Higher Primary Central School (back Side) Ilkal"},"geometry":{"type":"Point","coordinates":[76.1165543,15.9637575]}},{"type":"Feature","properties":{"state":"Karnataka","district":2,"district_n":"BAGALKOT","pc":3,"pc_name":"Bagalkot","ac":25,"ac_name":"Hungund","booth":142,"booth_name":"Govt Higher Primary School No 9 ( West Side ) Ilkal"},"geometry":{"type":"Point","coordinates":[76.1114,15.9651318]}},{"type":"Feature","properties":{"state":"Karnataka","district":2,"district_n":"BAGALKOT","pc":3,"pc_name":"Bagalkot","ac":25,"ac_name":"Hungund","booth":145,"booth_name":"City Munaciple Office Branch New Building,ilkal"},"geometry":{"type":"Point","coordinates":[76.11241,15.962676]}},{"type":"Feature","properties":{"state":"Karnataka","district":2,"district_n":"BAGALKOT","pc":3,"pc_name":"Bagalkot","ac":25,"ac_name":"Hungund","booth":148,"booth_name":"Home Guards Office,(east wing) Ilkal"},"geometry":{"type":"Point","coordinates":[76.11285,15.9603405]}},{"type":"Feature","properties":{"state":"Karnataka","district":2,"district_n":"BAGALKOT","pc":3,"pc_name":"Bagalkot","ac":25,"ac_name":"Hungund","booth":151,"booth_name":"Prerana Primary School,ilkal"},"geometry":{"type":"Point","coordinates":[76.1129,15.9586868]}},{"type":"Feature","properties":{"state":"Karnataka","district":2,"district_n":"BAGALKOT","pc":3,"pc_name":"Bagalkot","ac":25,"ac_name":"Hungund","booth":165,"booth_name":"A C O Left Side ,ilkal"},"geometry":{"type":"Point","coordinates":[76.1172,15.9588194]}},{"type":"Feature","properties":{"state":"Karnataka","district":2,"district_n":"BAGALKOT","pc":3,"pc_name":"Bagalkot","ac":25,"ac_name":"Hungund","booth":171,"booth_name":"Anjuman Islam sms p u college Allampur peth Left side Ilkal"},"geometry":{"type":"Point","coordinates":[76.1229553,15.9609938]}},{"type":"Feature","properties":{"state":"Karnataka","district":2,"district_n":"BAGALKOT","pc":3,"pc_name":"Bagalkot","ac":25,"ac_name":"Hungund","booth":182,"booth_name":"Govt Higher Primery School Bhimanagad"},"geometry":{"type":"Point","coordinates":[75.87098,15.9381666]}},{"type":"Feature","properties":{"state":"Karnataka","district":2,"district_n":"BAGALKOT","pc":3,"pc_name":"Bagalkot","ac":25,"ac_name":"Hungund","booth":185,"booth_name":"Govt Higher Primary School New Building Chikanal"},"geometry":{"type":"Point","coordinates":[75.88897,15.940938]}},{"type":"Feature","properties":{"state":"Karnataka","district":2,"district_n":"BAGALKOT","pc":3,"pc_name":"Bagalkot","ac":25,"ac_name":"Hungund","booth":194,"booth_name":"Govt Urdu High School(east Wing) gudur S C"},"geometry":{"type":"Point","coordinates":[75.91173,15.9412174]}},{"type":"Feature","properties":{"state":"Karnataka","district":2,"district_n":"BAGALKOT","pc":3,"pc_name":"Bagalkot","ac":25,"ac_name":"Hungund","booth":202,"booth_name":"Kannada Boys School Ganadal"},"geometry":{"type":"Point","coordinates":[75.96526,15.8721561]}},{"type":"Feature","properties":{"state":"Karnataka","district":2,"district_n":"BAGALKOT","pc":3,"pc_name":"Bagalkot","ac":25,"ac_name":"Hungund","booth":214,"booth_name":"Govt Higher Primary School,hanamanal St"},"geometry":{"type":"Point","coordinates":[76.13516,15.9342718]}},{"type":"Feature","properties":{"state":"Karnataka","district":2,"district_n":"BAGALKOT","pc":3,"pc_name":"Bagalkot","ac":25,"ac_name":"Hungund","booth":222,"booth_name":"Govt Higher Primary School ,chikkakodagali"},"geometry":{"type":"Point","coordinates":[76.12595,15.9165134]}},{"type":"Feature","properties":{"state":"Karnataka","district":2,"district_n":"BAGALKOT","pc":3,"pc_name":"Bagalkot","ac":25,"ac_name":"Hungund","booth":48,"booth_name":"Govt Higher Primary School Hiremalagavi"},"geometry":{"type":"Point","coordinates":[75.9753952,16.1401386]}},{"type":"Feature","properties":{"state":"Karnataka","district":2,"district_n":"BAGALKOT","pc":3,"pc_name":"Bagalkot","ac":25,"ac_name":"Hungund","booth":19,"booth_name":"Kannada Boys Higher Primary School , Anapakatti"},"geometry":{"type":"Point","coordinates":[76.19572,16.1698513]}},{"type":"Feature","properties":{"state":"Karnataka","district":2,"district_n":"BAGALKOT","pc":3,"pc_name":"Bagalkot","ac":25,"ac_name":"Hungund","booth":128,"booth_name":"Govt Higher Primary School (east Wing ) Hiresinganagutti"},"geometry":{"type":"Point","coordinates":[76.1974945,15.9899931]}},{"type":"Feature","properties":{"state":"Karnataka","district":2,"district_n":"BAGALKOT","pc":3,"pc_name":"Bagalkot","ac":25,"ac_name":"Hungund","booth":108,"booth_name":"Kannada Boys School,(west Wing) Nandawadagi"},"geometry":{"type":"Point","coordinates":[76.2820358,16.0162525]}},{"type":"Feature","properties":{"state":"Karnataka","district":2,"district_n":"BAGALKOT","pc":3,"pc_name":"Bagalkot","ac":25,"ac_name":"Hungund","booth":111,"booth_name":"Govt Kannada Higher Primary School, Chinnapur st"},"geometry":{"type":"Point","coordinates":[76.12956,16.0095882]}},{"type":"Feature","properties":{"state":"Karnataka","district":2,"district_n":"BAGALKOT","pc":3,"pc_name":"Bagalkot","ac":25,"ac_name":"Hungund","booth":119,"booth_name":"Govt Lower Primary School Benakanawari"},"geometry":{"type":"Point","coordinates":[75.87874,15.994463]}},{"type":"Feature","properties":{"state":"Karnataka","district":2,"district_n":"BAGALKOT","pc":3,"pc_name":"Bagalkot","ac":25,"ac_name":"Hungund","booth":62,"booth_name":"Govt Higher Primary School,benakanadoni"},"geometry":{"type":"Point","coordinates":[76.20467,16.0677834]}},{"type":"Feature","properties":{"state":"Karnataka","district":2,"district_n":"BAGALKOT","pc":3,"pc_name":"Bagalkot","ac":25,"ac_name":"Hungund","booth":79,"booth_name":"Govt Urdu Boys Higher Primary School (central Wing) Hungund"},"geometry":{"type":"Point","coordinates":[76.06135,16.0656471]}},{"type":"Feature","properties":{"state":"Karnataka","district":2,"district_n":"BAGALKOT","pc":3,"pc_name":"Bagalkot","ac":25,"ac_name":"Hungund","booth":85,"booth_name":"Govt Higher Primary School(east Wing) Hulaginal"},"geometry":{"type":"Point","coordinates":[75.95999,16.0758133]}},{"type":"Feature","properties":{"state":"Karnataka","district":2,"district_n":"BAGALKOT","pc":3,"pc_name":"Bagalkot","ac":25,"ac_name":"Hungund","booth":88,"booth_name":"Govt Higher Primary School Rakkasagi (north wing)"},"geometry":{"type":"Point","coordinates":[75.58248,16.0335541]}},{"type":"Feature","properties":{"state":"Karnataka","district":2,"district_n":"BAGALKOT","pc":3,"pc_name":"Bagalkot","ac":25,"ac_name":"Hungund","booth":99,"booth_name":"Gram Panchyat Office Amaravati"},"geometry":{"type":"Point","coordinates":[76.0816956,16.05763]}},{"type":"Feature","properties":{"state":"Karnataka","district":2,"district_n":"BAGALKOT","pc":3,"pc_name":"Bagalkot","ac":25,"ac_name":"Hungund","booth":168,"booth_name":"Govt Higher Primary School No 7 Ilkal"},"geometry":{"type":"Point","coordinates":[76.11731,15.9549608]}},{"type":"Feature","properties":{"state":"Karnataka","district":2,"district_n":"BAGALKOT","pc":3,"pc_name":"Bagalkot","ac":25,"ac_name":"Hungund","booth":188,"booth_name":"Govt Highar Primary School,new Building(west Wing) Wadageri"},"geometry":{"type":"Point","coordinates":[75.94239,15.9421673]}},{"type":"Feature","properties":{"state":"Karnataka","district":2,"district_n":"BAGALKOT","pc":3,"pc_name":"Bagalkot","ac":25,"ac_name":"Hungund","booth":191,"booth_name":"Kannada Boys School ( Middle Wing ) Gudur sc"},"geometry":{"type":"Point","coordinates":[75.91798,15.9400816]}},{"type":"Feature","properties":{"state":"Karnataka","district":2,"district_n":"BAGALKOT","pc":3,"pc_name":"Bagalkot","ac":25,"ac_name":"Hungund","booth":208,"booth_name":"Govt Higher Girls School,(west Wing) Kandagall"},"geometry":{"type":"Point","coordinates":[76.27341,15.9530458]}},{"type":"Feature","properties":{"state":"Karnataka","district":2,"district_n":"BAGALKOT","pc":3,"pc_name":"Bagalkot","ac":25,"ac_name":"Hungund","booth":211,"booth_name":"Primary credite co op Society Ltd Kandagall"},"geometry":{"type":"Point","coordinates":[76.27314,15.9590092]}},{"type":"Feature","properties":{"state":"Karnataka","district":2,"district_n":"BAGALKOT","pc":3,"pc_name":"Bagalkot","ac":25,"ac_name":"Hungund","booth":179,"booth_name":"Govt Madariya Primary School New Building Kelur"},"geometry":{"type":"Point","coordinates":[75.91,15.978529]}},{"type":"Feature","properties":{"state":"Karnataka","district":2,"district_n":"BAGALKOT","pc":3,"pc_name":"Bagalkot","ac":25,"ac_name":"Hungund","booth":159,"booth_name":"Govt Urdu Model Primary School Near Bannikatti East Wing,ilkal"},"geometry":{"type":"Point","coordinates":[76.11317,15.9558439]}},{"type":"Feature","properties":{"state":"Karnataka","district":2,"district_n":"BAGALKOT","pc":3,"pc_name":"Bagalkot","ac":25,"ac_name":"Hungund","booth":162,"booth_name":"Govt Lower Primary School East Wing (khdc), Ilkal"},"geometry":{"type":"Point","coordinates":[76.11247,15.95438]}},{"type":"Feature","properties":{"state":"Karnataka","district":2,"district_n":"BAGALKOT","pc":3,"pc_name":"Bagalkot","ac":25,"ac_name":"Hungund","booth":96,"booth_name":"Govt Lower Primary School Hireyaranakeri"},"geometry":{"type":"Point","coordinates":[75.99318,16.0446453]}},{"type":"Feature","properties":{"state":"Karnataka","district":2,"district_n":"BAGALKOT","pc":3,"pc_name":"Bagalkot","ac":25,"ac_name":"Hungund","booth":59,"booth_name":"Govt Higher Primary School,palathi"},"geometry":{"type":"Point","coordinates":[76.1871643,16.0976753]}},{"type":"Feature","properties":{"state":"Karnataka","district":2,"district_n":"BAGALKOT","pc":3,"pc_name":"Bagalkot","ac":25,"ac_name":"Hungund","booth":5,"booth_name":"Govt Higher Primary School Sangam (east Side)"},"geometry":{"type":"Point","coordinates":[76.05886,16.2011738]}},{"type":"Feature","properties":{"state":"Karnataka","district":2,"district_n":"BAGALKOT","pc":3,"pc_name":"Bagalkot","ac":25,"ac_name":"Hungund","booth":13,"booth_name":"Gram Panchayat Office P K Marol"},"geometry":{"type":"Point","coordinates":[76.12944,16.1675644]}},{"type":"Feature","properties":{"state":"Karnataka","district":2,"district_n":"BAGALKOT","pc":3,"pc_name":"Bagalkot","ac":25,"ac_name":"Hungund","booth":16,"booth_name":"Kannada Boys Higher Primary School,hullalli"},"geometry":{"type":"Point","coordinates":[76.10777,16.1780834]}},{"type":"Feature","properties":{"state":"Karnataka","district":2,"district_n":"BAGALKOT","pc":3,"pc_name":"Bagalkot","ac":25,"ac_name":"Hungund","booth":65,"booth_name":"Kannada Boys School,nidasanur"},"geometry":{"type":"Point","coordinates":[76.16707,16.05903]}},{"type":"Feature","properties":{"state":"Karnataka","district":2,"district_n":"BAGALKOT","pc":3,"pc_name":"Bagalkot","ac":25,"ac_name":"Hungund","booth":68,"booth_name":"Kannada Boys School Ghattiganur"},"geometry":{"type":"Point","coordinates":[76.12471,16.074379]}},{"type":"Feature","properties":{"state":"Karnataka","district":2,"district_n":"BAGALKOT","pc":3,"pc_name":"Bagalkot","ac":25,"ac_name":"Hungund","booth":45,"booth_name":"Govt Higher Primary School ,lavalsar"},"geometry":{"type":"Point","coordinates":[76.17339,16.1150188]}},{"type":"Feature","properties":{"state":"Karnataka","district":2,"district_n":"BAGALKOT","pc":3,"pc_name":"Bagalkot","ac":25,"ac_name":"Hungund","booth":56,"booth_name":"Govt Higher Primary School ,kadiwal Inam"},"geometry":{"type":"Point","coordinates":[76.1402359,16.09705]}},{"type":"Feature","properties":{"state":"Karnataka","district":2,"district_n":"BAGALKOT","pc":3,"pc_name":"Bagalkot","ac":25,"ac_name":"Hungund","booth":76,"booth_name":"V M High School (west Wing) Hungund"},"geometry":{"type":"Point","coordinates":[76.05724,16.0589256]}},{"type":"Feature","properties":{"state":"Karnataka","district":2,"district_n":"BAGALKOT","pc":3,"pc_name":"Bagalkot","ac":25,"ac_name":"Hungund","booth":82,"booth_name":"Higher Primary School Vidya Nagar (east Wing) Hungund"},"geometry":{"type":"Point","coordinates":[76.0641,16.05379]}},{"type":"Feature","properties":{"state":"Karnataka","district":2,"district_n":"BAGALKOT","pc":3,"pc_name":"Bagalkot","ac":25,"ac_name":"Hungund","booth":2,"booth_name":"Govt Higher Primary School R C shed,turadagi"},"geometry":{"type":"Point","coordinates":[76.04285,16.2450275]}},{"type":"Feature","properties":{"state":"Karnataka","district":2,"district_n":"BAGALKOT","pc":3,"pc_name":"Bagalkot","ac":25,"ac_name":"Hungund","booth":102,"booth_name":"Kannada Boys School Tariwal"},"geometry":{"type":"Point","coordinates":[76.16851,16.0503654]}}]}