{"type":"FeatureCollection","features":[{"type":"Feature","properties":{"state":"Karnataka","district":1,"district_n":"BELGAUM","pc":1,"pc_name":"Chikkodi","ac":3,"ac_name":"Athani","booth":3,"booth_name":"Govt Govt Higher Primary Kannad School,masaraguppi"},"geometry":{"type":"Point","coordinates":[75.05334,16.7307739]}},{"type":"Feature","properties":{"state":"Karnataka","district":1,"district_n":"BELGAUM","pc":1,"pc_name":"Chikkodi","ac":3,"ac_name":"Athani","booth":10,"booth_name":"Govt Govt Kannad Higher Primary School, East New Building, Last Room, Kottalagi"},"geometry":{"type":"Point","coordinates":[75.3041458,16.9025116]}},{"type":"Feature","properties":{"state":"Karnataka","district":1,"district_n":"BELGAUM","pc":1,"pc_name":"Chikkodi","ac":3,"ac_name":"Athani","booth":12,"booth_name":"Govt Higher Primary Kannada Kannada School, Eastern Room, Room, Kakamari"},"geometry":{"type":"Point","coordinates":[75.31283,16.76987]}},{"type":"Feature","properties":{"state":"Karnataka","district":1,"district_n":"BELGAUM","pc":1,"pc_name":"Chikkodi","ac":3,"ac_name":"Athani","booth":67,"booth_name":"Govt Higher Primary School Sala Sankeern, Weastern Side North Middle Room, Athani"},"geometry":{"type":"Point","coordinates":[75.0716248,16.7287025]}},{"type":"Feature","properties":{"state":"Karnataka","district":1,"district_n":"BELGAUM","pc":1,"pc_name":"Chikkodi","ac":3,"ac_name":"Athani","booth":69,"booth_name":"J A Higher Primary School, Western Side Room, Athani"},"geometry":{"type":"Point","coordinates":[75.0572357,16.7260075]}},{"type":"Feature","properties":{"state":"Karnataka","district":1,"district_n":"BELGAUM","pc":1,"pc_name":"Chikkodi","ac":3,"ac_name":"Athani","booth":76,"booth_name":"Govt Kannada Kannada Higher Primary & High School, School, Western Western Room, Devaradderatti, (athani)"},"geometry":{"type":"Point","coordinates":[75.05441,16.72559]}},{"type":"Feature","properties":{"state":"Karnataka","district":1,"district_n":"BELGAUM","pc":1,"pc_name":"Chikkodi","ac":3,"ac_name":"Athani","booth":25,"booth_name":"G H Primary Kannada Kannada School, East Room, Keskardaddi (kohalli)"},"geometry":{"type":"Point","coordinates":[75.284874,16.8515415]}},{"type":"Feature","properties":{"state":"Karnataka","district":1,"district_n":"BELGAUM","pc":1,"pc_name":"Chikkodi","ac":3,"ac_name":"Athani","booth":39,"booth_name":"Govt Govt Higher Primary Marathi School, Yalihadalgi"},"geometry":{"type":"Point","coordinates":[75.11779,16.7380676]}},{"type":"Feature","properties":{"state":"Karnataka","district":1,"district_n":"BELGAUM","pc":1,"pc_name":"Chikkodi","ac":3,"ac_name":"Athani","booth":40,"booth_name":"Govt Govt Lower Primary Marathi School, Boradi Vasti (yalihadalgi)"},"geometry":{"type":"Point","coordinates":[75.0938339,16.7156258]}},{"type":"Feature","properties":{"state":"Karnataka","district":1,"district_n":"BELGAUM","pc":1,"pc_name":"Chikkodi","ac":3,"ac_name":"Athani","booth":75,"booth_name":"Govt Kannada H Primary School Seed Farm Middle Side Western Room, Seed Farm (athani)"},"geometry":{"type":"Point","coordinates":[75.05317,16.7308121]}},{"type":"Feature","properties":{"state":"Karnataka","district":1,"district_n":"BELGAUM","pc":1,"pc_name":"Chikkodi","ac":3,"ac_name":"Athani","booth":89,"booth_name":"Govt Kannada Higher Primary School, Rcc Building Eastern Eastern Room, Sankonatti (athani Rural)"},"geometry":{"type":"Point","coordinates":[75.03253,16.6460037]}},{"type":"Feature","properties":{"state":"Karnataka","district":1,"district_n":"BELGAUM","pc":1,"pc_name":"Chikkodi","ac":3,"ac_name":"Athani","booth":90,"booth_name":"G H Primary Kannada Kannada School, West Room, No 1 New Building, Badachi"},"geometry":{"type":"Point","coordinates":[75.1509857,16.7362976]}},{"type":"Feature","properties":{"state":"Karnataka","district":1,"district_n":"BELGAUM","pc":1,"pc_name":"Chikkodi","ac":3,"ac_name":"Athani","booth":6,"booth_name":"Govt Govt Higher Primary Kannad School, South Room,tanvashi Tota, Adahallatti"},"geometry":{"type":"Point","coordinates":[75.284874,16.8515415]}},{"type":"Feature","properties":{"state":"Karnataka","district":1,"district_n":"BELGAUM","pc":1,"pc_name":"Chikkodi","ac":3,"ac_name":"Athani","booth":23,"booth_name":"Govt Higher Primary Kannada School, North Room, Kohalli"},"geometry":{"type":"Point","coordinates":[75.31209,16.76804]}},{"type":"Feature","properties":{"state":"Karnataka","district":1,"district_n":"BELGAUM","pc":1,"pc_name":"Chikkodi","ac":3,"ac_name":"Athani","booth":24,"booth_name":"G Higher Primary Kannada Kannada Kannada School, East Side South South Room, Kohalli"},"geometry":{"type":"Point","coordinates":[75.31209,16.76804]}},{"type":"Feature","properties":{"state":"Karnataka","district":1,"district_n":"BELGAUM","pc":1,"pc_name":"Chikkodi","ac":3,"ac_name":"Athani","booth":41,"booth_name":"Shri Shri Appayya Swami Kannada Primary School, New Building, Aigali"},"geometry":{"type":"Point","coordinates":[75.09412,16.7145729]}},{"type":"Feature","properties":{"state":"Karnataka","district":1,"district_n":"BELGAUM","pc":1,"pc_name":"Chikkodi","ac":3,"ac_name":"Athani","booth":74,"booth_name":"Govt Govt Higher Primary School, Western Room, Vikrampur Athani"},"geometry":{"type":"Point","coordinates":[75.0572357,16.7260075]}},{"type":"Feature","properties":{"state":"Karnataka","district":1,"district_n":"BELGAUM","pc":1,"pc_name":"Chikkodi","ac":3,"ac_name":"Athani","booth":88,"booth_name":"Govt Kannada Higher Primary School, School, Old Building Building East Room, Room, Sankonatti (athani Rural)"},"geometry":{"type":"Point","coordinates":[75.0614,16.6263084]}},{"type":"Feature","properties":{"state":"Karnataka","district":1,"district_n":"BELGAUM","pc":1,"pc_name":"Chikkodi","ac":3,"ac_name":"Athani","booth":4,"booth_name":"Govt Govt Higher Primary Kannad School, North Room, Adahallatti"},"geometry":{"type":"Point","coordinates":[75.22492,16.7491283]}},{"type":"Feature","properties":{"state":"Karnataka","district":1,"district_n":"BELGAUM","pc":1,"pc_name":"Chikkodi","ac":3,"ac_name":"Athani","booth":11,"booth_name":"Govt Kannada Higher Primary Primary School, South Room, Kottalagi"},"geometry":{"type":"Point","coordinates":[75.3041458,16.9025116]}},{"type":"Feature","properties":{"state":"Karnataka","district":1,"district_n":"BELGAUM","pc":1,"pc_name":"Chikkodi","ac":3,"ac_name":"Athani","booth":18,"booth_name":"Govt Govt Higher Primary School, East Room, Bannur"},"geometry":{"type":"Point","coordinates":[75.3950043,16.80031]}},{"type":"Feature","properties":{"state":"Karnataka","district":1,"district_n":"BELGAUM","pc":1,"pc_name":"Chikkodi","ac":3,"ac_name":"Athani","booth":54,"booth_name":"Shri Shri Marula Shankar Devaru Kannada Medium Convent School, North Room, No No 2,athani"},"geometry":{"type":"Point","coordinates":[75.05312,16.7308273]}},{"type":"Feature","properties":{"state":"Karnataka","district":1,"district_n":"BELGAUM","pc":1,"pc_name":"Chikkodi","ac":3,"ac_name":"Athani","booth":61,"booth_name":"Shri Shri Marula Shankar Devaru Kannada Medium Convent School South Side Room No No 2 Athani"},"geometry":{"type":"Point","coordinates":[75.07166,16.7288628]}},{"type":"Feature","properties":{"state":"Karnataka","district":1,"district_n":"BELGAUM","pc":1,"pc_name":"Chikkodi","ac":3,"ac_name":"Athani","booth":68,"booth_name":"J A Higher Primary School, Middle Room, Athani"},"geometry":{"type":"Point","coordinates":[75.0572357,16.7260075]}},{"type":"Feature","properties":{"state":"Karnataka","district":1,"district_n":"BELGAUM","pc":1,"pc_name":"Chikkodi","ac":3,"ac_name":"Athani","booth":13,"booth_name":"Govt Higher Primary Kannada School, Western Room, Room, Kakamari"},"geometry":{"type":"Point","coordinates":[75.31283,16.76987]}},{"type":"Feature","properties":{"state":"Karnataka","district":1,"district_n":"BELGAUM","pc":1,"pc_name":"Chikkodi","ac":3,"ac_name":"Athani","booth":30,"booth_name":"Govt Urdu Higher Primary School, Eastern Room, Telsang"},"geometry":{"type":"Point","coordinates":[75.32575,16.7917614]}},{"type":"Feature","properties":{"state":"Karnataka","district":1,"district_n":"BELGAUM","pc":1,"pc_name":"Chikkodi","ac":3,"ac_name":"Athani","booth":47,"booth_name":"Govt Govt Kannada Lower Primary School, New Building, South Room, Phadatarawadi"},"geometry":{"type":"Point","coordinates":[75.32575,16.7917614]}},{"type":"Feature","properties":{"state":"Karnataka","district":1,"district_n":"BELGAUM","pc":1,"pc_name":"Chikkodi","ac":3,"ac_name":"Athani","booth":64,"booth_name":"Govt Govt Model Kannada School, (central School) New Building, East Room, Athani"},"geometry":{"type":"Point","coordinates":[75.06221,16.7255058]}},{"type":"Feature","properties":{"state":"Karnataka","district":1,"district_n":"BELGAUM","pc":1,"pc_name":"Chikkodi","ac":3,"ac_name":"Athani","booth":81,"booth_name":"Govt L P Kannada School, New Building, Athani Rural, Basavangudi Tot"},"geometry":{"type":"Point","coordinates":[75.0703,16.72251]}},{"type":"Feature","properties":{"state":"Karnataka","district":1,"district_n":"BELGAUM","pc":1,"pc_name":"Chikkodi","ac":3,"ac_name":"Athani","booth":98,"booth_name":"Govt Kannada H P P School, School, North Room, Room, Kokatanur"},"geometry":{"type":"Point","coordinates":[75.21728,16.4969387]}},{"type":"Feature","properties":{"state":"Karnataka","district":1,"district_n":"BELGAUM","pc":1,"pc_name":"Chikkodi","ac":3,"ac_name":"Athani","booth":19,"booth_name":"G H H Primary Kannada School, Western Room, Kannal"},"geometry":{"type":"Point","coordinates":[75.32575,16.7917614]}},{"type":"Feature","properties":{"state":"Karnataka","district":1,"district_n":"BELGAUM","pc":1,"pc_name":"Chikkodi","ac":3,"ac_name":"Athani","booth":28,"booth_name":"Shree Basavaling Swamiji Pre Primary School, West Room No 1 Telasang"},"geometry":{"type":"Point","coordinates":[75.32575,16.7917614]}},{"type":"Feature","properties":{"state":"Karnataka","district":1,"district_n":"BELGAUM","pc":1,"pc_name":"Chikkodi","ac":3,"ac_name":"Athani","booth":53,"booth_name":"A P M C C Rait Bhavan, Bhavan, Athani"},"geometry":{"type":"Point","coordinates":[75.0771561,16.72858]}},{"type":"Feature","properties":{"state":"Karnataka","district":1,"district_n":"BELGAUM","pc":1,"pc_name":"Chikkodi","ac":3,"ac_name":"Athani","booth":62,"booth_name":"Govt Model Kannada School School (central School) Old building North Room Athani"},"geometry":{"type":"Point","coordinates":[75.06221,16.7255058]}},{"type":"Feature","properties":{"state":"Karnataka","district":1,"district_n":"BELGAUM","pc":1,"pc_name":"Chikkodi","ac":3,"ac_name":"Athani","booth":87,"booth_name":"Govt Govt Higher Primary Kannada School, Old Building, Middle Room, Sankonatti Sankonatti (athani Rural)"},"geometry":{"type":"Point","coordinates":[75.03945,16.7014141]}},{"type":"Feature","properties":{"state":"Karnataka","district":1,"district_n":"BELGAUM","pc":1,"pc_name":"Chikkodi","ac":3,"ac_name":"Athani","booth":92,"booth_name":"Govt Higher Primary Kannada Kannada School, Old Building Western Room, Badachi"},"geometry":{"type":"Point","coordinates":[75.1509857,16.7362976]}},{"type":"Feature","properties":{"state":"Karnataka","district":1,"district_n":"BELGAUM","pc":1,"pc_name":"Chikkodi","ac":3,"ac_name":"Athani","booth":2,"booth_name":"Nammura Govt Higher Primary School, North Room, Murgundi"},"geometry":{"type":"Point","coordinates":[74.99565,16.7358]}},{"type":"Feature","properties":{"state":"Karnataka","district":1,"district_n":"BELGAUM","pc":1,"pc_name":"Chikkodi","ac":3,"ac_name":"Athani","booth":20,"booth_name":"G H H Primary Kannada School Eastern Room, Kannal"},"geometry":{"type":"Point","coordinates":[75.32575,16.7917614]}},{"type":"Feature","properties":{"state":"Karnataka","district":1,"district_n":"BELGAUM","pc":1,"pc_name":"Chikkodi","ac":3,"ac_name":"Athani","booth":27,"booth_name":"Govt M L A Model Kannada School, School, New Building Building Western Room, Telsang"},"geometry":{"type":"Point","coordinates":[75.32575,16.7917614]}},{"type":"Feature","properties":{"state":"Karnataka","district":1,"district_n":"BELGAUM","pc":1,"pc_name":"Chikkodi","ac":3,"ac_name":"Athani","booth":45,"booth_name":"Govt Govt Higher Primary Kannada School, East Room, Aigali"},"geometry":{"type":"Point","coordinates":[75.09412,16.7145729]}},{"type":"Feature","properties":{"state":"Karnataka","district":1,"district_n":"BELGAUM","pc":1,"pc_name":"Chikkodi","ac":3,"ac_name":"Athani","booth":70,"booth_name":"S S Girls High School, West Room, Athani"},"geometry":{"type":"Point","coordinates":[75.05441,16.7256088]}},{"type":"Feature","properties":{"state":"Karnataka","district":1,"district_n":"BELGAUM","pc":1,"pc_name":"Chikkodi","ac":3,"ac_name":"Athani","booth":84,"booth_name":"Govt Kannada Kannada Higher Primary School, Motagi Tot, New Building, North Side Room No 1 (athani Rural)"},"geometry":{"type":"Point","coordinates":[75.07713,16.7285423]}},{"type":"Feature","properties":{"state":"Karnataka","district":1,"district_n":"BELGAUM","pc":1,"pc_name":"Chikkodi","ac":3,"ac_name":"Athani","booth":95,"booth_name":"Govt L P Kannada Kannada School, School, School, School, Shinnal"},"geometry":{"type":"Point","coordinates":[74.94171,16.747448]}},{"type":"Feature","properties":{"state":"Karnataka","district":1,"district_n":"BELGAUM","pc":1,"pc_name":"Chikkodi","ac":3,"ac_name":"Athani","booth":15,"booth_name":"Govt Higher Primary Kannada School, South Room, Kakamari"},"geometry":{"type":"Point","coordinates":[75.31283,16.76987]}},{"type":"Feature","properties":{"state":"Karnataka","district":1,"district_n":"BELGAUM","pc":1,"pc_name":"Chikkodi","ac":3,"ac_name":"Athani","booth":32,"booth_name":"Govt Higher Primary Kannada School Madhawanand Nagar, New Building, Western Room, Telsang Cross Cross (telsang)"},"geometry":{"type":"Point","coordinates":[75.32566,16.7742748]}},{"type":"Feature","properties":{"state":"Karnataka","district":1,"district_n":"BELGAUM","pc":1,"pc_name":"Chikkodi","ac":3,"ac_name":"Athani","booth":49,"booth_name":"Govt Urdu Girls School, East Room, Room, (kagaji Galli)athani"},"geometry":{"type":"Point","coordinates":[75.0771561,16.72858]}},{"type":"Feature","properties":{"state":"Karnataka","district":1,"district_n":"BELGAUM","pc":1,"pc_name":"Chikkodi","ac":3,"ac_name":"Athani","booth":66,"booth_name":"Govt Govt Higher Primary School Shala Sankeern, North Side Middle Room, Athani"},"geometry":{"type":"Point","coordinates":[75.0716248,16.7287025]}},{"type":"Feature","properties":{"state":"Karnataka","district":1,"district_n":"BELGAUM","pc":1,"pc_name":"Chikkodi","ac":3,"ac_name":"Athani","booth":83,"booth_name":"Govt Kannada Boys Higher Primary School, Motagi Tot Eastern Side Middle Room,(athani Rural)"},"geometry":{"type":"Point","coordinates":[75.07713,16.7285423]}},{"type":"Feature","properties":{"state":"Karnataka","district":1,"district_n":"BELGAUM","pc":1,"pc_name":"Chikkodi","ac":3,"ac_name":"Athani","booth":100,"booth_name":"Govt Kannada H P Kbs School, South Room, Room, Kokatanur"},"geometry":{"type":"Point","coordinates":[75.21728,16.4969387]}},{"type":"Feature","properties":{"state":"Karnataka","district":1,"district_n":"BELGAUM","pc":1,"pc_name":"Chikkodi","ac":3,"ac_name":"Athani","booth":9,"booth_name":"Govt Kannad Higher School, East New Building, Middle Room, Kottalagi"},"geometry":{"type":"Point","coordinates":[75.3041458,16.9025116]}},{"type":"Feature","properties":{"state":"Karnataka","district":1,"district_n":"BELGAUM","pc":1,"pc_name":"Chikkodi","ac":3,"ac_name":"Athani","booth":34,"booth_name":"Govt H P Kannada School, Eastern Room, Adahalli"},"geometry":{"type":"Point","coordinates":[75.22492,16.7491283]}},{"type":"Feature","properties":{"state":"Karnataka","district":1,"district_n":"BELGAUM","pc":1,"pc_name":"Chikkodi","ac":3,"ac_name":"Athani","booth":52,"booth_name":"Govt Govt Lower Primary Kannada School Lidkar Colony, Athani"},"geometry":{"type":"Point","coordinates":[75.0771561,16.72858]}},{"type":"Feature","properties":{"state":"Karnataka","district":1,"district_n":"BELGAUM","pc":1,"pc_name":"Chikkodi","ac":3,"ac_name":"Athani","booth":59,"booth_name":"Abdul Kalam High School, Ded College Technology Room No 2 Athani"},"geometry":{"type":"Point","coordinates":[75.0625,16.722496]}},{"type":"Feature","properties":{"state":"Karnataka","district":1,"district_n":"BELGAUM","pc":1,"pc_name":"Chikkodi","ac":3,"ac_name":"Athani","booth":77,"booth_name":"Govt Kannada Higher Primary School, South Side Room, Hosatti (athani)"},"geometry":{"type":"Point","coordinates":[75.08425,16.8048477]}},{"type":"Feature","properties":{"state":"Karnataka","district":1,"district_n":"BELGAUM","pc":1,"pc_name":"Chikkodi","ac":3,"ac_name":"Athani","booth":102,"booth_name":"Govt Govt H H P P Kannada School Dhabadhabahatti"},"geometry":{"type":"Point","coordinates":[75.13854,16.7063122]}},{"type":"Feature","properties":{"state":"Karnataka","district":1,"district_n":"BELGAUM","pc":1,"pc_name":"Chikkodi","ac":3,"ac_name":"Athani","booth":120,"booth_name":"Govt H P K K School, South Side East Room, Nandagaon"},"geometry":{"type":"Point","coordinates":[75.09012,16.6587543]}},{"type":"Feature","properties":{"state":"Karnataka","district":1,"district_n":"BELGAUM","pc":1,"pc_name":"Chikkodi","ac":3,"ac_name":"Athani","booth":103,"booth_name":"Govt Govt Kannada H P Scool, Burlatti (kokatanur)"},"geometry":{"type":"Point","coordinates":[75.13854,16.7063122]}},{"type":"Feature","properties":{"state":"Karnataka","district":1,"district_n":"BELGAUM","pc":1,"pc_name":"Chikkodi","ac":3,"ac_name":"Athani","booth":110,"booth_name":"G H Primary Kannada Kannada School, Eastern Room, Badagi"},"geometry":{"type":"Point","coordinates":[75.24619,16.74378]}},{"type":"Feature","properties":{"state":"Karnataka","district":1,"district_n":"BELGAUM","pc":1,"pc_name":"Chikkodi","ac":3,"ac_name":"Athani","booth":112,"booth_name":"G H Primary Kannada School, Eastern Room, Aratal"},"geometry":{"type":"Point","coordinates":[75.2427,16.6190968]}},{"type":"Feature","properties":{"state":"Karnataka","district":1,"district_n":"BELGAUM","pc":1,"pc_name":"Chikkodi","ac":3,"ac_name":"Athani","booth":146,"booth_name":"Govt Kannada H P School, (garden School) Awarkhod"},"geometry":{"type":"Point","coordinates":[75.0614,16.6263084]}},{"type":"Feature","properties":{"state":"Karnataka","district":1,"district_n":"BELGAUM","pc":1,"pc_name":"Chikkodi","ac":3,"ac_name":"Athani","booth":169,"booth_name":"Govt Kannada H Primary School, South Room, Satti"},"geometry":{"type":"Point","coordinates":[75.10023,16.5703659]}},{"type":"Feature","properties":{"state":"Karnataka","district":1,"district_n":"BELGAUM","pc":1,"pc_name":"Chikkodi","ac":3,"ac_name":"Athani","booth":176,"booth_name":"Govt Kannada H P P School, Savadi Darga"},"geometry":{"type":"Point","coordinates":[75.16173,16.5379143]}},{"type":"Feature","properties":{"state":"Karnataka","district":1,"district_n":"BELGAUM","pc":1,"pc_name":"Chikkodi","ac":3,"ac_name":"Athani","booth":125,"booth_name":"Govt H P Kannada School, New Building, Ramawadi (hulagabali)"},"geometry":{"type":"Point","coordinates":[75.03945,16.7014141]}},{"type":"Feature","properties":{"state":"Karnataka","district":1,"district_n":"BELGAUM","pc":1,"pc_name":"Chikkodi","ac":3,"ac_name":"Athani","booth":139,"booth_name":"Govt K H P School, Eastern Side, Room No No 3, Saptasagar"},"geometry":{"type":"Point","coordinates":[74.87446,16.6018028]}},{"type":"Feature","properties":{"state":"Karnataka","district":1,"district_n":"BELGAUM","pc":1,"pc_name":"Chikkodi","ac":3,"ac_name":"Athani","booth":140,"booth_name":"Govt K H P School, Middle Room, Room, Saptasagar"},"geometry":{"type":"Point","coordinates":[74.87446,16.6018028]}},{"type":"Feature","properties":{"state":"Karnataka","district":1,"district_n":"BELGAUM","pc":1,"pc_name":"Chikkodi","ac":3,"ac_name":"Athani","booth":175,"booth_name":"Govt Govt Kannada Lower Primary School, Kudachi Tota, (seemi Gadde) Savadi"},"geometry":{"type":"Point","coordinates":[75.12717,16.577343]}},{"type":"Feature","properties":{"state":"Karnataka","district":1,"district_n":"BELGAUM","pc":1,"pc_name":"Chikkodi","ac":3,"ac_name":"Athani","booth":91,"booth_name":"Govt Govt Higher Higher Primary Kannada Kannada School, Old Old Building, Eastern Room, Room, Badachi"},"geometry":{"type":"Point","coordinates":[75.1509857,16.7362976]}},{"type":"Feature","properties":{"state":"Karnataka","district":1,"district_n":"BELGAUM","pc":1,"pc_name":"Chikkodi","ac":3,"ac_name":"Athani","booth":105,"booth_name":"Govt H Primary Kannada Kannada School, Desairatti"},"geometry":{"type":"Point","coordinates":[75.17215,16.726078]}},{"type":"Feature","properties":{"state":"Karnataka","district":1,"district_n":"BELGAUM","pc":1,"pc_name":"Chikkodi","ac":3,"ac_name":"Athani","booth":138,"booth_name":"Govt K H P School, Eastern Room, Saptasagar"},"geometry":{"type":"Point","coordinates":[74.87446,16.6018028]}},{"type":"Feature","properties":{"state":"Karnataka","district":1,"district_n":"BELGAUM","pc":1,"pc_name":"Chikkodi","ac":3,"ac_name":"Athani","booth":155,"booth_name":"Govt H P School, Kappayyan Tot, Tot, Shirahatti"},"geometry":{"type":"Point","coordinates":[75.1323,16.38132]}},{"type":"Feature","properties":{"state":"Karnataka","district":1,"district_n":"BELGAUM","pc":1,"pc_name":"Chikkodi","ac":3,"ac_name":"Athani","booth":156,"booth_name":"Govt H P K K School, New Building Room No No 1, Zunjarwad"},"geometry":{"type":"Point","coordinates":[75.2769241,16.5151844]}},{"type":"Feature","properties":{"state":"Karnataka","district":1,"district_n":"BELGAUM","pc":1,"pc_name":"Chikkodi","ac":3,"ac_name":"Athani","booth":173,"booth_name":"Govt Govt H Kannada Primary School, East Room, Savadi"},"geometry":{"type":"Point","coordinates":[75.14643,16.5330658]}},{"type":"Feature","properties":{"state":"Karnataka","district":1,"district_n":"BELGAUM","pc":1,"pc_name":"Chikkodi","ac":3,"ac_name":"Athani","booth":132,"booth_name":"Govt Kannada Higher Primary Boys School, Southern Building Room No 4, Halyal"},"geometry":{"type":"Point","coordinates":[75.03013,16.6533527]}},{"type":"Feature","properties":{"state":"Karnataka","district":1,"district_n":"BELGAUM","pc":1,"pc_name":"Chikkodi","ac":3,"ac_name":"Athani","booth":149,"booth_name":"Govt Kannada H Primary School New Building South South Room, Naganur Pk"},"geometry":{"type":"Point","coordinates":[75.03013,16.6533527]}},{"type":"Feature","properties":{"state":"Karnataka","district":1,"district_n":"BELGAUM","pc":1,"pc_name":"Chikkodi","ac":3,"ac_name":"Athani","booth":166,"booth_name":"Govt Kannada H Primary Girls School, East Room, New Building, Satti"},"geometry":{"type":"Point","coordinates":[75.07537,16.570509]}},{"type":"Feature","properties":{"state":"Karnataka","district":1,"district_n":"BELGAUM","pc":1,"pc_name":"Chikkodi","ac":3,"ac_name":"Athani","booth":183,"booth_name":"Govt Kannada H Primary School, New buildingmiddle Room, Nandeshwar"},"geometry":{"type":"Point","coordinates":[75.10023,16.5703659]}},{"type":"Feature","properties":{"state":"Karnataka","district":1,"district_n":"BELGAUM","pc":1,"pc_name":"Chikkodi","ac":3,"ac_name":"Athani","booth":104,"booth_name":"Govt H P Marathi School, Khothanatti"},"geometry":{"type":"Point","coordinates":[75.09412,16.7145729]}},{"type":"Feature","properties":{"state":"Karnataka","district":1,"district_n":"BELGAUM","pc":1,"pc_name":"Chikkodi","ac":3,"ac_name":"Athani","booth":111,"booth_name":"G H Primary Kannada Boys School, Western Room No 1 Badagi"},"geometry":{"type":"Point","coordinates":[75.24619,16.74378]}},{"type":"Feature","properties":{"state":"Karnataka","district":1,"district_n":"BELGAUM","pc":1,"pc_name":"Chikkodi","ac":3,"ac_name":"Athani","booth":118,"booth_name":"New Anganwadi Building, Nandgaon"},"geometry":{"type":"Point","coordinates":[75.19263,16.4957638]}},{"type":"Feature","properties":{"state":"Karnataka","district":1,"district_n":"BELGAUM","pc":1,"pc_name":"Chikkodi","ac":3,"ac_name":"Athani","booth":154,"booth_name":"Govt K H P School, North Room, Room, Shirahatti"},"geometry":{"type":"Point","coordinates":[75.2411346,16.5956573]}},{"type":"Feature","properties":{"state":"Karnataka","district":1,"district_n":"BELGAUM","pc":1,"pc_name":"Chikkodi","ac":3,"ac_name":"Athani","booth":161,"booth_name":"Govt Kannada H Primary Childrens School, Western North Room, Khavatakopp"},"geometry":{"type":"Point","coordinates":[75.06682,16.666399]}},{"type":"Feature","properties":{"state":"Karnataka","district":1,"district_n":"BELGAUM","pc":1,"pc_name":"Chikkodi","ac":3,"ac_name":"Athani","booth":168,"booth_name":"Gram Panchayat Office Building, Building, Satti"},"geometry":{"type":"Point","coordinates":[75.07537,16.570509]}},{"type":"Feature","properties":{"state":"Karnataka","district":1,"district_n":"BELGAUM","pc":1,"pc_name":"Chikkodi","ac":3,"ac_name":"Athani","booth":109,"booth_name":"Govt H P Kannada School, West Room Suttatti (kokatanur)"},"geometry":{"type":"Point","coordinates":[75.2427,16.6190968]}},{"type":"Feature","properties":{"state":"Karnataka","district":1,"district_n":"BELGAUM","pc":1,"pc_name":"Chikkodi","ac":3,"ac_name":"Athani","booth":134,"booth_name":"Govt Govt H P Kannada School, Middle Room, Teerth"},"geometry":{"type":"Point","coordinates":[75.03945,16.7014141]}},{"type":"Feature","properties":{"state":"Karnataka","district":1,"district_n":"BELGAUM","pc":1,"pc_name":"Chikkodi","ac":3,"ac_name":"Athani","booth":152,"booth_name":"Govt H P K School, Eastern Room, Shirahatti"},"geometry":{"type":"Point","coordinates":[75.2411346,16.5956573]}},{"type":"Feature","properties":{"state":"Karnataka","district":1,"district_n":"BELGAUM","pc":1,"pc_name":"Chikkodi","ac":3,"ac_name":"Athani","booth":159,"booth_name":"Govt Kannada H Primary School, Western Room, Sankratti"},"geometry":{"type":"Point","coordinates":[75.06682,16.666399]}},{"type":"Feature","properties":{"state":"Karnataka","district":1,"district_n":"BELGAUM","pc":1,"pc_name":"Chikkodi","ac":3,"ac_name":"Athani","booth":177,"booth_name":"Govt Kannada H Primary School, South Room, Shegunshi"},"geometry":{"type":"Point","coordinates":[75.16173,16.570509]}},{"type":"Feature","properties":{"state":"Karnataka","district":1,"district_n":"BELGAUM","pc":1,"pc_name":"Chikkodi","ac":3,"ac_name":"Athani","booth":96,"booth_name":"Govt Kannada H H P P School, School, East Room, Room, Katageri"},"geometry":{"type":"Point","coordinates":[75.13854,16.7063122]}},{"type":"Feature","properties":{"state":"Karnataka","district":1,"district_n":"BELGAUM","pc":1,"pc_name":"Chikkodi","ac":3,"ac_name":"Athani","booth":117,"booth_name":"Govt H P Kannada School, North Side Room No 1, 1, Ghatanatti"},"geometry":{"type":"Point","coordinates":[75.09012,16.6587543]}},{"type":"Feature","properties":{"state":"Karnataka","district":1,"district_n":"BELGAUM","pc":1,"pc_name":"Chikkodi","ac":3,"ac_name":"Athani","booth":121,"booth_name":"Govt H P K School West Side Room, Room, Nandagaon"},"geometry":{"type":"Point","coordinates":[75.09012,16.6587543]}},{"type":"Feature","properties":{"state":"Karnataka","district":1,"district_n":"BELGAUM","pc":1,"pc_name":"Chikkodi","ac":3,"ac_name":"Athani","booth":126,"booth_name":"Govt H P Kannada School, Old Building, Ramawadi (hulagabali)"},"geometry":{"type":"Point","coordinates":[75.03013,16.6533527]}},{"type":"Feature","properties":{"state":"Karnataka","district":1,"district_n":"BELGAUM","pc":1,"pc_name":"Chikkodi","ac":3,"ac_name":"Athani","booth":151,"booth_name":"Govt H P K School, Western Room, Balwad"},"geometry":{"type":"Point","coordinates":[75.1313,16.71642]}},{"type":"Feature","properties":{"state":"Karnataka","district":1,"district_n":"BELGAUM","pc":1,"pc_name":"Chikkodi","ac":3,"ac_name":"Athani","booth":160,"booth_name":"Govt Govt Kannada Kannada School, East Room, Khavatakopp"},"geometry":{"type":"Point","coordinates":[75.06682,16.666399]}},{"type":"Feature","properties":{"state":"Karnataka","district":1,"district_n":"BELGAUM","pc":1,"pc_name":"Chikkodi","ac":3,"ac_name":"Athani","booth":185,"booth_name":"Govt Urdu H Primary School, Northern Room, Janawad"},"geometry":{"type":"Point","coordinates":[75.16809,16.5313568]}},{"type":"Feature","properties":{"state":"Karnataka","district":1,"district_n":"BELGAUM","pc":1,"pc_name":"Chikkodi","ac":3,"ac_name":"Athani","booth":113,"booth_name":"G H Primary Kannada Kannada School, Western Room, Aratal"},"geometry":{"type":"Point","coordinates":[75.2427,16.6190968]}},{"type":"Feature","properties":{"state":"Karnataka","district":1,"district_n":"BELGAUM","pc":1,"pc_name":"Chikkodi","ac":3,"ac_name":"Athani","booth":130,"booth_name":"Govt Kannada Higher Primary Boys School, School, Northern Building Building Building Room No No 4, Halyal"},"geometry":{"type":"Point","coordinates":[75.03013,16.6533527]}},{"type":"Feature","properties":{"state":"Karnataka","district":1,"district_n":"BELGAUM","pc":1,"pc_name":"Chikkodi","ac":3,"ac_name":"Athani","booth":147,"booth_name":"Govt High School, School, (garden School), Awarkhod"},"geometry":{"type":"Point","coordinates":[75.0614,16.6263084]}},{"type":"Feature","properties":{"state":"Karnataka","district":1,"district_n":"BELGAUM","pc":1,"pc_name":"Chikkodi","ac":3,"ac_name":"Athani","booth":164,"booth_name":"Govt Kannada H P School, Room No No 2, Middle Room, Radderahatti"},"geometry":{"type":"Point","coordinates":[75.0614,16.6263084]}},{"type":"Feature","properties":{"state":"Karnataka","district":1,"district_n":"BELGAUM","pc":1,"pc_name":"Chikkodi","ac":3,"ac_name":"Athani","booth":181,"booth_name":"Govt Kannada H Primary School Eastern Room, Nandeshwar"},"geometry":{"type":"Point","coordinates":[75.14645,16.5507736]}},{"type":"Feature","properties":{"state":"Karnataka","district":1,"district_n":"BELGAUM","pc":1,"pc_name":"Chikkodi","ac":3,"ac_name":"Athani","booth":145,"booth_name":"Govt Kannada H H P School, New Building, Awarkhod"},"geometry":{"type":"Point","coordinates":[75.03013,16.6533527]}},{"type":"Feature","properties":{"state":"Karnataka","district":1,"district_n":"BELGAUM","pc":1,"pc_name":"Chikkodi","ac":3,"ac_name":"Athani","booth":170,"booth_name":"Govt Kannad Higher Primary School,north Room, Satti"},"geometry":{"type":"Point","coordinates":[75.10023,16.5703659]}},{"type":"Feature","properties":{"state":"Karnataka","district":1,"district_n":"BELGAUM","pc":1,"pc_name":"Chikkodi","ac":3,"ac_name":"Athani","booth":184,"booth_name":"Govt Kannada H Primary School, School, Janawad"},"geometry":{"type":"Point","coordinates":[75.16809,16.5313568]}},{"type":"Feature","properties":{"state":"Karnataka","district":1,"district_n":"BELGAUM","pc":1,"pc_name":"Chikkodi","ac":3,"ac_name":"Athani","booth":188,"booth_name":"Govt Kannada H Primary School, Western Room, Mahishwadagi"},"geometry":{"type":"Point","coordinates":[75.14645,15.5507736]}},{"type":"Feature","properties":{"state":"Karnataka","district":1,"district_n":"BELGAUM","pc":1,"pc_name":"Chikkodi","ac":3,"ac_name":"Athani","booth":5,"booth_name":"Govt Govt Higher Higher Kannada Primary School, South Room, Adalatti"},"geometry":{"type":"Point","coordinates":[75.22492,16.7491283]}},{"type":"Feature","properties":{"state":"Karnataka","district":1,"district_n":"BELGAUM","pc":1,"pc_name":"Chikkodi","ac":3,"ac_name":"Athani","booth":38,"booth_name":"Govt Higher Primary Kannada School, Northern Room, Yalihadalgi"},"geometry":{"type":"Point","coordinates":[75.22492,16.7491283]}},{"type":"Feature","properties":{"state":"Karnataka","district":1,"district_n":"BELGAUM","pc":1,"pc_name":"Chikkodi","ac":3,"ac_name":"Athani","booth":55,"booth_name":"Sri Murgendra Shivayogi Ded College, Near Siddeshwar Agasi, Agasi, Rcc New Building, Western Western Room, Athani"},"geometry":{"type":"Point","coordinates":[75.0771561,16.72858]}},{"type":"Feature","properties":{"state":"Karnataka","district":1,"district_n":"BELGAUM","pc":1,"pc_name":"Chikkodi","ac":3,"ac_name":"Athani","booth":56,"booth_name":"Sri Sri Murgendra Shivayogi Ded College, Near Siddeshwar Agasi, Agasi, Rcc New Building, Building, Western Western Western South Side Room, Athani"},"geometry":{"type":"Point","coordinates":[75.0771561,16.72858]}},{"type":"Feature","properties":{"state":"Karnataka","district":1,"district_n":"BELGAUM","pc":1,"pc_name":"Chikkodi","ac":3,"ac_name":"Athani","booth":73,"booth_name":"Govt Govt Higher Primary School, Middle Room, Vikrampur Athani"},"geometry":{"type":"Point","coordinates":[75.0572357,16.7260075]}},{"type":"Feature","properties":{"state":"Karnataka","district":1,"district_n":"BELGAUM","pc":1,"pc_name":"Chikkodi","ac":3,"ac_name":"Athani","booth":106,"booth_name":"Govt L Primary Kannada Kannada School Chavan Vasati (desaratti)"},"geometry":{"type":"Point","coordinates":[75.0938339,16.7156258]}},{"type":"Feature","properties":{"state":"Karnataka","district":1,"district_n":"BELGAUM","pc":1,"pc_name":"Chikkodi","ac":3,"ac_name":"Athani","booth":123,"booth_name":"Govt Govt Higher Primary Kannada School, East Side 2nd Room, Kodaganur"},"geometry":{"type":"Point","coordinates":[75.13854,16.7063122]}},{"type":"Feature","properties":{"state":"Karnataka","district":1,"district_n":"BELGAUM","pc":1,"pc_name":"Chikkodi","ac":3,"ac_name":"Athani","booth":124,"booth_name":"Govt H P P School Karalatti (hulagabali)"},"geometry":{"type":"Point","coordinates":[75.03945,16.7014141]}},{"type":"Feature","properties":{"state":"Karnataka","district":1,"district_n":"BELGAUM","pc":1,"pc_name":"Chikkodi","ac":3,"ac_name":"Athani","booth":141,"booth_name":"Govt Kannada H P School, School, School, Chikkud"},"geometry":{"type":"Point","coordinates":[74.94766,16.5872421]}},{"type":"Feature","properties":{"state":"Karnataka","district":1,"district_n":"BELGAUM","pc":1,"pc_name":"Chikkodi","ac":3,"ac_name":"Athani","booth":174,"booth_name":"Govt Kannada H P School, North North Room, Savadi"},"geometry":{"type":"Point","coordinates":[75.12717,16.577343]}},{"type":"Feature","properties":{"state":"Karnataka","district":1,"district_n":"BELGAUM","pc":1,"pc_name":"Chikkodi","ac":3,"ac_name":"Athani","booth":14,"booth_name":"Govt Higher Primary Kannada Kannada School, North Room, Kakamari"},"geometry":{"type":"Point","coordinates":[75.31283,16.76987]}},{"type":"Feature","properties":{"state":"Karnataka","district":1,"district_n":"BELGAUM","pc":1,"pc_name":"Chikkodi","ac":3,"ac_name":"Athani","booth":16,"booth_name":"Govt Higher Primary Kannada Boys School, Handar Khodi Tota, (kakamari)"},"geometry":{"type":"Point","coordinates":[75.284874,16.8515415]}},{"type":"Feature","properties":{"state":"Karnataka","district":1,"district_n":"BELGAUM","pc":1,"pc_name":"Chikkodi","ac":3,"ac_name":"Athani","booth":50,"booth_name":"Govt Urdu Girls School, West Room, Room, (kagaji Galli), Athani"},"geometry":{"type":"Point","coordinates":[75.06254,16.72513]}},{"type":"Feature","properties":{"state":"Karnataka","district":1,"district_n":"BELGAUM","pc":1,"pc_name":"Chikkodi","ac":3,"ac_name":"Athani","booth":63,"booth_name":"Govt Govt Model Kannada School (central School) New Building West Room, Athani"},"geometry":{"type":"Point","coordinates":[75.06221,16.7255058]}},{"type":"Feature","properties":{"state":"Karnataka","district":1,"district_n":"BELGAUM","pc":1,"pc_name":"Chikkodi","ac":3,"ac_name":"Athani","booth":65,"booth_name":"Govt Urdu Higher Primary School, New Building, Bijapur Road, Athani"},"geometry":{"type":"Point","coordinates":[75.0652,16.7239285]}},{"type":"Feature","properties":{"state":"Karnataka","district":1,"district_n":"BELGAUM","pc":1,"pc_name":"Chikkodi","ac":3,"ac_name":"Athani","booth":80,"booth_name":"Govt Kannada Lower Primary School, Kesral Tot, Athani Rural"},"geometry":{"type":"Point","coordinates":[75.05441,16.72559]}},{"type":"Feature","properties":{"state":"Karnataka","district":1,"district_n":"BELGAUM","pc":1,"pc_name":"Chikkodi","ac":3,"ac_name":"Athani","booth":99,"booth_name":"Govt Kannada H P P School, School, South Room, Room, Kokatanur"},"geometry":{"type":"Point","coordinates":[75.21728,16.4969387]}},{"type":"Feature","properties":{"state":"Karnataka","district":1,"district_n":"BELGAUM","pc":1,"pc_name":"Chikkodi","ac":3,"ac_name":"Athani","booth":31,"booth_name":"Govt Lower Primary Kannada School, Telsang (khilardaddi)"},"geometry":{"type":"Point","coordinates":[75.32566,16.7742748]}},{"type":"Feature","properties":{"state":"Karnataka","district":1,"district_n":"BELGAUM","pc":1,"pc_name":"Chikkodi","ac":3,"ac_name":"Athani","booth":33,"booth_name":"Govt Primary Kannada Kannada School, Chavan Vasati, Telsang"},"geometry":{"type":"Point","coordinates":[75.32575,16.7917614]}},{"type":"Feature","properties":{"state":"Karnataka","district":1,"district_n":"BELGAUM","pc":1,"pc_name":"Chikkodi","ac":3,"ac_name":"Athani","booth":46,"booth_name":"Govt Govt Kannada Lower Primary School, New Building, North Room, Phadatarawadi"},"geometry":{"type":"Point","coordinates":[75.32575,16.7917614]}},{"type":"Feature","properties":{"state":"Karnataka","district":1,"district_n":"BELGAUM","pc":1,"pc_name":"Chikkodi","ac":3,"ac_name":"Athani","booth":48,"booth_name":"Shri Shri Murughendra Shivayogi, Ded College, Near Shiddeshwar Agasi, North Room No 1 Athani"},"geometry":{"type":"Point","coordinates":[75.0771561,16.72858]}},{"type":"Feature","properties":{"state":"Karnataka","district":1,"district_n":"BELGAUM","pc":1,"pc_name":"Chikkodi","ac":3,"ac_name":"Athani","booth":82,"booth_name":"Govt Kannada Lower Primary School, Old Building, Building, (athani Rural) Bharamakhodi"},"geometry":{"type":"Point","coordinates":[74.93377,16.8045444]}},{"type":"Feature","properties":{"state":"Karnataka","district":1,"district_n":"BELGAUM","pc":1,"pc_name":"Chikkodi","ac":3,"ac_name":"Athani","booth":97,"booth_name":"Govt Govt Kannada H P P School, West Room, Room, Katageri"},"geometry":{"type":"Point","coordinates":[75.13854,16.7063122]}},{"type":"Feature","properties":{"state":"Karnataka","district":1,"district_n":"BELGAUM","pc":1,"pc_name":"Chikkodi","ac":3,"ac_name":"Athani","booth":29,"booth_name":"Govt M L A A Higher Primary School, Western Room Telsang"},"geometry":{"type":"Point","coordinates":[75.32575,16.7917614]}},{"type":"Feature","properties":{"state":"Karnataka","district":1,"district_n":"BELGAUM","pc":1,"pc_name":"Chikkodi","ac":3,"ac_name":"Athani","booth":36,"booth_name":"Govt Higher Primary Kannada School, Western Room, Yakkanchi"},"geometry":{"type":"Point","coordinates":[75.11779,16.7380676]}},{"type":"Feature","properties":{"state":"Karnataka","district":1,"district_n":"BELGAUM","pc":1,"pc_name":"Chikkodi","ac":3,"ac_name":"Athani","booth":43,"booth_name":"Shri Appayya Swami Kannada Primary School, North Room, Aigali"},"geometry":{"type":"Point","coordinates":[75.09412,16.7145729]}},{"type":"Feature","properties":{"state":"Karnataka","district":1,"district_n":"BELGAUM","pc":1,"pc_name":"Chikkodi","ac":3,"ac_name":"Athani","booth":79,"booth_name":"Govt Kannada Higher Primary School, South Room, Bhadakambi Tot, (athani)"},"geometry":{"type":"Point","coordinates":[75.0557861,16.7212849]}},{"type":"Feature","properties":{"state":"Karnataka","district":1,"district_n":"BELGAUM","pc":1,"pc_name":"Chikkodi","ac":3,"ac_name":"Athani","booth":86,"booth_name":"Govt Govt Higher Primary Kannada School, Old Building, West Side, Room No 2, Sankonatti Sankonatti (athani Rural)"},"geometry":{"type":"Point","coordinates":[75.03945,16.7014141]}},{"type":"Feature","properties":{"state":"Karnataka","district":1,"district_n":"BELGAUM","pc":1,"pc_name":"Chikkodi","ac":3,"ac_name":"Athani","booth":93,"booth_name":"Govt Higher Primary Kannada Kannada School, School, Eastern Room, Tangadi"},"geometry":{"type":"Point","coordinates":[74.995636,16.7351112]}},{"type":"Feature","properties":{"state":"Karnataka","district":1,"district_n":"BELGAUM","pc":1,"pc_name":"Chikkodi","ac":3,"ac_name":"Athani","booth":1,"booth_name":"Nammura Govt Higher Primary School, South Room, Room, Murgundi"},"geometry":{"type":"Point","coordinates":[74.99565,16.7358]}},{"type":"Feature","properties":{"state":"Karnataka","district":1,"district_n":"BELGAUM","pc":1,"pc_name":"Chikkodi","ac":3,"ac_name":"Athani","booth":35,"booth_name":"Govt Higher Primary Kannada School, Western Room No No 1, 1, Adahalli"},"geometry":{"type":"Point","coordinates":[75.22492,16.7491283]}},{"type":"Feature","properties":{"state":"Karnataka","district":1,"district_n":"BELGAUM","pc":1,"pc_name":"Chikkodi","ac":3,"ac_name":"Athani","booth":37,"booth_name":"Govt Higher Primary Kannada School, North Room,yakkanchi"},"geometry":{"type":"Point","coordinates":[75.11779,16.7380676]}},{"type":"Feature","properties":{"state":"Karnataka","district":1,"district_n":"BELGAUM","pc":1,"pc_name":"Chikkodi","ac":3,"ac_name":"Athani","booth":42,"booth_name":"Shri Appayya Swami Kannada Primary School, South Room, Aigali"},"geometry":{"type":"Point","coordinates":[75.09412,16.7145729]}},{"type":"Feature","properties":{"state":"Karnataka","district":1,"district_n":"BELGAUM","pc":1,"pc_name":"Chikkodi","ac":3,"ac_name":"Athani","booth":44,"booth_name":"Govt Higher Primary Kannada Kannada School, School, Western Room, Aigali"},"geometry":{"type":"Point","coordinates":[75.09412,16.7145729]}},{"type":"Feature","properties":{"state":"Karnataka","district":1,"district_n":"BELGAUM","pc":1,"pc_name":"Chikkodi","ac":3,"ac_name":"Athani","booth":71,"booth_name":"S S Girls High School, East Room, Athani"},"geometry":{"type":"Point","coordinates":[75.0572357,16.7260075]}},{"type":"Feature","properties":{"state":"Karnataka","district":1,"district_n":"BELGAUM","pc":1,"pc_name":"Chikkodi","ac":3,"ac_name":"Athani","booth":78,"booth_name":"Govt Kannada Lower Primary School, Waddratti (athani)"},"geometry":{"type":"Point","coordinates":[74.995636,16.7358]}},{"type":"Feature","properties":{"state":"Karnataka","district":1,"district_n":"BELGAUM","pc":1,"pc_name":"Chikkodi","ac":3,"ac_name":"Athani","booth":17,"booth_name":"G H Primary Kannada School, Western Room, Bannur"},"geometry":{"type":"Point","coordinates":[75.32575,16.7917614]}},{"type":"Feature","properties":{"state":"Karnataka","district":1,"district_n":"BELGAUM","pc":1,"pc_name":"Chikkodi","ac":3,"ac_name":"Athani","booth":26,"booth_name":"Govt H P Kannada Boys School, (old Building) North Room, Telsang"},"geometry":{"type":"Point","coordinates":[75.32575,16.7917614]}},{"type":"Feature","properties":{"state":"Karnataka","district":1,"district_n":"BELGAUM","pc":1,"pc_name":"Chikkodi","ac":3,"ac_name":"Athani","booth":51,"booth_name":"Agriculture Producing Market Committee Office Room, Athani"},"geometry":{"type":"Point","coordinates":[75.0771561,16.72858]}},{"type":"Feature","properties":{"state":"Karnataka","district":1,"district_n":"BELGAUM","pc":1,"pc_name":"Chikkodi","ac":3,"ac_name":"Athani","booth":60,"booth_name":"Abdul Kalam High School, South Room Athani"},"geometry":{"type":"Point","coordinates":[75.06254,16.72513]}},{"type":"Feature","properties":{"state":"Karnataka","district":1,"district_n":"BELGAUM","pc":1,"pc_name":"Chikkodi","ac":3,"ac_name":"Athani","booth":85,"booth_name":"Govt H P Kannada Kannada School, Eastern Room, Chikkatti (athani Rural)"},"geometry":{"type":"Point","coordinates":[75.03253,16.6460037]}},{"type":"Feature","properties":{"state":"Karnataka","district":1,"district_n":"BELGAUM","pc":1,"pc_name":"Chikkodi","ac":3,"ac_name":"Athani","booth":94,"booth_name":"Govt H P Kannada Kannada School, School, Western Room, Tangadi"},"geometry":{"type":"Point","coordinates":[74.995636,16.7351112]}},{"type":"Feature","properties":{"state":"Karnataka","district":1,"district_n":"BELGAUM","pc":1,"pc_name":"Chikkodi","ac":3,"ac_name":"Athani","booth":119,"booth_name":"Govt H P K School North Side New Building, Nandagaon"},"geometry":{"type":"Point","coordinates":[75.09012,16.6587543]}},{"type":"Feature","properties":{"state":"Karnataka","district":1,"district_n":"BELGAUM","pc":1,"pc_name":"Chikkodi","ac":3,"ac_name":"Athani","booth":114,"booth_name":"Govt H P Kannada School, North Room, Halalli"},"geometry":{"type":"Point","coordinates":[75.32566,16.7742748]}},{"type":"Feature","properties":{"state":"Karnataka","district":1,"district_n":"BELGAUM","pc":1,"pc_name":"Chikkodi","ac":3,"ac_name":"Athani","booth":116,"booth_name":"Govt H P Kannada School, Western Side Room No 2, 2, Ghatanatti"},"geometry":{"type":"Point","coordinates":[75.13854,16.7063122]}},{"type":"Feature","properties":{"state":"Karnataka","district":1,"district_n":"BELGAUM","pc":1,"pc_name":"Chikkodi","ac":3,"ac_name":"Athani","booth":150,"booth_name":"Govt H P K School, Eastern Room, Balwad"},"geometry":{"type":"Point","coordinates":[75.1313,16.71642]}},{"type":"Feature","properties":{"state":"Karnataka","district":1,"district_n":"BELGAUM","pc":1,"pc_name":"Chikkodi","ac":3,"ac_name":"Athani","booth":163,"booth_name":"Govt Kannada H P School, Room No No 1 Western Room, Radderahatti"},"geometry":{"type":"Point","coordinates":[75.0614,16.6263084]}},{"type":"Feature","properties":{"state":"Karnataka","district":1,"district_n":"BELGAUM","pc":1,"pc_name":"Chikkodi","ac":3,"ac_name":"Athani","booth":165,"booth_name":"Govt Govt Kannada H P School Room No 4 Radderahatti"},"geometry":{"type":"Point","coordinates":[75.0614,16.6263084]}},{"type":"Feature","properties":{"state":"Karnataka","district":1,"district_n":"BELGAUM","pc":1,"pc_name":"Chikkodi","ac":3,"ac_name":"Athani","booth":180,"booth_name":"Govt Kannada H Primary School New Building (kudanhalla) Shegunshi"},"geometry":{"type":"Point","coordinates":[75.059166,16.6695671]}},{"type":"Feature","properties":{"state":"Karnataka","district":1,"district_n":"BELGAUM","pc":1,"pc_name":"Chikkodi","ac":3,"ac_name":"Athani","booth":136,"booth_name":"Govt Kannada H P School, Eatern Room, Nadi Ingalgaon"},"geometry":{"type":"Point","coordinates":[75.03253,16.6460037]}},{"type":"Feature","properties":{"state":"Karnataka","district":1,"district_n":"BELGAUM","pc":1,"pc_name":"Chikkodi","ac":3,"ac_name":"Athani","booth":143,"booth_name":"Govt Govt Kannada H Primary School, New Building South Room, Darur"},"geometry":{"type":"Point","coordinates":[75.03253,16.6460037]}},{"type":"Feature","properties":{"state":"Karnataka","district":1,"district_n":"BELGAUM","pc":1,"pc_name":"Chikkodi","ac":3,"ac_name":"Athani","booth":179,"booth_name":"Govt Kannada H Primary School, North Room, Shegunshi"},"geometry":{"type":"Point","coordinates":[75.07537,16.570509]}},{"type":"Feature","properties":{"state":"Karnataka","district":1,"district_n":"BELGAUM","pc":1,"pc_name":"Chikkodi","ac":3,"ac_name":"Athani","booth":186,"booth_name":"Govt Govt Urdu Hogher Primary school, South Room, Janwad"},"geometry":{"type":"Point","coordinates":[75.16809,16.5313568]}},{"type":"Feature","properties":{"state":"Karnataka","district":1,"district_n":"BELGAUM","pc":1,"pc_name":"Chikkodi","ac":3,"ac_name":"Athani","booth":131,"booth_name":"Govt Kannada Higher Primary Boys School, Southern Building Room No 1, Halyal"},"geometry":{"type":"Point","coordinates":[75.03013,16.6533527]}},{"type":"Feature","properties":{"state":"Karnataka","district":1,"district_n":"BELGAUM","pc":1,"pc_name":"Chikkodi","ac":3,"ac_name":"Athani","booth":133,"booth_name":"Govt Govt H P Kannada School, Eastern Room, Teerth"},"geometry":{"type":"Point","coordinates":[74.88578,16.6512451]}},{"type":"Feature","properties":{"state":"Karnataka","district":1,"district_n":"BELGAUM","pc":1,"pc_name":"Chikkodi","ac":3,"ac_name":"Athani","booth":148,"booth_name":"Govt Kannada H Primary School, New Building, East East Room, Naganur Pk"},"geometry":{"type":"Point","coordinates":[75.03013,16.6533527]}},{"type":"Feature","properties":{"state":"Karnataka","district":1,"district_n":"BELGAUM","pc":1,"pc_name":"Chikkodi","ac":3,"ac_name":"Athani","booth":167,"booth_name":"Govt Govt Kannad Higher Primary Girls School South Room New Building Satti"},"geometry":{"type":"Point","coordinates":[75.07537,16.570509]}},{"type":"Feature","properties":{"state":"Karnataka","district":1,"district_n":"BELGAUM","pc":1,"pc_name":"Chikkodi","ac":3,"ac_name":"Athani","booth":182,"booth_name":"Govt Kannada H Primary School, New Building Eastern Room, Nandeshwar"},"geometry":{"type":"Point","coordinates":[75.14645,16.5507736]}},{"type":"Feature","properties":{"state":"Karnataka","district":1,"district_n":"BELGAUM","pc":1,"pc_name":"Chikkodi","ac":3,"ac_name":"Athani","booth":128,"booth_name":"Govt Govt H P School, Old Old Building Building Middle Room, Hulagabali"},"geometry":{"type":"Point","coordinates":[75.03253,16.6460037]}},{"type":"Feature","properties":{"state":"Karnataka","district":1,"district_n":"BELGAUM","pc":1,"pc_name":"Chikkodi","ac":3,"ac_name":"Athani","booth":153,"booth_name":"Govt H P K K School, New Building, Shirahatti"},"geometry":{"type":"Point","coordinates":[75.2411346,16.5956573]}},{"type":"Feature","properties":{"state":"Karnataka","district":1,"district_n":"BELGAUM","pc":1,"pc_name":"Chikkodi","ac":3,"ac_name":"Athani","booth":162,"booth_name":"Govt Kannada H H P School, New Building, Building, Dodawad"},"geometry":{"type":"Point","coordinates":[75.0614,16.6263084]}},{"type":"Feature","properties":{"state":"Karnataka","district":1,"district_n":"BELGAUM","pc":1,"pc_name":"Chikkodi","ac":3,"ac_name":"Athani","booth":187,"booth_name":"Govt Kannada H Primary School, Eastern Room, Mahishwadagi"},"geometry":{"type":"Point","coordinates":[75.14645,16.5507736]}},{"type":"Feature","properties":{"state":"Karnataka","district":1,"district_n":"BELGAUM","pc":1,"pc_name":"Chikkodi","ac":3,"ac_name":"Athani","booth":101,"booth_name":"Govt Kannada H P School School West Room, Room, Kokatanur"},"geometry":{"type":"Point","coordinates":[75.21728,16.4969387]}},{"type":"Feature","properties":{"state":"Karnataka","district":1,"district_n":"BELGAUM","pc":1,"pc_name":"Chikkodi","ac":3,"ac_name":"Athani","booth":144,"booth_name":"Govt Kannada H Primary School, Western Western Room, Darur"},"geometry":{"type":"Point","coordinates":[75.03253,16.6460037]}},{"type":"Feature","properties":{"state":"Karnataka","district":1,"district_n":"BELGAUM","pc":1,"pc_name":"Chikkodi","ac":3,"ac_name":"Athani","booth":171,"booth_name":"Govt Kannada L Primary Primary School, Gayakawad Tot South Room, (gayakawad tota), Satti"},"geometry":{"type":"Point","coordinates":[75.0614,16.6263084]}},{"type":"Feature","properties":{"state":"Karnataka","district":1,"district_n":"BELGAUM","pc":1,"pc_name":"Chikkodi","ac":3,"ac_name":"Athani","booth":178,"booth_name":"Govt Kannada H Primary School, Old Building, Shegunshi"},"geometry":{"type":"Point","coordinates":[75.07537,16.570509]}},{"type":"Feature","properties":{"state":"Karnataka","district":1,"district_n":"BELGAUM","pc":1,"pc_name":"Chikkodi","ac":3,"ac_name":"Athani","booth":7,"booth_name":"Govt Higher Primary Primary Kannad School, New Building, Building, Room No 1,ramateerth"},"geometry":{"type":"Point","coordinates":[75.284874,16.8515415]}},{"type":"Feature","properties":{"state":"Karnataka","district":1,"district_n":"BELGAUM","pc":1,"pc_name":"Chikkodi","ac":3,"ac_name":"Athani","booth":8,"booth_name":"Govt Govt Kannad Lower Boys School, South Room, New Building, Siddeshwar Tota, Kottalagi"},"geometry":{"type":"Point","coordinates":[75.3041458,16.9025116]}},{"type":"Feature","properties":{"state":"Karnataka","district":1,"district_n":"BELGAUM","pc":1,"pc_name":"Chikkodi","ac":3,"ac_name":"Athani","booth":21,"booth_name":"Govt H Primary Kannada School, East Room No No 1, Kohalli"},"geometry":{"type":"Point","coordinates":[75.31209,16.76804]}},{"type":"Feature","properties":{"state":"Karnataka","district":1,"district_n":"BELGAUM","pc":1,"pc_name":"Chikkodi","ac":3,"ac_name":"Athani","booth":22,"booth_name":"Govt H Primary Kannada School, West Room, Kohalli"},"geometry":{"type":"Point","coordinates":[75.31209,16.76804]}},{"type":"Feature","properties":{"state":"Karnataka","district":1,"district_n":"BELGAUM","pc":1,"pc_name":"Chikkodi","ac":3,"ac_name":"Athani","booth":57,"booth_name":"Shri Shri Murgendra Shivagogi Ded College, Near Siddeshwar Agasi, East Room, Athani"},"geometry":{"type":"Point","coordinates":[75.0771561,16.72858]}},{"type":"Feature","properties":{"state":"Karnataka","district":1,"district_n":"BELGAUM","pc":1,"pc_name":"Chikkodi","ac":3,"ac_name":"Athani","booth":58,"booth_name":"Govt Govt Higher Primary School Bijapur Road, Ambedakar Circle Athani"},"geometry":{"type":"Point","coordinates":[75.06254,16.725132]}},{"type":"Feature","properties":{"state":"Karnataka","district":1,"district_n":"BELGAUM","pc":1,"pc_name":"Chikkodi","ac":3,"ac_name":"Athani","booth":72,"booth_name":"Govt H Primary School, Eastern Room, Vikrampur Athani"},"geometry":{"type":"Point","coordinates":[75.0572357,16.7260075]}},{"type":"Feature","properties":{"state":"Karnataka","district":1,"district_n":"BELGAUM","pc":1,"pc_name":"Chikkodi","ac":3,"ac_name":"Athani","booth":107,"booth_name":"Govt H P Kannada School, New Building, North Room, Yallammanawadi (kokatanur)"},"geometry":{"type":"Point","coordinates":[75.2427,16.6190968]}},{"type":"Feature","properties":{"state":"Karnataka","district":1,"district_n":"BELGAUM","pc":1,"pc_name":"Chikkodi","ac":3,"ac_name":"Athani","booth":108,"booth_name":"Govt H P Kannada School, East Room, Suttatti (kokatanur)"},"geometry":{"type":"Point","coordinates":[75.2427,16.6190968]}},{"type":"Feature","properties":{"state":"Karnataka","district":1,"district_n":"BELGAUM","pc":1,"pc_name":"Chikkodi","ac":3,"ac_name":"Athani","booth":122,"booth_name":"Govt Govt Higher Primary Kannada School, East East Room,new building Kodaganur"},"geometry":{"type":"Point","coordinates":[75.13854,16.7063122]}},{"type":"Feature","properties":{"state":"Karnataka","district":1,"district_n":"BELGAUM","pc":1,"pc_name":"Chikkodi","ac":3,"ac_name":"Athani","booth":157,"booth_name":"Govt H P Kannada Boys School, Zunjurwad"},"geometry":{"type":"Point","coordinates":[75.25981,16.56714]}},{"type":"Feature","properties":{"state":"Karnataka","district":1,"district_n":"BELGAUM","pc":1,"pc_name":"Chikkodi","ac":3,"ac_name":"Athani","booth":158,"booth_name":"Govt Kannada H Primary School Eastern Room, Sankratti"},"geometry":{"type":"Point","coordinates":[75.06682,16.666399]}},{"type":"Feature","properties":{"state":"Karnataka","district":1,"district_n":"BELGAUM","pc":1,"pc_name":"Chikkodi","ac":3,"ac_name":"Athani","booth":172,"booth_name":"Govt Lower Urdu Primary School, Savadi"},"geometry":{"type":"Point","coordinates":[75.12717,16.577343]}}]}