{"type":"FeatureCollection","features":[{"type":"Feature","properties":{"state":"Karnataka","district":35,"district_n":"YADGIR","pc":6,"pc_name":"Raichur","ac":36,"ac_name":"Shorapur","booth":228,"booth_name":"Govt Govt Lower Primary School Banadoddi Kakkera"},"geometry":{"type":"Point","coordinates":[76.5993652,16.3481255]}},{"type":"Feature","properties":{"state":"Karnataka","district":35,"district_n":"YADGIR","pc":6,"pc_name":"Raichur","ac":36,"ac_name":"Shorapur","booth":229,"booth_name":"Govt Govt Lower Primary School (right Wing) 'manjalapur"},"geometry":{"type":"Point","coordinates":[76.5946655,16.4139614]}},{"type":"Feature","properties":{"state":"Karnataka","district":35,"district_n":"YADGIR","pc":6,"pc_name":"Raichur","ac":36,"ac_name":"Shorapur","booth":231,"booth_name":"Govt Lower Primary School Budanoor Doddi"},"geometry":{"type":"Point","coordinates":[76.54564,16.3901882]}},{"type":"Feature","properties":{"state":"Karnataka","district":35,"district_n":"YADGIR","pc":6,"pc_name":"Raichur","ac":36,"ac_name":"Shorapur","booth":232,"booth_name":"Govt Govt Higher Primary School Ningapur"},"geometry":{"type":"Point","coordinates":[76.5707245,16.4136829]}},{"type":"Feature","properties":{"state":"Karnataka","district":35,"district_n":"YADGIR","pc":6,"pc_name":"Raichur","ac":36,"ac_name":"Shorapur","booth":233,"booth_name":"Govt Govt Lower primary School Hosur Pai Doddi Kakkera"},"geometry":{"type":"Point","coordinates":[76.57258,16.3521862]}},{"type":"Feature","properties":{"state":"Karnataka","district":35,"district_n":"YADGIR","pc":6,"pc_name":"Raichur","ac":36,"ac_name":"Shorapur","booth":234,"booth_name":"Govt Lower Primary School Golapalli Doddi Kakkera"},"geometry":{"type":"Point","coordinates":[76.58246,16.352602]}},{"type":"Feature","properties":{"state":"Karnataka","district":35,"district_n":"YADGIR","pc":6,"pc_name":"Raichur","ac":36,"ac_name":"Shorapur","booth":235,"booth_name":"Govt Higher Primary School (right wing) Kakkera Tanda"},"geometry":{"type":"Point","coordinates":[76.55272,16.3782349]}},{"type":"Feature","properties":{"state":"Karnataka","district":35,"district_n":"YADGIR","pc":6,"pc_name":"Raichur","ac":36,"ac_name":"Shorapur","booth":236,"booth_name":"Govt Higher Primary School (left wing) Kakkera Tanda"},"geometry":{"type":"Point","coordinates":[76.55271,16.3782177]}},{"type":"Feature","properties":{"state":"Karnataka","district":35,"district_n":"YADGIR","pc":6,"pc_name":"Raichur","ac":36,"ac_name":"Shorapur","booth":237,"booth_name":"Govt Govt Higher primary School Bailakunti"},"geometry":{"type":"Point","coordinates":[76.49334,16.3544788]}},{"type":"Feature","properties":{"state":"Karnataka","district":35,"district_n":"YADGIR","pc":6,"pc_name":"Raichur","ac":36,"ac_name":"Shorapur","booth":238,"booth_name":"Govt Lower Primary School Toladinni"},"geometry":{"type":"Point","coordinates":[76.49523,16.3702679]}},{"type":"Feature","properties":{"state":"Karnataka","district":35,"district_n":"YADGIR","pc":6,"pc_name":"Raichur","ac":36,"ac_name":"Shorapur","booth":239,"booth_name":"Govt Govt Higher Primary School Bommagudda"},"geometry":{"type":"Point","coordinates":[76.48143,16.35397]}},{"type":"Feature","properties":{"state":"Karnataka","district":35,"district_n":"YADGIR","pc":6,"pc_name":"Raichur","ac":36,"ac_name":"Shorapur","booth":240,"booth_name":"Govt Higher Primary School ( Right Wing) Kodekal"},"geometry":{"type":"Point","coordinates":[76.4031143,16.35033]}},{"type":"Feature","properties":{"state":"Karnataka","district":35,"district_n":"YADGIR","pc":6,"pc_name":"Raichur","ac":36,"ac_name":"Shorapur","booth":241,"booth_name":"Govt Higher Primary School (left Wing) Kodekal"},"geometry":{"type":"Point","coordinates":[76.40361,16.3508186]}},{"type":"Feature","properties":{"state":"Karnataka","district":35,"district_n":"YADGIR","pc":6,"pc_name":"Raichur","ac":36,"ac_name":"Shorapur","booth":242,"booth_name":"Govt Lower Primary School Urdu (right Wing) Kodekal"},"geometry":{"type":"Point","coordinates":[76.40331,16.3503017]}},{"type":"Feature","properties":{"state":"Karnataka","district":35,"district_n":"YADGIR","pc":6,"pc_name":"Raichur","ac":36,"ac_name":"Shorapur","booth":243,"booth_name":"Govt Lower Primary School Urdu (left Wing) Kodekal"},"geometry":{"type":"Point","coordinates":[76.40394,16.3508568]}},{"type":"Feature","properties":{"state":"Karnataka","district":35,"district_n":"YADGIR","pc":6,"pc_name":"Raichur","ac":36,"ac_name":"Shorapur","booth":244,"booth_name":"Govt Govt Junior College New Building Kodekal"},"geometry":{"type":"Point","coordinates":[76.3987045,16.3539543]}},{"type":"Feature","properties":{"state":"Karnataka","district":35,"district_n":"YADGIR","pc":6,"pc_name":"Raichur","ac":36,"ac_name":"Shorapur","booth":245,"booth_name":"Govt Govt Junior College Old Building Kodekal"},"geometry":{"type":"Point","coordinates":[76.39894,16.3541546]}},{"type":"Feature","properties":{"state":"Karnataka","district":35,"district_n":"YADGIR","pc":6,"pc_name":"Raichur","ac":36,"ac_name":"Shorapur","booth":246,"booth_name":"Govt Lower Primary School Uppal Dinni"},"geometry":{"type":"Point","coordinates":[76.3868561,16.3625813]}},{"type":"Feature","properties":{"state":"Karnataka","district":35,"district_n":"YADGIR","pc":6,"pc_name":"Raichur","ac":36,"ac_name":"Shorapur","booth":247,"booth_name":"Govt Higher Primary School (old Building) Kurekanal"},"geometry":{"type":"Point","coordinates":[76.3503342,16.3264313]}},{"type":"Feature","properties":{"state":"Karnataka","district":35,"district_n":"YADGIR","pc":6,"pc_name":"Raichur","ac":36,"ac_name":"Shorapur","booth":248,"booth_name":"Govt Lower Primary School Yarkihal"},"geometry":{"type":"Point","coordinates":[76.35067,16.3390789]}},{"type":"Feature","properties":{"state":"Karnataka","district":35,"district_n":"YADGIR","pc":6,"pc_name":"Raichur","ac":36,"ac_name":"Shorapur","booth":249,"booth_name":"Govt Higher Primary School Madalinganal"},"geometry":{"type":"Point","coordinates":[76.32524,16.3479271]}},{"type":"Feature","properties":{"state":"Karnataka","district":35,"district_n":"YADGIR","pc":6,"pc_name":"Raichur","ac":36,"ac_name":"Shorapur","booth":74,"booth_name":"Govt Higher Primary school (left Wing) Waganagera"},"geometry":{"type":"Point","coordinates":[76.4642639,16.4936657]}},{"type":"Feature","properties":{"state":"Karnataka","district":35,"district_n":"YADGIR","pc":6,"pc_name":"Raichur","ac":36,"ac_name":"Shorapur","booth":75,"booth_name":"Govt Higher Primary school 1st std Room Waganagera"},"geometry":{"type":"Point","coordinates":[76.46452,16.4936829]}},{"type":"Feature","properties":{"state":"Karnataka","district":35,"district_n":"YADGIR","pc":6,"pc_name":"Raichur","ac":36,"ac_name":"Shorapur","booth":76,"booth_name":"Govt Govt Lower Primary School Talawaragera"},"geometry":{"type":"Point","coordinates":[76.45092,16.4905052]}},{"type":"Feature","properties":{"state":"Karnataka","district":35,"district_n":"YADGIR","pc":6,"pc_name":"Raichur","ac":36,"ac_name":"Shorapur","booth":78,"booth_name":"Anand Vidyalaya Higher Primary School(left Wing) Shorapur"},"geometry":{"type":"Point","coordinates":[76.4508362,16.49033]}},{"type":"Feature","properties":{"state":"Karnataka","district":35,"district_n":"YADGIR","pc":6,"pc_name":"Raichur","ac":36,"ac_name":"Shorapur","booth":79,"booth_name":"Govt Higher Primary School Shamshirapur Shorapur"},"geometry":{"type":"Point","coordinates":[76.62532,16.5075111]}},{"type":"Feature","properties":{"state":"Karnataka","district":35,"district_n":"YADGIR","pc":6,"pc_name":"Raichur","ac":36,"ac_name":"Shorapur","booth":80,"booth_name":"Govt Lower Primary School Police Colony Shorapur"},"geometry":{"type":"Point","coordinates":[76.69884,16.5203133]}},{"type":"Feature","properties":{"state":"Karnataka","district":35,"district_n":"YADGIR","pc":6,"pc_name":"Raichur","ac":36,"ac_name":"Shorapur","booth":81,"booth_name":"Govt Lower Primary School Mallibhavi"},"geometry":{"type":"Point","coordinates":[76.69886,16.52032]}},{"type":"Feature","properties":{"state":"Karnataka","district":35,"district_n":"YADGIR","pc":6,"pc_name":"Raichur","ac":36,"ac_name":"Shorapur","booth":82,"booth_name":"Office of the A D D Agriculture Shorapur"},"geometry":{"type":"Point","coordinates":[76.70635,16.515995]}},{"type":"Feature","properties":{"state":"Karnataka","district":35,"district_n":"YADGIR","pc":6,"pc_name":"Raichur","ac":36,"ac_name":"Shorapur","booth":83,"booth_name":"Town Muncipal Council Office Shorapur"},"geometry":{"type":"Point","coordinates":[76.75254,16.5151482]}},{"type":"Feature","properties":{"state":"Karnataka","district":35,"district_n":"YADGIR","pc":6,"pc_name":"Raichur","ac":36,"ac_name":"Shorapur","booth":84,"booth_name":"Govt Library Near T M C Office Shorapur"},"geometry":{"type":"Point","coordinates":[76.75254,16.515295]}},{"type":"Feature","properties":{"state":"Karnataka","district":35,"district_n":"YADGIR","pc":6,"pc_name":"Raichur","ac":36,"ac_name":"Shorapur","booth":85,"booth_name":"Govt Govt Girl Model Primary School ( Hale Darbar)shorapur"},"geometry":{"type":"Point","coordinates":[76.7549057,16.52112]}},{"type":"Feature","properties":{"state":"Karnataka","district":35,"district_n":"YADGIR","pc":6,"pc_name":"Raichur","ac":36,"ac_name":"Shorapur","booth":86,"booth_name":"Govt Higher Primary school (right Wing) Kabadagera Shorapur"},"geometry":{"type":"Point","coordinates":[76.74785,16.5225239]}},{"type":"Feature","properties":{"state":"Karnataka","district":35,"district_n":"YADGIR","pc":6,"pc_name":"Raichur","ac":36,"ac_name":"Shorapur","booth":87,"booth_name":"Govt Higher Primary school (left Wing) Kabadagera Shorapur"},"geometry":{"type":"Point","coordinates":[76.7222443,16.5364037]}},{"type":"Feature","properties":{"state":"Karnataka","district":35,"district_n":"YADGIR","pc":6,"pc_name":"Raichur","ac":36,"ac_name":"Shorapur","booth":88,"booth_name":"Smt Smt Rani Janakidevi Higher Primary School Shorapur"},"geometry":{"type":"Point","coordinates":[76.75532,16.5240784]}},{"type":"Feature","properties":{"state":"Karnataka","district":35,"district_n":"YADGIR","pc":6,"pc_name":"Raichur","ac":36,"ac_name":"Shorapur","booth":197,"booth_name":"Govt Lower primary School ( New Building) Kamanatagi"},"geometry":{"type":"Point","coordinates":[76.1678848,16.4318047]}},{"type":"Feature","properties":{"state":"Karnataka","district":35,"district_n":"YADGIR","pc":6,"pc_name":"Raichur","ac":36,"ac_name":"Shorapur","booth":198,"booth_name":"Govt Govt Lower Primary School Horahatti"},"geometry":{"type":"Point","coordinates":[76.5204544,16.3983]}},{"type":"Feature","properties":{"state":"Karnataka","district":35,"district_n":"YADGIR","pc":6,"pc_name":"Raichur","ac":36,"ac_name":"Shorapur","booth":199,"booth_name":"Govt Higher Primary School (right wing) Shantapur"},"geometry":{"type":"Point","coordinates":[76.5203,16.3983173]}},{"type":"Feature","properties":{"state":"Karnataka","district":35,"district_n":"YADGIR","pc":6,"pc_name":"Raichur","ac":36,"ac_name":"Shorapur","booth":200,"booth_name":"Govt Higher Primary School (left wing) Shantapur"},"geometry":{"type":"Point","coordinates":[76.3458252,16.3836517]}},{"type":"Feature","properties":{"state":"Karnataka","district":35,"district_n":"YADGIR","pc":6,"pc_name":"Raichur","ac":36,"ac_name":"Shorapur","booth":201,"booth_name":"Govt Govt Higher Primary School Bandolli"},"geometry":{"type":"Point","coordinates":[76.65734,16.3876934]}},{"type":"Feature","properties":{"state":"Karnataka","district":35,"district_n":"YADGIR","pc":6,"pc_name":"Raichur","ac":36,"ac_name":"Shorapur","booth":202,"booth_name":"Govt Govt Higher Primary School (right wing) Tinthini"},"geometry":{"type":"Point","coordinates":[76.6573639,16.3877411]}},{"type":"Feature","properties":{"state":"Karnataka","district":35,"district_n":"YADGIR","pc":6,"pc_name":"Raichur","ac":36,"ac_name":"Shorapur","booth":203,"booth_name":"Govt Govt Higher Primary School (left wing) Tinthini"},"geometry":{"type":"Point","coordinates":[76.6611252,16.37512]}},{"type":"Feature","properties":{"state":"Karnataka","district":35,"district_n":"YADGIR","pc":6,"pc_name":"Raichur","ac":36,"ac_name":"Shorapur","booth":204,"booth_name":"Govt Govt Lower Primary School Dadalapur"},"geometry":{"type":"Point","coordinates":[76.6721,16.3846455]}},{"type":"Feature","properties":{"state":"Karnataka","district":35,"district_n":"YADGIR","pc":6,"pc_name":"Raichur","ac":36,"ac_name":"Shorapur","booth":205,"booth_name":"Govt Higher Primary School Hunasiholli"},"geometry":{"type":"Point","coordinates":[76.67222,16.3846855]}},{"type":"Feature","properties":{"state":"Karnataka","district":35,"district_n":"YADGIR","pc":6,"pc_name":"Raichur","ac":36,"ac_name":"Shorapur","booth":206,"booth_name":"Govt Higher Primary School Lingadalli S K"},"geometry":{"type":"Point","coordinates":[76.6703,16.3817482]}},{"type":"Feature","properties":{"state":"Karnataka","district":35,"district_n":"YADGIR","pc":6,"pc_name":"Raichur","ac":36,"ac_name":"Shorapur","booth":207,"booth_name":"Govt Govt Composite Higher Primary School (east Wing) Balashettihal"},"geometry":{"type":"Point","coordinates":[76.6369858,16.38393]}},{"type":"Feature","properties":{"state":"Karnataka","district":35,"district_n":"YADGIR","pc":6,"pc_name":"Raichur","ac":36,"ac_name":"Shorapur","booth":208,"booth_name":"Govt Composite Higher Primary school ( Left Wing West Direction) Balashettihal"},"geometry":{"type":"Point","coordinates":[76.6229248,16.3669281]}},{"type":"Feature","properties":{"state":"Karnataka","district":35,"district_n":"YADGIR","pc":6,"pc_name":"Raichur","ac":36,"ac_name":"Shorapur","booth":209,"booth_name":"Govt Govt Higher Primary School (right Wing) Rajankollur"},"geometry":{"type":"Point","coordinates":[76.5077744,16.3894081]}},{"type":"Feature","properties":{"state":"Karnataka","district":35,"district_n":"YADGIR","pc":6,"pc_name":"Raichur","ac":36,"ac_name":"Shorapur","booth":210,"booth_name":"Govt Govt Lower Primary School Rajankollur Dodda Tanda"},"geometry":{"type":"Point","coordinates":[76.5079651,16.3894386]}},{"type":"Feature","properties":{"state":"Karnataka","district":35,"district_n":"YADGIR","pc":6,"pc_name":"Raichur","ac":36,"ac_name":"Shorapur","booth":211,"booth_name":"Govt Govt High School ( Left Wing) Rajankollur"},"geometry":{"type":"Point","coordinates":[76.4582748,16.3782]}},{"type":"Feature","properties":{"state":"Karnataka","district":35,"district_n":"YADGIR","pc":6,"pc_name":"Raichur","ac":36,"ac_name":"Shorapur","booth":212,"booth_name":"Govt Govt High School ( Right Wing) Rajankollur"},"geometry":{"type":"Point","coordinates":[76.44743,16.367754]}},{"type":"Feature","properties":{"state":"Karnataka","district":35,"district_n":"YADGIR","pc":6,"pc_name":"Raichur","ac":36,"ac_name":"Shorapur","booth":213,"booth_name":"Govt Govt Lower Primary School Ukp Camp (right Wing) Rajankollur"},"geometry":{"type":"Point","coordinates":[76.4596939,16.37561]}},{"type":"Feature","properties":{"state":"Karnataka","district":35,"district_n":"YADGIR","pc":6,"pc_name":"Raichur","ac":36,"ac_name":"Shorapur","booth":214,"booth_name":"Govt Lower Primary School Ukp Camp( Left Wing) Rajankollur"},"geometry":{"type":"Point","coordinates":[76.45958,16.3759575]}},{"type":"Feature","properties":{"state":"Karnataka","district":35,"district_n":"YADGIR","pc":6,"pc_name":"Raichur","ac":36,"ac_name":"Shorapur","booth":215,"booth_name":"Govt Higher Primary School Tirtha"},"geometry":{"type":"Point","coordinates":[76.46409,16.37545]}},{"type":"Feature","properties":{"state":"Karnataka","district":35,"district_n":"YADGIR","pc":6,"pc_name":"Raichur","ac":36,"ac_name":"Shorapur","booth":216,"booth_name":"Govt Higher Primary School (right Wing) Boodihal"},"geometry":{"type":"Point","coordinates":[76.45849,16.37391]}},{"type":"Feature","properties":{"state":"Karnataka","district":35,"district_n":"YADGIR","pc":6,"pc_name":"Raichur","ac":36,"ac_name":"Shorapur","booth":217,"booth_name":"Govt Higher Primary School (left Wing) Boodihal"},"geometry":{"type":"Point","coordinates":[76.43909,16.36736]}},{"type":"Feature","properties":{"state":"Karnataka","district":35,"district_n":"YADGIR","pc":6,"pc_name":"Raichur","ac":36,"ac_name":"Shorapur","booth":218,"booth_name":"Govt Higher Primary School (new Building) ( Right Wing) Kakkera"},"geometry":{"type":"Point","coordinates":[76.39252,16.3798828]}},{"type":"Feature","properties":{"state":"Karnataka","district":35,"district_n":"YADGIR","pc":6,"pc_name":"Raichur","ac":36,"ac_name":"Shorapur","booth":219,"booth_name":"Govt Higher Primary School N P G E L Room Kakkera"},"geometry":{"type":"Point","coordinates":[76.5891953,16.3862286]}},{"type":"Feature","properties":{"state":"Karnataka","district":35,"district_n":"YADGIR","pc":6,"pc_name":"Raichur","ac":36,"ac_name":"Shorapur","booth":220,"booth_name":"Govt Higher Primary School New Building (left Wing) Kakkera"},"geometry":{"type":"Point","coordinates":[76.58894,16.3861217]}},{"type":"Feature","properties":{"state":"Karnataka","district":35,"district_n":"YADGIR","pc":6,"pc_name":"Raichur","ac":36,"ac_name":"Shorapur","booth":221,"booth_name":"Govt Higher Primary School 4th std Room Kakkera"},"geometry":{"type":"Point","coordinates":[76.58936,16.3862114]}},{"type":"Feature","properties":{"state":"Karnataka","district":35,"district_n":"YADGIR","pc":6,"pc_name":"Raichur","ac":36,"ac_name":"Shorapur","booth":222,"booth_name":"Govt Govt Higher Primary School (new Building) Kakkera"},"geometry":{"type":"Point","coordinates":[76.59015,16.3860683]}},{"type":"Feature","properties":{"state":"Karnataka","district":35,"district_n":"YADGIR","pc":6,"pc_name":"Raichur","ac":36,"ac_name":"Shorapur","booth":223,"booth_name":"Grama Panchayat Office (old Building) Kakkera"},"geometry":{"type":"Point","coordinates":[76.5908051,16.3866634]}},{"type":"Feature","properties":{"state":"Karnataka","district":35,"district_n":"YADGIR","pc":6,"pc_name":"Raichur","ac":36,"ac_name":"Shorapur","booth":224,"booth_name":"Govt Higher Primary School 6th std Room Kakkera"},"geometry":{"type":"Point","coordinates":[76.65652,16.3898525]}},{"type":"Feature","properties":{"state":"Karnataka","district":35,"district_n":"YADGIR","pc":6,"pc_name":"Raichur","ac":36,"ac_name":"Shorapur","booth":226,"booth_name":"Govt Govt Lower Primary School (main Raod) Peergar Doddi Kakkera"},"geometry":{"type":"Point","coordinates":[76.62408,16.3847351]}},{"type":"Feature","properties":{"state":"Karnataka","district":35,"district_n":"YADGIR","pc":6,"pc_name":"Raichur","ac":36,"ac_name":"Shorapur","booth":227,"booth_name":"Govt Govt Lower Primary School Malamutteravara Doddi Kakkera"},"geometry":{"type":"Point","coordinates":[76.62291,16.3669014]}},{"type":"Feature","properties":{"state":"Karnataka","district":35,"district_n":"YADGIR","pc":6,"pc_name":"Raichur","ac":36,"ac_name":"Shorapur","booth":250,"booth_name":"Govt Higher Primary School Govt Govt Higher Primary School Bardevanal"},"geometry":{"type":"Point","coordinates":[76.37524,16.3420353]}},{"type":"Feature","properties":{"state":"Karnataka","district":35,"district_n":"YADGIR","pc":6,"pc_name":"Raichur","ac":36,"ac_name":"Shorapur","booth":251,"booth_name":"Govt Govt Lower Primary School Ramnagar Tanda (baradevanal)"},"geometry":{"type":"Point","coordinates":[76.3702,16.3152122]}},{"type":"Feature","properties":{"state":"Karnataka","district":35,"district_n":"YADGIR","pc":6,"pc_name":"Raichur","ac":36,"ac_name":"Shorapur","booth":252,"booth_name":"Govt Lower Primary School Dasaragot"},"geometry":{"type":"Point","coordinates":[76.42231,16.3506145]}},{"type":"Feature","properties":{"state":"Karnataka","district":35,"district_n":"YADGIR","pc":6,"pc_name":"Raichur","ac":36,"ac_name":"Shorapur","booth":253,"booth_name":"Govt Lower Primary School Rayanpala"},"geometry":{"type":"Point","coordinates":[76.43691,16.3545628]}},{"type":"Feature","properties":{"state":"Karnataka","district":35,"district_n":"YADGIR","pc":6,"pc_name":"Raichur","ac":36,"ac_name":"Shorapur","booth":254,"booth_name":"Govt Govt Higher Primary School Sonnapur Tanda"},"geometry":{"type":"Point","coordinates":[76.53703,16.3547688]}},{"type":"Feature","properties":{"state":"Karnataka","district":35,"district_n":"YADGIR","pc":6,"pc_name":"Raichur","ac":36,"ac_name":"Shorapur","booth":255,"booth_name":"Govt Lower Primary School Sonnapur"},"geometry":{"type":"Point","coordinates":[76.53065,16.3564453]}},{"type":"Feature","properties":{"state":"Karnataka","district":35,"district_n":"YADGIR","pc":6,"pc_name":"Raichur","ac":36,"ac_name":"Shorapur","booth":257,"booth_name":"Govt Govt Higher Primary School Yadalabhavi"},"geometry":{"type":"Point","coordinates":[76.5494843,16.3401489]}},{"type":"Feature","properties":{"state":"Karnataka","district":35,"district_n":"YADGIR","pc":6,"pc_name":"Raichur","ac":36,"ac_name":"Shorapur","booth":258,"booth_name":"Govt Govt Lower Primary School Rajwal"},"geometry":{"type":"Point","coordinates":[76.47663,16.3369045]}},{"type":"Feature","properties":{"state":"Karnataka","district":35,"district_n":"YADGIR","pc":6,"pc_name":"Raichur","ac":36,"ac_name":"Shorapur","booth":259,"booth_name":"Govt Govt Lower Primary School Kadadral"},"geometry":{"type":"Point","coordinates":[76.486,16.33538]}},{"type":"Feature","properties":{"state":"Karnataka","district":35,"district_n":"YADGIR","pc":6,"pc_name":"Raichur","ac":36,"ac_name":"Shorapur","booth":260,"booth_name":"Govt Higher Primary School Rajwal Tanda"},"geometry":{"type":"Point","coordinates":[76.44825,16.3488541]}},{"type":"Feature","properties":{"state":"Karnataka","district":35,"district_n":"YADGIR","pc":6,"pc_name":"Raichur","ac":36,"ac_name":"Shorapur","booth":261,"booth_name":"Govt Higher Primary School (left Wing) Yannivadeger"},"geometry":{"type":"Point","coordinates":[76.31977,16.3051338]}},{"type":"Feature","properties":{"state":"Karnataka","district":35,"district_n":"YADGIR","pc":6,"pc_name":"Raichur","ac":36,"ac_name":"Shorapur","booth":262,"booth_name":"Govt Higher Primary School (right Wing) Yannivadeger"},"geometry":{"type":"Point","coordinates":[76.31974,16.3051167]}},{"type":"Feature","properties":{"state":"Karnataka","district":35,"district_n":"YADGIR","pc":6,"pc_name":"Raichur","ac":36,"ac_name":"Shorapur","booth":263,"booth_name":"Govt Higher Primary School Marnal"},"geometry":{"type":"Point","coordinates":[76.34826,16.3196735]}},{"type":"Feature","properties":{"state":"Karnataka","district":35,"district_n":"YADGIR","pc":6,"pc_name":"Raichur","ac":36,"ac_name":"Shorapur","booth":264,"booth_name":"Govt Higher Primary School Marnala Dodda Tanda"},"geometry":{"type":"Point","coordinates":[76.3614,16.319849]}},{"type":"Feature","properties":{"state":"Karnataka","district":35,"district_n":"YADGIR","pc":6,"pc_name":"Raichur","ac":36,"ac_name":"Shorapur","booth":265,"booth_name":"Govt Lower Primary School Benchigaddi"},"geometry":{"type":"Point","coordinates":[76.5614548,16.3362637]}},{"type":"Feature","properties":{"state":"Karnataka","district":35,"district_n":"YADGIR","pc":6,"pc_name":"Raichur","ac":36,"ac_name":"Shorapur","booth":273,"booth_name":"Govt Higher Primary School (left Wing) Jumalapur Dodda Tanda"},"geometry":{"type":"Point","coordinates":[76.46697,16.3051472]}},{"type":"Feature","properties":{"state":"Karnataka","district":35,"district_n":"YADGIR","pc":6,"pc_name":"Raichur","ac":36,"ac_name":"Shorapur","booth":274,"booth_name":"Govt Govt Lower Primary School Jumalapur"},"geometry":{"type":"Point","coordinates":[76.46697,16.3051376]}},{"type":"Feature","properties":{"state":"Karnataka","district":35,"district_n":"YADGIR","pc":6,"pc_name":"Raichur","ac":36,"ac_name":"Shorapur","booth":275,"booth_name":"Govt Lower Primary School, Building Ammapur S K"},"geometry":{"type":"Point","coordinates":[76.42964,16.2929783]}},{"type":"Feature","properties":{"state":"Karnataka","district":35,"district_n":"YADGIR","pc":6,"pc_name":"Raichur","ac":36,"ac_name":"Shorapur","booth":276,"booth_name":"Govt Lower Primary School Hullikera"},"geometry":{"type":"Point","coordinates":[76.42132,16.31444]}},{"type":"Feature","properties":{"state":"Karnataka","district":35,"district_n":"YADGIR","pc":6,"pc_name":"Raichur","ac":36,"ac_name":"Shorapur","booth":277,"booth_name":"Govt Higher Primary School Hanamasagar"},"geometry":{"type":"Point","coordinates":[76.4497452,16.308527]}},{"type":"Feature","properties":{"state":"Karnataka","district":35,"district_n":"YADGIR","pc":6,"pc_name":"Raichur","ac":36,"ac_name":"Shorapur","booth":278,"booth_name":"Govt Higher Primary School Rayanagola"},"geometry":{"type":"Point","coordinates":[76.40393,16.2886925]}},{"type":"Feature","properties":{"state":"Karnataka","district":35,"district_n":"YADGIR","pc":6,"pc_name":"Raichur","ac":36,"ac_name":"Shorapur","booth":279,"booth_name":"Govt Govt Higher Primary School 4th Class Narayanapur"},"geometry":{"type":"Point","coordinates":[76.37915,16.2578163]}},{"type":"Feature","properties":{"state":"Karnataka","district":35,"district_n":"YADGIR","pc":6,"pc_name":"Raichur","ac":36,"ac_name":"Shorapur","booth":280,"booth_name":"Govt Govt Higher Primary School 7th Class Narayanapur"},"geometry":{"type":"Point","coordinates":[76.37915,16.25777]}},{"type":"Feature","properties":{"state":"Karnataka","district":35,"district_n":"YADGIR","pc":6,"pc_name":"Raichur","ac":36,"ac_name":"Shorapur","booth":281,"booth_name":"Govt Higher Primary School Ukp Camp (right Wing) Narayanapur"},"geometry":{"type":"Point","coordinates":[76.3686,16.25596]}},{"type":"Feature","properties":{"state":"Karnataka","district":35,"district_n":"YADGIR","pc":6,"pc_name":"Raichur","ac":36,"ac_name":"Shorapur","booth":1,"booth_name":"Govt Higher Primary School (right Wing) Mudanoor B"},"geometry":{"type":"Point","coordinates":[76.48675,16.60276]}},{"type":"Feature","properties":{"state":"Karnataka","district":35,"district_n":"YADGIR","pc":6,"pc_name":"Raichur","ac":36,"ac_name":"Shorapur","booth":2,"booth_name":"Govt Higher Primary School (lift Wing) Mudanoor B"},"geometry":{"type":"Point","coordinates":[76.48669,16.6029758]}},{"type":"Feature","properties":{"state":"Karnataka","district":35,"district_n":"YADGIR","pc":6,"pc_name":"Raichur","ac":36,"ac_name":"Shorapur","booth":3,"booth_name":"Govt Govt Higher Primary School Building Badyapur"},"geometry":{"type":"Point","coordinates":[76.73451,16.60066]}},{"type":"Feature","properties":{"state":"Karnataka","district":35,"district_n":"YADGIR","pc":6,"pc_name":"Raichur","ac":36,"ac_name":"Shorapur","booth":4,"booth_name":"Govt Lower Primary School Building Bairimaddi"},"geometry":{"type":"Point","coordinates":[76.74668,16.5758877]}},{"type":"Feature","properties":{"state":"Karnataka","district":35,"district_n":"YADGIR","pc":6,"pc_name":"Raichur","ac":36,"ac_name":"Shorapur","booth":5,"booth_name":"Govt Govt High Primary School Building Mudanoor K"},"geometry":{"type":"Point","coordinates":[76.49073,16.6010742]}},{"type":"Feature","properties":{"state":"Karnataka","district":35,"district_n":"YADGIR","pc":6,"pc_name":"Raichur","ac":36,"ac_name":"Shorapur","booth":6,"booth_name":"Gram Panchayat Office Mudanoor K"},"geometry":{"type":"Point","coordinates":[76.48951,16.6035938]}},{"type":"Feature","properties":{"state":"Karnataka","district":35,"district_n":"YADGIR","pc":6,"pc_name":"Raichur","ac":36,"ac_name":"Shorapur","booth":7,"booth_name":"Govt Higher Primary School Building (left Wing) Mudanoor K"},"geometry":{"type":"Point","coordinates":[76.49094,16.6012]}},{"type":"Feature","properties":{"state":"Karnataka","district":35,"district_n":"YADGIR","pc":6,"pc_name":"Raichur","ac":36,"ac_name":"Shorapur","booth":8,"booth_name":"Govt Higher Primary School For Girls Building Mudanoor K"},"geometry":{"type":"Point","coordinates":[76.49086,16.6010952]}},{"type":"Feature","properties":{"state":"Karnataka","district":35,"district_n":"YADGIR","pc":6,"pc_name":"Raichur","ac":36,"ac_name":"Shorapur","booth":9,"booth_name":"Govt Lower Primary School Rampur"},"geometry":{"type":"Point","coordinates":[76.50159,16.595253]}},{"type":"Feature","properties":{"state":"Karnataka","district":35,"district_n":"YADGIR","pc":6,"pc_name":"Raichur","ac":36,"ac_name":"Shorapur","booth":10,"booth_name":"Govt Lower Primary School Building Machagundal"},"geometry":{"type":"Point","coordinates":[76.70585,16.5924759]}},{"type":"Feature","properties":{"state":"Karnataka","district":35,"district_n":"YADGIR","pc":6,"pc_name":"Raichur","ac":36,"ac_name":"Shorapur","booth":11,"booth_name":"Govt Higher Primary School (right Wing) Kudalagi"},"geometry":{"type":"Point","coordinates":[76.56837,16.5764236]}},{"type":"Feature","properties":{"state":"Karnataka","district":35,"district_n":"YADGIR","pc":6,"pc_name":"Raichur","ac":36,"ac_name":"Shorapur","booth":12,"booth_name":"Govt Higher Primary School (left Wing) Kudalagi"},"geometry":{"type":"Point","coordinates":[76.56839,16.57627]}},{"type":"Feature","properties":{"state":"Karnataka","district":35,"district_n":"YADGIR","pc":6,"pc_name":"Raichur","ac":36,"ac_name":"Shorapur","booth":13,"booth_name":"Govt Higher Primary School (right Wing) Devaragonal"},"geometry":{"type":"Point","coordinates":[76.72121,16.573679]}},{"type":"Feature","properties":{"state":"Karnataka","district":35,"district_n":"YADGIR","pc":6,"pc_name":"Raichur","ac":36,"ac_name":"Shorapur","booth":14,"booth_name":"Govt Higher Primary School Building (left Wing) Devaragonal"},"geometry":{"type":"Point","coordinates":[76.72131,16.5737]}},{"type":"Feature","properties":{"state":"Karnataka","district":35,"district_n":"YADGIR","pc":6,"pc_name":"Raichur","ac":36,"ac_name":"Shorapur","booth":15,"booth_name":"Govt Govt Higher Primary School Building Bommanahalli K"},"geometry":{"type":"Point","coordinates":[76.7069855,16.5555344]}},{"type":"Feature","properties":{"state":"Karnataka","district":35,"district_n":"YADGIR","pc":6,"pc_name":"Raichur","ac":36,"ac_name":"Shorapur","booth":16,"booth_name":"Govt Lower Primary School Building Siddapur"},"geometry":{"type":"Point","coordinates":[76.73764,16.5495262]}},{"type":"Feature","properties":{"state":"Karnataka","district":35,"district_n":"YADGIR","pc":6,"pc_name":"Raichur","ac":36,"ac_name":"Shorapur","booth":17,"booth_name":"Govt Govt Lower Primary School Building Shakhapur Sk"},"geometry":{"type":"Point","coordinates":[76.5360947,16.582468]}},{"type":"Feature","properties":{"state":"Karnataka","district":35,"district_n":"YADGIR","pc":6,"pc_name":"Raichur","ac":36,"ac_name":"Shorapur","booth":18,"booth_name":"Govt Govt Lower Primary School Teggelli"},"geometry":{"type":"Point","coordinates":[76.53162,16.5812855]}},{"type":"Feature","properties":{"state":"Karnataka","district":35,"district_n":"YADGIR","pc":6,"pc_name":"Raichur","ac":36,"ac_name":"Shorapur","booth":19,"booth_name":"Govt Govt Higher Primary School Building Yadiyapur"},"geometry":{"type":"Point","coordinates":[76.5437,16.6091766]}},{"type":"Feature","properties":{"state":"Karnataka","district":35,"district_n":"YADGIR","pc":6,"pc_name":"Raichur","ac":36,"ac_name":"Shorapur","booth":20,"booth_name":"Govt Govt Higher Primary School (left Wing) Agni"},"geometry":{"type":"Point","coordinates":[76.46715,16.56434]}},{"type":"Feature","properties":{"state":"Karnataka","district":35,"district_n":"YADGIR","pc":6,"pc_name":"Raichur","ac":36,"ac_name":"Shorapur","booth":21,"booth_name":"Govt Govt Higher Primary School (middle Wing) Agni"},"geometry":{"type":"Point","coordinates":[76.46677,16.5642586]}},{"type":"Feature","properties":{"state":"Karnataka","district":35,"district_n":"YADGIR","pc":6,"pc_name":"Raichur","ac":36,"ac_name":"Shorapur","booth":22,"booth_name":"No 2 Anganawadi Bullding Agni"},"geometry":{"type":"Point","coordinates":[76.46681,16.5642471]}},{"type":"Feature","properties":{"state":"Karnataka","district":35,"district_n":"YADGIR","pc":6,"pc_name":"Raichur","ac":36,"ac_name":"Shorapur","booth":23,"booth_name":"Govt Lower Primary School Agatirtha"},"geometry":{"type":"Point","coordinates":[76.481514,16.56179]}},{"type":"Feature","properties":{"state":"Karnataka","district":35,"district_n":"YADGIR","pc":6,"pc_name":"Raichur","ac":36,"ac_name":"Shorapur","booth":24,"booth_name":"Govt Govt Higher Primary School Building Mavinamatti"},"geometry":{"type":"Point","coordinates":[76.63942,16.571558]}},{"type":"Feature","properties":{"state":"Karnataka","district":35,"district_n":"YADGIR","pc":6,"pc_name":"Raichur","ac":36,"ac_name":"Shorapur","booth":25,"booth_name":"Govt Govt Lower Primary School Chigarihal"},"geometry":{"type":"Point","coordinates":[76.65444,16.5817871]}},{"type":"Feature","properties":{"state":"Karnataka","district":35,"district_n":"YADGIR","pc":6,"pc_name":"Raichur","ac":36,"ac_name":"Shorapur","booth":26,"booth_name":"Govt Govt Higher Primary School Building (right Wing) Baichabal"},"geometry":{"type":"Point","coordinates":[76.56543,16.5557423]}},{"type":"Feature","properties":{"state":"Karnataka","district":35,"district_n":"YADGIR","pc":6,"pc_name":"Raichur","ac":36,"ac_name":"Shorapur","booth":27,"booth_name":"Govt Govt Primary School Building (left Wing) Baichabal"},"geometry":{"type":"Point","coordinates":[76.5654144,16.5564]}},{"type":"Feature","properties":{"state":"Karnataka","district":35,"district_n":"YADGIR","pc":6,"pc_name":"Raichur","ac":36,"ac_name":"Shorapur","booth":28,"booth_name":"Govt Lower Primary School Building"},"geometry":{"type":"Point","coordinates":[76.4306946,16.5475731]}},{"type":"Feature","properties":{"state":"Karnataka","district":35,"district_n":"YADGIR","pc":6,"pc_name":"Raichur","ac":36,"ac_name":"Shorapur","booth":29,"booth_name":"Govt Higher Primary School Building"},"geometry":{"type":"Point","coordinates":[76.4342041,16.5837688]}},{"type":"Feature","properties":{"state":"Karnataka","district":35,"district_n":"YADGIR","pc":6,"pc_name":"Raichur","ac":36,"ac_name":"Shorapur","booth":30,"booth_name":"Govt Govt Composite High School Building"},"geometry":{"type":"Point","coordinates":[76.48503,16.5279236]}},{"type":"Feature","properties":{"state":"Karnataka","district":35,"district_n":"YADGIR","pc":6,"pc_name":"Raichur","ac":36,"ac_name":"Shorapur","booth":32,"booth_name":"Govt Govt Higher Primary School Building Sadab"},"geometry":{"type":"Point","coordinates":[76.48295,16.54735]}},{"type":"Feature","properties":{"state":"Karnataka","district":35,"district_n":"YADGIR","pc":6,"pc_name":"Raichur","ac":36,"ac_name":"Shorapur","booth":33,"booth_name":"Govt Higher Primary School Building (left Wing) Kannalli"},"geometry":{"type":"Point","coordinates":[76.59936,16.5578289]}},{"type":"Feature","properties":{"state":"Karnataka","district":35,"district_n":"YADGIR","pc":6,"pc_name":"Raichur","ac":36,"ac_name":"Shorapur","booth":35,"booth_name":"Govt higher primary school (new Building) Kannalli"},"geometry":{"type":"Point","coordinates":[76.59945,16.557848]}},{"type":"Feature","properties":{"state":"Karnataka","district":35,"district_n":"YADGIR","pc":6,"pc_name":"Raichur","ac":36,"ac_name":"Shorapur","booth":36,"booth_name":"Govt Higher Primary School (right Wing) Rattal"},"geometry":{"type":"Point","coordinates":[76.76681,16.5575]}},{"type":"Feature","properties":{"state":"Karnataka","district":35,"district_n":"YADGIR","pc":6,"pc_name":"Raichur","ac":36,"ac_name":"Shorapur","booth":37,"booth_name":"Govt Higher Primary School (left Wing) Rattal"},"geometry":{"type":"Point","coordinates":[76.76682,16.5575943]}},{"type":"Feature","properties":{"state":"Karnataka","district":35,"district_n":"YADGIR","pc":6,"pc_name":"Raichur","ac":36,"ac_name":"Shorapur","booth":38,"booth_name":"Govt Higher Primary School Building Mangalur"},"geometry":{"type":"Point","coordinates":[76.63758,16.55137]}},{"type":"Feature","properties":{"state":"Karnataka","district":35,"district_n":"YADGIR","pc":6,"pc_name":"Raichur","ac":36,"ac_name":"Shorapur","booth":44,"booth_name":"Krishna Cada office(right wing) Ukp Camp Krishnapur (bijasapur)"},"geometry":{"type":"Point","coordinates":[76.6727448,16.55568]}},{"type":"Feature","properties":{"state":"Karnataka","district":35,"district_n":"YADGIR","pc":6,"pc_name":"Raichur","ac":36,"ac_name":"Shorapur","booth":45,"booth_name":"Krishna Cada office (left wing) Ukp Ukp Camp Krishnapur (bijasapur)"},"geometry":{"type":"Point","coordinates":[76.67291,16.5557461]}},{"type":"Feature","properties":{"state":"Karnataka","district":35,"district_n":"YADGIR","pc":6,"pc_name":"Raichur","ac":36,"ac_name":"Shorapur","booth":46,"booth_name":"Executive Enginner Office Ukp Camp Krishnapur"},"geometry":{"type":"Point","coordinates":[76.7840652,16.5568619]}},{"type":"Feature","properties":{"state":"Karnataka","district":35,"district_n":"YADGIR","pc":6,"pc_name":"Raichur","ac":36,"ac_name":"Shorapur","booth":47,"booth_name":"Govt Higher Primary school (right Wing) Araker J"},"geometry":{"type":"Point","coordinates":[76.8194046,16.556181]}},{"type":"Feature","properties":{"state":"Karnataka","district":35,"district_n":"YADGIR","pc":6,"pc_name":"Raichur","ac":36,"ac_name":"Shorapur","booth":48,"booth_name":"Govt Higher Primary school (leftt Wing) Araker J"},"geometry":{"type":"Point","coordinates":[76.81944,16.556221]}},{"type":"Feature","properties":{"state":"Karnataka","district":35,"district_n":"YADGIR","pc":6,"pc_name":"Raichur","ac":36,"ac_name":"Shorapur","booth":49,"booth_name":"Govt Higher Primary School (right Wing) Araker(k)"},"geometry":{"type":"Point","coordinates":[76.819725,16.5570431]}},{"type":"Feature","properties":{"state":"Karnataka","district":35,"district_n":"YADGIR","pc":6,"pc_name":"Raichur","ac":36,"ac_name":"Shorapur","booth":50,"booth_name":"Govt Higher primary school (left wing) Arakera K"},"geometry":{"type":"Point","coordinates":[76.50682,16.5321827]}},{"type":"Feature","properties":{"state":"Karnataka","district":35,"district_n":"YADGIR","pc":6,"pc_name":"Raichur","ac":36,"ac_name":"Shorapur","booth":51,"booth_name":"Govt Lower Primary School (old Building) Devalgudda"},"geometry":{"type":"Point","coordinates":[76.50671,16.5321]}},{"type":"Feature","properties":{"state":"Karnataka","district":35,"district_n":"YADGIR","pc":6,"pc_name":"Raichur","ac":36,"ac_name":"Shorapur","booth":52,"booth_name":"Govt Lower Primary School (new Building) Devalgudda"},"geometry":{"type":"Point","coordinates":[76.80078,16.537859]}},{"type":"Feature","properties":{"state":"Karnataka","district":35,"district_n":"YADGIR","pc":6,"pc_name":"Raichur","ac":36,"ac_name":"Shorapur","booth":53,"booth_name":"Govt Govt Higher Primary School ( Right Wing) Peth Ammapur"},"geometry":{"type":"Point","coordinates":[76.80071,16.53773]}},{"type":"Feature","properties":{"state":"Karnataka","district":35,"district_n":"YADGIR","pc":6,"pc_name":"Raichur","ac":36,"ac_name":"Shorapur","booth":54,"booth_name":"Govt Higher Primary school (left Wing) Peth Ammapur"},"geometry":{"type":"Point","coordinates":[76.77851,16.5325069]}},{"type":"Feature","properties":{"state":"Karnataka","district":35,"district_n":"YADGIR","pc":6,"pc_name":"Raichur","ac":36,"ac_name":"Shorapur","booth":55,"booth_name":"Gram Panchayat Office Building Peth Ammapur"},"geometry":{"type":"Point","coordinates":[76.77851,16.5325069]}},{"type":"Feature","properties":{"state":"Karnataka","district":35,"district_n":"YADGIR","pc":6,"pc_name":"Raichur","ac":36,"ac_name":"Shorapur","booth":60,"booth_name":"Govt Higher Primary school Kachakanur"},"geometry":{"type":"Point","coordinates":[76.66862,16.5342]}},{"type":"Feature","properties":{"state":"Karnataka","district":35,"district_n":"YADGIR","pc":6,"pc_name":"Raichur","ac":36,"ac_name":"Shorapur","booth":61,"booth_name":"Govt Higher Primary school 6th std Room Kachakanur"},"geometry":{"type":"Point","coordinates":[76.6684341,16.5341759]}},{"type":"Feature","properties":{"state":"Karnataka","district":35,"district_n":"YADGIR","pc":6,"pc_name":"Raichur","ac":36,"ac_name":"Shorapur","booth":62,"booth_name":"Govt Higher Primary School K Tallallil"},"geometry":{"type":"Point","coordinates":[76.77226,16.5363369]}},{"type":"Feature","properties":{"state":"Karnataka","district":35,"district_n":"YADGIR","pc":6,"pc_name":"Raichur","ac":36,"ac_name":"Shorapur","booth":63,"booth_name":"Govt Higher Primary School (left wing) Vanakihal"},"geometry":{"type":"Point","coordinates":[76.77226,16.5363369]}},{"type":"Feature","properties":{"state":"Karnataka","district":35,"district_n":"YADGIR","pc":6,"pc_name":"Raichur","ac":36,"ac_name":"Shorapur","booth":64,"booth_name":"Govt Higher Primary School (right Wing) Vanakihal"},"geometry":{"type":"Point","coordinates":[76.5447,16.5260887]}},{"type":"Feature","properties":{"state":"Karnataka","district":35,"district_n":"YADGIR","pc":6,"pc_name":"Raichur","ac":36,"ac_name":"Shorapur","booth":65,"booth_name":"Govt Higher Primary School (right Wing) Bonhal"},"geometry":{"type":"Point","coordinates":[76.54478,16.5261784]}},{"type":"Feature","properties":{"state":"Karnataka","district":35,"district_n":"YADGIR","pc":6,"pc_name":"Raichur","ac":36,"ac_name":"Shorapur","booth":66,"booth_name":"Govt Higher Primary School (left Wing) Bonhal"},"geometry":{"type":"Point","coordinates":[76.58985,16.5247688]}},{"type":"Feature","properties":{"state":"Karnataka","district":35,"district_n":"YADGIR","pc":6,"pc_name":"Raichur","ac":36,"ac_name":"Shorapur","booth":67,"booth_name":"Govt Higher Primary School Isamapur"},"geometry":{"type":"Point","coordinates":[76.6045456,16.5248814]}},{"type":"Feature","properties":{"state":"Karnataka","district":35,"district_n":"YADGIR","pc":6,"pc_name":"Raichur","ac":36,"ac_name":"Shorapur","booth":68,"booth_name":"Govt Higher Primary School (right Wing) Kolihal"},"geometry":{"type":"Point","coordinates":[76.78656,16.53503]}},{"type":"Feature","properties":{"state":"Karnataka","district":35,"district_n":"YADGIR","pc":6,"pc_name":"Raichur","ac":36,"ac_name":"Shorapur","booth":70,"booth_name":"Govt Govt Higher Primary School (right wing) New Building Kolihal Tanda"},"geometry":{"type":"Point","coordinates":[76.78656,16.53503]}},{"type":"Feature","properties":{"state":"Karnataka","district":35,"district_n":"YADGIR","pc":6,"pc_name":"Raichur","ac":36,"ac_name":"Shorapur","booth":71,"booth_name":"Govt Govt Higher Primary School (left wing) New Building Kolihal Tanda"},"geometry":{"type":"Point","coordinates":[76.65623,16.5146732]}},{"type":"Feature","properties":{"state":"Karnataka","district":35,"district_n":"YADGIR","pc":6,"pc_name":"Raichur","ac":36,"ac_name":"Shorapur","booth":72,"booth_name":"Govt Govt Higher Primary School Chikanahalli"},"geometry":{"type":"Point","coordinates":[76.6561661,16.5149822]}},{"type":"Feature","properties":{"state":"Karnataka","district":35,"district_n":"YADGIR","pc":6,"pc_name":"Raichur","ac":36,"ac_name":"Shorapur","booth":73,"booth_name":"Govt Higher primary School (right Wing) Waganagera"},"geometry":{"type":"Point","coordinates":[76.48779,16.49555]}},{"type":"Feature","properties":{"state":"Karnataka","district":35,"district_n":"YADGIR","pc":6,"pc_name":"Raichur","ac":36,"ac_name":"Shorapur","booth":94,"booth_name":"Govt Govt Lower Primary school Bovigalli (new Building) Shorapur"},"geometry":{"type":"Point","coordinates":[76.75856,16.5223446]}},{"type":"Feature","properties":{"state":"Karnataka","district":35,"district_n":"YADGIR","pc":6,"pc_name":"Raichur","ac":36,"ac_name":"Shorapur","booth":95,"booth_name":"Govt Model Girls Primary School (darbar) Shorapur"},"geometry":{"type":"Point","coordinates":[76.75875,16.5227985]}},{"type":"Feature","properties":{"state":"Karnataka","district":35,"district_n":"YADGIR","pc":6,"pc_name":"Raichur","ac":36,"ac_name":"Shorapur","booth":96,"booth_name":"Govt Lower Primary School (right Wing) Medha Galli Shorapur"},"geometry":{"type":"Point","coordinates":[76.76442,16.5181923]}},{"type":"Feature","properties":{"state":"Karnataka","district":35,"district_n":"YADGIR","pc":6,"pc_name":"Raichur","ac":36,"ac_name":"Shorapur","booth":97,"booth_name":"Govt Lower Primary School (left Wing) Medha Galli Shorapur"},"geometry":{"type":"Point","coordinates":[76.7643356,16.51815]}},{"type":"Feature","properties":{"state":"Karnataka","district":35,"district_n":"YADGIR","pc":6,"pc_name":"Raichur","ac":36,"ac_name":"Shorapur","booth":98,"booth_name":"Vivekhananda Higher Primary School (right Wing) (rangampet ) Shorapur"},"geometry":{"type":"Point","coordinates":[76.75986,16.5178642]}},{"type":"Feature","properties":{"state":"Karnataka","district":35,"district_n":"YADGIR","pc":6,"pc_name":"Raichur","ac":36,"ac_name":"Shorapur","booth":99,"booth_name":"Vivekhananda Higher Primary School (leftt Wing) Rangampet"},"geometry":{"type":"Point","coordinates":[76.75821,16.5221176]}},{"type":"Feature","properties":{"state":"Karnataka","district":35,"district_n":"YADGIR","pc":6,"pc_name":"Raichur","ac":36,"ac_name":"Shorapur","booth":100,"booth_name":"Govt Girls Higher Primary School (right wing) timmapur"},"geometry":{"type":"Point","coordinates":[76.75627,16.51805]}},{"type":"Feature","properties":{"state":"Karnataka","district":35,"district_n":"YADGIR","pc":6,"pc_name":"Raichur","ac":36,"ac_name":"Shorapur","booth":101,"booth_name":"Govt Girls Higher Primary School (left wing) timmapur"},"geometry":{"type":"Point","coordinates":[76.76739,16.5295467]}},{"type":"Feature","properties":{"state":"Karnataka","district":35,"district_n":"YADGIR","pc":6,"pc_name":"Raichur","ac":36,"ac_name":"Shorapur","booth":102,"booth_name":"Govt Govt Higher Primary School Bichamohalla (timmapur) Shorapur"},"geometry":{"type":"Point","coordinates":[76.76749,16.5294647]}},{"type":"Feature","properties":{"state":"Karnataka","district":35,"district_n":"YADGIR","pc":6,"pc_name":"Raichur","ac":36,"ac_name":"Shorapur","booth":103,"booth_name":"Govt Govt Pre University College (right wing) Timmapur Shorapur"},"geometry":{"type":"Point","coordinates":[76.76285,16.5278187]}},{"type":"Feature","properties":{"state":"Karnataka","district":35,"district_n":"YADGIR","pc":6,"pc_name":"Raichur","ac":36,"ac_name":"Shorapur","booth":104,"booth_name":"Govt Govt Pre University College (left Wing) (timmapur) Shorpaur"},"geometry":{"type":"Point","coordinates":[76.77851,16.5325069]}},{"type":"Feature","properties":{"state":"Karnataka","district":35,"district_n":"YADGIR","pc":6,"pc_name":"Raichur","ac":36,"ac_name":"Shorapur","booth":105,"booth_name":"K P T C L office (timmapur) Shorapur"},"geometry":{"type":"Point","coordinates":[76.77254,16.5289783]}},{"type":"Feature","properties":{"state":"Karnataka","district":35,"district_n":"YADGIR","pc":6,"pc_name":"Raichur","ac":36,"ac_name":"Shorapur","booth":106,"booth_name":"Govt Govt Model Primary School(right Wing) (timmapur) Shorapur"},"geometry":{"type":"Point","coordinates":[76.7725143,16.5290222]}},{"type":"Feature","properties":{"state":"Karnataka","district":35,"district_n":"YADGIR","pc":6,"pc_name":"Raichur","ac":36,"ac_name":"Shorapur","booth":107,"booth_name":"Govt Model Primary School (left Wing) (timmapur) Shorapur"},"geometry":{"type":"Point","coordinates":[76.77226,16.5363369]}},{"type":"Feature","properties":{"state":"Karnataka","district":35,"district_n":"YADGIR","pc":6,"pc_name":"Raichur","ac":36,"ac_name":"Shorapur","booth":108,"booth_name":"Govt Urdu Higher Primary School Beech Mohalla (right Wing) Timmapur"},"geometry":{"type":"Point","coordinates":[76.77851,16.5325069]}},{"type":"Feature","properties":{"state":"Karnataka","district":35,"district_n":"YADGIR","pc":6,"pc_name":"Raichur","ac":36,"ac_name":"Shorapur","booth":109,"booth_name":"Govt Urdu Higher Primary School Beech Mohalla (left Wing) Timmapur"},"geometry":{"type":"Point","coordinates":[76.77851,16.5325069]}},{"type":"Feature","properties":{"state":"Karnataka","district":35,"district_n":"YADGIR","pc":6,"pc_name":"Raichur","ac":36,"ac_name":"Shorapur","booth":110,"booth_name":"Govt Higher Primary School (right Wing) (new Building) Kalladevanahalli"},"geometry":{"type":"Point","coordinates":[76.77851,16.5325069]}},{"type":"Feature","properties":{"state":"Karnataka","district":35,"district_n":"YADGIR","pc":6,"pc_name":"Raichur","ac":36,"ac_name":"Shorapur","booth":111,"booth_name":"Govt Higher Primary School (left Wing) (new Building) Kalladevanahalli"},"geometry":{"type":"Point","coordinates":[76.57514,16.48526]}},{"type":"Feature","properties":{"state":"Karnataka","district":35,"district_n":"YADGIR","pc":6,"pc_name":"Raichur","ac":36,"ac_name":"Shorapur","booth":112,"booth_name":"Anganwadi Center Channor"},"geometry":{"type":"Point","coordinates":[76.57528,16.4851227]}},{"type":"Feature","properties":{"state":"Karnataka","district":35,"district_n":"YADGIR","pc":6,"pc_name":"Raichur","ac":36,"ac_name":"Shorapur","booth":113,"booth_name":"Govt Model Primary School (right Wing) Wajjal"},"geometry":{"type":"Point","coordinates":[76.55857,16.4827175]}},{"type":"Feature","properties":{"state":"Karnataka","district":35,"district_n":"YADGIR","pc":6,"pc_name":"Raichur","ac":36,"ac_name":"Shorapur","booth":114,"booth_name":"Govt Model Primary School (left Wing) Wajjal"},"geometry":{"type":"Point","coordinates":[76.54764,16.4760418]}},{"type":"Feature","properties":{"state":"Karnataka","district":35,"district_n":"YADGIR","pc":6,"pc_name":"Raichur","ac":36,"ac_name":"Shorapur","booth":115,"booth_name":"Govt Composite High School Wajjal"},"geometry":{"type":"Point","coordinates":[76.54755,16.4759941]}},{"type":"Feature","properties":{"state":"Karnataka","district":35,"district_n":"YADGIR","pc":6,"pc_name":"Raichur","ac":36,"ac_name":"Shorapur","booth":116,"booth_name":"Govt Govt Higher Primary School (north Wing) Kumbarpet"},"geometry":{"type":"Point","coordinates":[76.54862,16.4760017]}},{"type":"Feature","properties":{"state":"Karnataka","district":35,"district_n":"YADGIR","pc":6,"pc_name":"Raichur","ac":36,"ac_name":"Shorapur","booth":117,"booth_name":"Govt Govt Higher Primary School (south Wing) Kumbarpet"},"geometry":{"type":"Point","coordinates":[76.75349,16.5086365]}},{"type":"Feature","properties":{"state":"Karnataka","district":35,"district_n":"YADGIR","pc":6,"pc_name":"Raichur","ac":36,"ac_name":"Shorapur","booth":118,"booth_name":"Govt Higher Primary school (right Wing) Kumbarpet Shorapur"},"geometry":{"type":"Point","coordinates":[76.75348,16.5086384]}},{"type":"Feature","properties":{"state":"Karnataka","district":35,"district_n":"YADGIR","pc":6,"pc_name":"Raichur","ac":36,"ac_name":"Shorapur","booth":121,"booth_name":"Govt Higher Primary school Halagera"},"geometry":{"type":"Point","coordinates":[76.75324,16.5085316]}},{"type":"Feature","properties":{"state":"Karnataka","district":35,"district_n":"YADGIR","pc":6,"pc_name":"Raichur","ac":36,"ac_name":"Shorapur","booth":122,"booth_name":"Govt Lower Primary school Shakhapur S H"},"geometry":{"type":"Point","coordinates":[76.8353043,16.50517]}},{"type":"Feature","properties":{"state":"Karnataka","district":35,"district_n":"YADGIR","pc":6,"pc_name":"Raichur","ac":36,"ac_name":"Shorapur","booth":123,"booth_name":"Govt Higher Primary School (right Wing) Hemanoor"},"geometry":{"type":"Point","coordinates":[76.83506,16.5172024]}},{"type":"Feature","properties":{"state":"Karnataka","district":35,"district_n":"YADGIR","pc":6,"pc_name":"Raichur","ac":36,"ac_name":"Shorapur","booth":124,"booth_name":"Govt Higher Primary School (left Wing) Hemanoor"},"geometry":{"type":"Point","coordinates":[76.85165,16.5060711]}},{"type":"Feature","properties":{"state":"Karnataka","district":35,"district_n":"YADGIR","pc":6,"pc_name":"Raichur","ac":36,"ac_name":"Shorapur","booth":125,"booth_name":"Govt Model Primary School (right Wing) Khanapur S H"},"geometry":{"type":"Point","coordinates":[76.8515244,16.50611]}},{"type":"Feature","properties":{"state":"Karnataka","district":35,"district_n":"YADGIR","pc":6,"pc_name":"Raichur","ac":36,"ac_name":"Shorapur","booth":126,"booth_name":"Govt Model Primary School ( Left Wing) Khanapur S H"},"geometry":{"type":"Point","coordinates":[76.785965,16.5068054]}},{"type":"Feature","properties":{"state":"Karnataka","district":35,"district_n":"YADGIR","pc":6,"pc_name":"Raichur","ac":36,"ac_name":"Shorapur","booth":127,"booth_name":"Gram panchyath office Khanapur S H"},"geometry":{"type":"Point","coordinates":[76.78609,16.5067844]}},{"type":"Feature","properties":{"state":"Karnataka","district":35,"district_n":"YADGIR","pc":6,"pc_name":"Raichur","ac":36,"ac_name":"Shorapur","booth":128,"booth_name":"Govt Higher Primary school Kupagal"},"geometry":{"type":"Point","coordinates":[76.78536,16.5069637]}},{"type":"Feature","properties":{"state":"Karnataka","district":35,"district_n":"YADGIR","pc":6,"pc_name":"Raichur","ac":36,"ac_name":"Shorapur","booth":129,"booth_name":"Govt Lower Primary school Lingadalli S H"},"geometry":{"type":"Point","coordinates":[76.8084,16.4925175]}},{"type":"Feature","properties":{"state":"Karnataka","district":35,"district_n":"YADGIR","pc":6,"pc_name":"Raichur","ac":36,"ac_name":"Shorapur","booth":130,"booth_name":"Govt Higher Primary School Mangihal"},"geometry":{"type":"Point","coordinates":[76.822525,16.494894]}},{"type":"Feature","properties":{"state":"Karnataka","district":35,"district_n":"YADGIR","pc":6,"pc_name":"Raichur","ac":36,"ac_name":"Shorapur","booth":131,"booth_name":"Govt Higher Primary School Bachimatti"},"geometry":{"type":"Point","coordinates":[76.67103,16.4949245]}},{"type":"Feature","properties":{"state":"Karnataka","district":35,"district_n":"YADGIR","pc":6,"pc_name":"Raichur","ac":36,"ac_name":"Shorapur","booth":132,"booth_name":"Govt Higher Primary School Hebbal K"},"geometry":{"type":"Point","coordinates":[76.67103,16.4949245]}},{"type":"Feature","properties":{"state":"Karnataka","district":35,"district_n":"YADGIR","pc":6,"pc_name":"Raichur","ac":36,"ac_name":"Shorapur","booth":133,"booth_name":"Govt Govt Higher Primary School Malanoor"},"geometry":{"type":"Point","coordinates":[76.631546,16.4570045]}},{"type":"Feature","properties":{"state":"Karnataka","district":35,"district_n":"YADGIR","pc":6,"pc_name":"Raichur","ac":36,"ac_name":"Shorapur","booth":134,"booth_name":"Govt Govt Lower Primary school Banahatti"},"geometry":{"type":"Point","coordinates":[76.44675,16.4485378]}},{"type":"Feature","properties":{"state":"Karnataka","district":35,"district_n":"YADGIR","pc":6,"pc_name":"Raichur","ac":36,"ac_name":"Shorapur","booth":135,"booth_name":"Govt Higher Primary School (west wing) Hebbal B"},"geometry":{"type":"Point","coordinates":[76.47441,16.4605732]}},{"type":"Feature","properties":{"state":"Karnataka","district":35,"district_n":"YADGIR","pc":6,"pc_name":"Raichur","ac":36,"ac_name":"Shorapur","booth":136,"booth_name":"Govt Higher Primary School (north wing) Hebbal B`"},"geometry":{"type":"Point","coordinates":[76.631546,16.4570045]}},{"type":"Feature","properties":{"state":"Karnataka","district":35,"district_n":"YADGIR","pc":6,"pc_name":"Raichur","ac":36,"ac_name":"Shorapur","booth":137,"booth_name":"Govt Govt Higher Primary School Benakanahalli"},"geometry":{"type":"Point","coordinates":[76.631546,16.4570045]}},{"type":"Feature","properties":{"state":"Karnataka","district":35,"district_n":"YADGIR","pc":6,"pc_name":"Raichur","ac":36,"ac_name":"Shorapur","booth":138,"booth_name":"Govt Govt Lower Primary School Karnal"},"geometry":{"type":"Point","coordinates":[76.631546,16.4570045]}},{"type":"Feature","properties":{"state":"Karnataka","district":35,"district_n":"YADGIR","pc":6,"pc_name":"Raichur","ac":36,"ac_name":"Shorapur","booth":143,"booth_name":"Anganawadi New Building Aldal"},"geometry":{"type":"Point","coordinates":[76.84424,16.48563]}},{"type":"Feature","properties":{"state":"Karnataka","district":35,"district_n":"YADGIR","pc":6,"pc_name":"Raichur","ac":36,"ac_name":"Shorapur","booth":144,"booth_name":"Govt Govt Higher Primary school (right Wing) Devatakal"},"geometry":{"type":"Point","coordinates":[76.7486038,16.48402]}},{"type":"Feature","properties":{"state":"Karnataka","district":35,"district_n":"YADGIR","pc":6,"pc_name":"Raichur","ac":36,"ac_name":"Shorapur","booth":145,"booth_name":"Govt Govt Higher Primary School (left Wing) Devatakal"},"geometry":{"type":"Point","coordinates":[76.74857,16.484127]}},{"type":"Feature","properties":{"state":"Karnataka","district":35,"district_n":"YADGIR","pc":6,"pc_name":"Raichur","ac":36,"ac_name":"Shorapur","booth":146,"booth_name":"Govt Lower Primary School Chowdeshwaral"},"geometry":{"type":"Point","coordinates":[76.7045441,16.4632225]}},{"type":"Feature","properties":{"state":"Karnataka","district":35,"district_n":"YADGIR","pc":6,"pc_name":"Raichur","ac":36,"ac_name":"Shorapur","booth":147,"booth_name":"Govt Lower Primary School Addoadagi"},"geometry":{"type":"Point","coordinates":[76.70597,16.46121]}},{"type":"Feature","properties":{"state":"Karnataka","district":35,"district_n":"YADGIR","pc":6,"pc_name":"Raichur","ac":36,"ac_name":"Shorapur","booth":148,"booth_name":"Govt Higher Primary School Konhal"},"geometry":{"type":"Point","coordinates":[76.68296,16.4348183]}},{"type":"Feature","properties":{"state":"Karnataka","district":35,"district_n":"YADGIR","pc":6,"pc_name":"Raichur","ac":36,"ac_name":"Shorapur","booth":149,"booth_name":"Govt Lower Primary School Gonal Sd"},"geometry":{"type":"Point","coordinates":[76.68296,16.4348183]}},{"type":"Feature","properties":{"state":"Karnataka","district":35,"district_n":"YADGIR","pc":6,"pc_name":"Raichur","ac":36,"ac_name":"Shorapur","booth":150,"booth_name":"Govt Lower Primary School Handral S D"},"geometry":{"type":"Point","coordinates":[76.84253,16.4550457]}},{"type":"Feature","properties":{"state":"Karnataka","district":35,"district_n":"YADGIR","pc":6,"pc_name":"Raichur","ac":36,"ac_name":"Shorapur","booth":151,"booth_name":"Govt Lower Primary School Nagaral"},"geometry":{"type":"Point","coordinates":[76.8377151,16.45278]}},{"type":"Feature","properties":{"state":"Karnataka","district":35,"district_n":"YADGIR","pc":6,"pc_name":"Raichur","ac":36,"ac_name":"Shorapur","booth":152,"booth_name":"Govt Lower Primary School Havinal"},"geometry":{"type":"Point","coordinates":[76.68296,16.4348183]}},{"type":"Feature","properties":{"state":"Karnataka","district":35,"district_n":"YADGIR","pc":6,"pc_name":"Raichur","ac":36,"ac_name":"Shorapur","booth":153,"booth_name":"Govt Lower Primary School Bevinal S H"},"geometry":{"type":"Point","coordinates":[76.68799,16.463438]}},{"type":"Feature","properties":{"state":"Karnataka","district":35,"district_n":"YADGIR","pc":6,"pc_name":"Raichur","ac":36,"ac_name":"Shorapur","booth":154,"booth_name":"Govt Lower Primary School Chandalapur"},"geometry":{"type":"Point","coordinates":[76.68296,16.4348183]}},{"type":"Feature","properties":{"state":"Karnataka","district":35,"district_n":"YADGIR","pc":6,"pc_name":"Raichur","ac":36,"ac_name":"Shorapur","booth":155,"booth_name":"Govt Higher primary School Shellagi"},"geometry":{"type":"Point","coordinates":[76.69986,16.453804]}},{"type":"Feature","properties":{"state":"Karnataka","district":35,"district_n":"YADGIR","pc":6,"pc_name":"Raichur","ac":36,"ac_name":"Shorapur","booth":156,"booth_name":"Govt Higher primary School Mustahalli"},"geometry":{"type":"Point","coordinates":[76.72728,16.4582233]}},{"type":"Feature","properties":{"state":"Karnataka","district":35,"district_n":"YADGIR","pc":6,"pc_name":"Raichur","ac":36,"ac_name":"Shorapur","booth":157,"booth_name":"Govt Lower Primary School Siddapur B"},"geometry":{"type":"Point","coordinates":[76.80318,16.4540863]}},{"type":"Feature","properties":{"state":"Karnataka","district":35,"district_n":"YADGIR","pc":6,"pc_name":"Raichur","ac":36,"ac_name":"Shorapur","booth":158,"booth_name":"Gram Pachayat Office Meeting Hall Hunasagi"},"geometry":{"type":"Point","coordinates":[76.79932,16.4624252]}},{"type":"Feature","properties":{"state":"Karnataka","district":35,"district_n":"YADGIR","pc":6,"pc_name":"Raichur","ac":36,"ac_name":"Shorapur","booth":159,"booth_name":"Gram Panchayat Office President Chamber Hunasagi"},"geometry":{"type":"Point","coordinates":[76.7666,16.4471855]}},{"type":"Feature","properties":{"state":"Karnataka","district":35,"district_n":"YADGIR","pc":6,"pc_name":"Raichur","ac":36,"ac_name":"Shorapur","booth":160,"booth_name":"Gram Panchayat office Godown Hunasagi"},"geometry":{"type":"Point","coordinates":[76.78224,16.4303436]}},{"type":"Feature","properties":{"state":"Karnataka","district":35,"district_n":"YADGIR","pc":6,"pc_name":"Raichur","ac":36,"ac_name":"Shorapur","booth":161,"booth_name":"Veternary Hospital Hunasagi"},"geometry":{"type":"Point","coordinates":[76.59001,16.4444942]}},{"type":"Feature","properties":{"state":"Karnataka","district":35,"district_n":"YADGIR","pc":6,"pc_name":"Raichur","ac":36,"ac_name":"Shorapur","booth":162,"booth_name":"Govt Model Primary School 4th Std Std Class Room Hunasagi"},"geometry":{"type":"Point","coordinates":[76.5171356,16.4581]}},{"type":"Feature","properties":{"state":"Karnataka","district":35,"district_n":"YADGIR","pc":6,"pc_name":"Raichur","ac":36,"ac_name":"Shorapur","booth":163,"booth_name":"Govt Model primary School Midday Meal Room Hunasagi"},"geometry":{"type":"Point","coordinates":[76.5172043,16.4580765]}},{"type":"Feature","properties":{"state":"Karnataka","district":35,"district_n":"YADGIR","pc":6,"pc_name":"Raichur","ac":36,"ac_name":"Shorapur","booth":164,"booth_name":"Govt Model Primary School 9th std Class room Hunasagi"},"geometry":{"type":"Point","coordinates":[76.51712,16.4580135]}},{"type":"Feature","properties":{"state":"Karnataka","district":35,"district_n":"YADGIR","pc":6,"pc_name":"Raichur","ac":36,"ac_name":"Shorapur","booth":165,"booth_name":"Anganawadi 2 Building Hunasagi"},"geometry":{"type":"Point","coordinates":[76.5175,16.45812]}},{"type":"Feature","properties":{"state":"Karnataka","district":35,"district_n":"YADGIR","pc":6,"pc_name":"Raichur","ac":36,"ac_name":"Shorapur","booth":166,"booth_name":"Govt Model Primary School (north wing) Hunasagi"},"geometry":{"type":"Point","coordinates":[76.51642,16.4565048]}},{"type":"Feature","properties":{"state":"Karnataka","district":35,"district_n":"YADGIR","pc":6,"pc_name":"Raichur","ac":36,"ac_name":"Shorapur","booth":167,"booth_name":"Govt Model Primary School (south wing) Hunasagi"},"geometry":{"type":"Point","coordinates":[76.51644,16.4562511]}},{"type":"Feature","properties":{"state":"Karnataka","district":35,"district_n":"YADGIR","pc":6,"pc_name":"Raichur","ac":36,"ac_name":"Shorapur","booth":168,"booth_name":"Govt Model Primary School 4th std (new Building) Hunasagi"},"geometry":{"type":"Point","coordinates":[76.51603,16.4545422]}},{"type":"Feature","properties":{"state":"Karnataka","district":35,"district_n":"YADGIR","pc":6,"pc_name":"Raichur","ac":36,"ac_name":"Shorapur","booth":169,"booth_name":"Govt Model Primary School Crc Room Hunasagi"},"geometry":{"type":"Point","coordinates":[76.5164642,16.4566536]}},{"type":"Feature","properties":{"state":"Karnataka","district":35,"district_n":"YADGIR","pc":6,"pc_name":"Raichur","ac":36,"ac_name":"Shorapur","booth":170,"booth_name":"Govt Higher Primary School (right Wing) Gulbal"},"geometry":{"type":"Point","coordinates":[76.52653,16.4596252]}},{"type":"Feature","properties":{"state":"Karnataka","district":35,"district_n":"YADGIR","pc":6,"pc_name":"Raichur","ac":36,"ac_name":"Shorapur","booth":171,"booth_name":"Govt Higher Primary School (left Wing) Gulbal"},"geometry":{"type":"Point","coordinates":[76.5268,16.4598465]}},{"type":"Feature","properties":{"state":"Karnataka","district":35,"district_n":"YADGIR","pc":6,"pc_name":"Raichur","ac":36,"ac_name":"Shorapur","booth":172,"booth_name":"Govt Higher primary School Maralabhavi"},"geometry":{"type":"Point","coordinates":[76.52579,16.45457]}},{"type":"Feature","properties":{"state":"Karnataka","district":35,"district_n":"YADGIR","pc":6,"pc_name":"Raichur","ac":36,"ac_name":"Shorapur","booth":173,"booth_name":"Govt Lower Primary School Srinivaspur"},"geometry":{"type":"Point","coordinates":[76.52611,16.454689]}},{"type":"Feature","properties":{"state":"Karnataka","district":35,"district_n":"YADGIR","pc":6,"pc_name":"Raichur","ac":36,"ac_name":"Shorapur","booth":174,"booth_name":"Govt Lower Primary School Srinivaspur Tanda"},"geometry":{"type":"Point","coordinates":[76.45978,16.426569]}},{"type":"Feature","properties":{"state":"Karnataka","district":35,"district_n":"YADGIR","pc":6,"pc_name":"Raichur","ac":36,"ac_name":"Shorapur","booth":89,"booth_name":"Govt P U College For Girls Shorapur"},"geometry":{"type":"Point","coordinates":[76.75843,16.52585]}},{"type":"Feature","properties":{"state":"Karnataka","district":35,"district_n":"YADGIR","pc":6,"pc_name":"Raichur","ac":36,"ac_name":"Shorapur","booth":90,"booth_name":"Govt P U College (right Wing) Shorapur"},"geometry":{"type":"Point","coordinates":[76.75854,16.5256729]}},{"type":"Feature","properties":{"state":"Karnataka","district":35,"district_n":"YADGIR","pc":6,"pc_name":"Raichur","ac":36,"ac_name":"Shorapur","booth":91,"booth_name":"Govt P U College (left Wing) Shorapur"},"geometry":{"type":"Point","coordinates":[76.75824,16.5221519]}},{"type":"Feature","properties":{"state":"Karnataka","district":35,"district_n":"YADGIR","pc":6,"pc_name":"Raichur","ac":36,"ac_name":"Shorapur","booth":92,"booth_name":"Govt Ghps Khureshi Mohella (east Wing) Shorapur"},"geometry":{"type":"Point","coordinates":[76.76352,16.52024]}},{"type":"Feature","properties":{"state":"Karnataka","district":35,"district_n":"YADGIR","pc":6,"pc_name":"Raichur","ac":36,"ac_name":"Shorapur","booth":93,"booth_name":"Govt Ghps Khureshi Mohella (west Wing ) Shorapur"},"geometry":{"type":"Point","coordinates":[76.7591,16.5197144]}},{"type":"Feature","properties":{"state":"Karnataka","district":35,"district_n":"YADGIR","pc":6,"pc_name":"Raichur","ac":36,"ac_name":"Shorapur","booth":175,"booth_name":"Govt Higher Primary School Kanagandana Halli"},"geometry":{"type":"Point","coordinates":[76.4401855,16.4449539]}},{"type":"Feature","properties":{"state":"Karnataka","district":35,"district_n":"YADGIR","pc":6,"pc_name":"Raichur","ac":36,"ac_name":"Shorapur","booth":176,"booth_name":"Govt Lower Primary School New Building Manjalapur Halli"},"geometry":{"type":"Point","coordinates":[76.54998,16.4275951]}},{"type":"Feature","properties":{"state":"Karnataka","district":35,"district_n":"YADGIR","pc":6,"pc_name":"Raichur","ac":36,"ac_name":"Shorapur","booth":177,"booth_name":"govt Higher Primary School Bailapur Tanda"},"geometry":{"type":"Point","coordinates":[76.55198,16.4503555]}},{"type":"Feature","properties":{"state":"Karnataka","district":35,"district_n":"YADGIR","pc":6,"pc_name":"Raichur","ac":36,"ac_name":"Shorapur","booth":178,"booth_name":"Govt Higher Primary School Bailapur"},"geometry":{"type":"Point","coordinates":[76.537384,16.4234276]}},{"type":"Feature","properties":{"state":"Karnataka","district":35,"district_n":"YADGIR","pc":6,"pc_name":"Raichur","ac":36,"ac_name":"Shorapur","booth":179,"booth_name":"Gram Panchayat Office (right wing) Devapur"},"geometry":{"type":"Point","coordinates":[76.5703354,16.4492054]}},{"type":"Feature","properties":{"state":"Karnataka","district":35,"district_n":"YADGIR","pc":6,"pc_name":"Raichur","ac":36,"ac_name":"Shorapur","booth":180,"booth_name":"Gram Panchayat Office Liberary Building Devapur"},"geometry":{"type":"Point","coordinates":[76.57611,16.42877]}},{"type":"Feature","properties":{"state":"Karnataka","district":35,"district_n":"YADGIR","pc":6,"pc_name":"Raichur","ac":36,"ac_name":"Shorapur","booth":181,"booth_name":"Govt Govt Higher Primary School (left Wing) devapur"},"geometry":{"type":"Point","coordinates":[76.73754,16.4615536]}},{"type":"Feature","properties":{"state":"Karnataka","district":35,"district_n":"YADGIR","pc":6,"pc_name":"Raichur","ac":36,"ac_name":"Shorapur","booth":182,"booth_name":"Govt Higher Primary School Crc Room Devapur"},"geometry":{"type":"Point","coordinates":[76.73754,16.4615536]}},{"type":"Feature","properties":{"state":"Karnataka","district":35,"district_n":"YADGIR","pc":6,"pc_name":"Raichur","ac":36,"ac_name":"Shorapur","booth":183,"booth_name":"Govt Lower Primary school Aralahalli"},"geometry":{"type":"Point","coordinates":[76.70087,16.4102287]}},{"type":"Feature","properties":{"state":"Karnataka","district":35,"district_n":"YADGIR","pc":6,"pc_name":"Raichur","ac":36,"ac_name":"Shorapur","booth":184,"booth_name":"Govt Govt Higher Primary School Sugur"},"geometry":{"type":"Point","coordinates":[76.70087,16.4102287]}},{"type":"Feature","properties":{"state":"Karnataka","district":35,"district_n":"YADGIR","pc":6,"pc_name":"Raichur","ac":36,"ac_name":"Shorapur","booth":185,"booth_name":"Govt Lower Primary School Hemmadagi"},"geometry":{"type":"Point","coordinates":[76.71203,16.4099884]}},{"type":"Feature","properties":{"state":"Karnataka","district":35,"district_n":"YADGIR","pc":6,"pc_name":"Raichur","ac":36,"ac_name":"Shorapur","booth":186,"booth_name":"Govt Higher primary School Godihal T"},"geometry":{"type":"Point","coordinates":[76.81648,16.43797]}},{"type":"Feature","properties":{"state":"Karnataka","district":35,"district_n":"YADGIR","pc":6,"pc_name":"Raichur","ac":36,"ac_name":"Shorapur","booth":187,"booth_name":"Govt Lower primary School Halabhavi"},"geometry":{"type":"Point","coordinates":[76.82974,16.4411449]}},{"type":"Feature","properties":{"state":"Karnataka","district":35,"district_n":"YADGIR","pc":6,"pc_name":"Raichur","ac":36,"ac_name":"Shorapur","booth":188,"booth_name":"Govt Composite high School (right Wing) Hagaratagi"},"geometry":{"type":"Point","coordinates":[76.63236,16.4273834]}},{"type":"Feature","properties":{"state":"Karnataka","district":35,"district_n":"YADGIR","pc":6,"pc_name":"Raichur","ac":36,"ac_name":"Shorapur","booth":189,"booth_name":"Govt Lower Primary School Karekal"},"geometry":{"type":"Point","coordinates":[76.6822052,16.40404]}},{"type":"Feature","properties":{"state":"Karnataka","district":35,"district_n":"YADGIR","pc":6,"pc_name":"Raichur","ac":36,"ac_name":"Shorapur","booth":190,"booth_name":"Govt Composite high School (left Wing) Hagaratagi"},"geometry":{"type":"Point","coordinates":[76.3666153,16.3991375]}},{"type":"Feature","properties":{"state":"Karnataka","district":35,"district_n":"YADGIR","pc":6,"pc_name":"Raichur","ac":36,"ac_name":"Shorapur","booth":191,"booth_name":"Govt Higher Primary School Bapparaga"},"geometry":{"type":"Point","coordinates":[76.34154,16.42475]}},{"type":"Feature","properties":{"state":"Karnataka","district":35,"district_n":"YADGIR","pc":6,"pc_name":"Raichur","ac":36,"ac_name":"Shorapur","booth":192,"booth_name":"Govt higher Primary School Dyamanal"},"geometry":{"type":"Point","coordinates":[76.36661,16.3991756]}},{"type":"Feature","properties":{"state":"Karnataka","district":35,"district_n":"YADGIR","pc":6,"pc_name":"Raichur","ac":36,"ac_name":"Shorapur","booth":282,"booth_name":"Anudanit Lower Primary School I B Tanda"},"geometry":{"type":"Point","coordinates":[76.36122,16.2579021]}},{"type":"Feature","properties":{"state":"Karnataka","district":35,"district_n":"YADGIR","pc":6,"pc_name":"Raichur","ac":36,"ac_name":"Shorapur","booth":283,"booth_name":"Govt Govt Higher Primary School Ukp Camp (left Wing) Narayanapur"},"geometry":{"type":"Point","coordinates":[76.36848,16.256216]}},{"type":"Feature","properties":{"state":"Karnataka","district":35,"district_n":"YADGIR","pc":6,"pc_name":"Raichur","ac":36,"ac_name":"Shorapur","booth":284,"booth_name":"Govt Govt Pu College (right Wing) Narayanapur"},"geometry":{"type":"Point","coordinates":[76.36838,16.25605]}},{"type":"Feature","properties":{"state":"Karnataka","district":35,"district_n":"YADGIR","pc":6,"pc_name":"Raichur","ac":36,"ac_name":"Shorapur","booth":285,"booth_name":"Govt Govt Higher Primary School Koti Gudda"},"geometry":{"type":"Point","coordinates":[76.37218,16.2698536]}},{"type":"Feature","properties":{"state":"Karnataka","district":35,"district_n":"YADGIR","pc":6,"pc_name":"Raichur","ac":36,"ac_name":"Shorapur","booth":286,"booth_name":"Govt Lower Primary School (new Building) Melina Gaddi"},"geometry":{"type":"Point","coordinates":[76.36773,16.2213688]}},{"type":"Feature","properties":{"state":"Karnataka","district":35,"district_n":"YADGIR","pc":6,"pc_name":"Raichur","ac":36,"ac_name":"Shorapur","booth":287,"booth_name":"Govt Lower Primary School Janginadaddi"},"geometry":{"type":"Point","coordinates":[76.36781,16.2214222]}},{"type":"Feature","properties":{"state":"Karnataka","district":35,"district_n":"YADGIR","pc":6,"pc_name":"Raichur","ac":36,"ac_name":"Shorapur","booth":193,"booth_name":"Govt Lower Primary School Kuppi"},"geometry":{"type":"Point","coordinates":[76.32833,16.3842754]}},{"type":"Feature","properties":{"state":"Karnataka","district":35,"district_n":"YADGIR","pc":6,"pc_name":"Raichur","ac":36,"ac_name":"Shorapur","booth":194,"booth_name":"Govt Lower Primary School Channapattan"},"geometry":{"type":"Point","coordinates":[76.49042,16.40103]}},{"type":"Feature","properties":{"state":"Karnataka","district":35,"district_n":"YADGIR","pc":6,"pc_name":"Raichur","ac":36,"ac_name":"Shorapur","booth":195,"booth_name":"Govt Govt Lower Primary School Raigera"},"geometry":{"type":"Point","coordinates":[76.48459,16.4105873]}},{"type":"Feature","properties":{"state":"Karnataka","district":35,"district_n":"YADGIR","pc":6,"pc_name":"Raichur","ac":36,"ac_name":"Shorapur","booth":196,"booth_name":"Govt Higher primary School Kamanatagi"},"geometry":{"type":"Point","coordinates":[76.63033,16.4212151]}},{"type":"Feature","properties":{"state":"Karnataka","district":35,"district_n":"YADGIR","pc":6,"pc_name":"Raichur","ac":36,"ac_name":"Shorapur","booth":266,"booth_name":"Govt Govt Higher Primary School Geddalamari"},"geometry":{"type":"Point","coordinates":[76.5075455,16.3274422]}},{"type":"Feature","properties":{"state":"Karnataka","district":35,"district_n":"YADGIR","pc":6,"pc_name":"Raichur","ac":36,"ac_name":"Shorapur","booth":267,"booth_name":"Govt Lower Primary School Geddalamari Tanda"},"geometry":{"type":"Point","coordinates":[76.50747,16.3274689]}},{"type":"Feature","properties":{"state":"Karnataka","district":35,"district_n":"YADGIR","pc":6,"pc_name":"Raichur","ac":36,"ac_name":"Shorapur","booth":268,"booth_name":"Govt Higher Primary School Jogandabhavi"},"geometry":{"type":"Point","coordinates":[76.3637,16.2996368]}},{"type":"Feature","properties":{"state":"Karnataka","district":35,"district_n":"YADGIR","pc":6,"pc_name":"Raichur","ac":36,"ac_name":"Shorapur","booth":269,"booth_name":"Govt Higher Primary School Basaragidada Tanda"},"geometry":{"type":"Point","coordinates":[76.36851,16.2802658]}},{"type":"Feature","properties":{"state":"Karnataka","district":35,"district_n":"YADGIR","pc":6,"pc_name":"Raichur","ac":36,"ac_name":"Shorapur","booth":270,"booth_name":"Govt Lower Primary School Dodda Chapi Tanda"},"geometry":{"type":"Point","coordinates":[76.34494,16.28152]}},{"type":"Feature","properties":{"state":"Karnataka","district":35,"district_n":"YADGIR","pc":6,"pc_name":"Raichur","ac":36,"ac_name":"Shorapur","booth":271,"booth_name":"Govt Lower Primary School Kamalapur"},"geometry":{"type":"Point","coordinates":[76.32741,16.3018532]}},{"type":"Feature","properties":{"state":"Karnataka","district":35,"district_n":"YADGIR","pc":6,"pc_name":"Raichur","ac":36,"ac_name":"Shorapur","booth":272,"booth_name":"Govt Higher Primary School (right Wing) Jumalapur Dodda Tanda"},"geometry":{"type":"Point","coordinates":[76.46688,16.3051682]}}]}