{"type":"FeatureCollection","features":[{"type":"Feature","properties":{"state":"Karnataka","district":35,"district_n":"YADGIR","pc":6,"pc_name":"Raichur","ac":37,"ac_name":"Shahapur","booth":165,"booth_name":"Govt Govt Higher Primary School Mamadapur (right Wing) Shahapur Pattan"},"geometry":{"type":"Point","coordinates":[76.84434,16.6946678]}},{"type":"Feature","properties":{"state":"Karnataka","district":35,"district_n":"YADGIR","pc":6,"pc_name":"Raichur","ac":37,"ac_name":"Shahapur","booth":166,"booth_name":"Govt Govt Higher Primary School New Building Hale Pet (north Wing) Shahapur Pattan"},"geometry":{"type":"Point","coordinates":[76.80356,16.6243324]}},{"type":"Feature","properties":{"state":"Karnataka","district":35,"district_n":"YADGIR","pc":6,"pc_name":"Raichur","ac":37,"ac_name":"Shahapur","booth":167,"booth_name":"Govt Govt Higher Primary School New Building Hale Pet (west Wing) Wing) Shahapur Pattan"},"geometry":{"type":"Point","coordinates":[76.8035355,16.6243248]}},{"type":"Feature","properties":{"state":"Karnataka","district":35,"district_n":"YADGIR","pc":6,"pc_name":"Raichur","ac":37,"ac_name":"Shahapur","booth":168,"booth_name":"Govt Govt Higher Primary School New Building Hale Pet (south Wing) Shahapur Pattan"},"geometry":{"type":"Point","coordinates":[76.80357,16.62433]}},{"type":"Feature","properties":{"state":"Karnataka","district":35,"district_n":"YADGIR","pc":6,"pc_name":"Raichur","ac":37,"ac_name":"Shahapur","booth":169,"booth_name":"Govt Govt Higher Primary School Khavaspur Urdhu New Building (left Wing) Shahapur Pattan"},"geometry":{"type":"Point","coordinates":[76.80325,16.62281]}},{"type":"Feature","properties":{"state":"Karnataka","district":35,"district_n":"YADGIR","pc":6,"pc_name":"Raichur","ac":37,"ac_name":"Shahapur","booth":170,"booth_name":"Govt Govt Higher Primary School Khavaspur Urdhu New Building (right Wing) Shahapur Pattan"},"geometry":{"type":"Point","coordinates":[76.80332,16.6227741]}},{"type":"Feature","properties":{"state":"Karnataka","district":35,"district_n":"YADGIR","pc":6,"pc_name":"Raichur","ac":37,"ac_name":"Shahapur","booth":171,"booth_name":"Govt Govt Higher Primary School Khavaspur Urdhu New Building (north Wing) Shahapur Pattana"},"geometry":{"type":"Point","coordinates":[76.7995,16.6224136]}},{"type":"Feature","properties":{"state":"Karnataka","district":35,"district_n":"YADGIR","pc":6,"pc_name":"Raichur","ac":37,"ac_name":"Shahapur","booth":172,"booth_name":"Govt Govt Higher Rimary School (north Wing) Mamdapur Shahapur Pattan"},"geometry":{"type":"Point","coordinates":[76.79766,16.6243458]}},{"type":"Feature","properties":{"state":"Karnataka","district":35,"district_n":"YADGIR","pc":6,"pc_name":"Raichur","ac":37,"ac_name":"Shahapur","booth":173,"booth_name":"Anjuman Urdu Higher Primary School(left Wing) Palakamma Temple Halepet Shahapur"},"geometry":{"type":"Point","coordinates":[76.80397,16.6232071]}},{"type":"Feature","properties":{"state":"Karnataka","district":35,"district_n":"YADGIR","pc":6,"pc_name":"Raichur","ac":37,"ac_name":"Shahapur","booth":174,"booth_name":"Anjuman Urdu Higher Primary School(right Wing) Palakamma Temple Halepet Shahapur"},"geometry":{"type":"Point","coordinates":[76.80398,16.6233215]}},{"type":"Feature","properties":{"state":"Karnataka","district":35,"district_n":"YADGIR","pc":6,"pc_name":"Raichur","ac":37,"ac_name":"Shahapur","booth":175,"booth_name":"Anjuman Urdu Higher Primary School(north Wing) Palakamma Temple Halepet Shahapur"},"geometry":{"type":"Point","coordinates":[76.80058,16.6503372]}},{"type":"Feature","properties":{"state":"Karnataka","district":35,"district_n":"YADGIR","pc":6,"pc_name":"Raichur","ac":37,"ac_name":"Shahapur","booth":176,"booth_name":"Govt Govt Model Primary School (north Wing) Sagar"},"geometry":{"type":"Point","coordinates":[76.73564,16.6277962]}},{"type":"Feature","properties":{"state":"Karnataka","district":35,"district_n":"YADGIR","pc":6,"pc_name":"Raichur","ac":37,"ac_name":"Shahapur","booth":177,"booth_name":"Govt Govt Model Primary School (south Wing) Sagar"},"geometry":{"type":"Point","coordinates":[76.73568,16.62782]}},{"type":"Feature","properties":{"state":"Karnataka","district":35,"district_n":"YADGIR","pc":6,"pc_name":"Raichur","ac":37,"ac_name":"Shahapur","booth":178,"booth_name":"Govt Govt Model Primary School (middle Wing) Sagar"},"geometry":{"type":"Point","coordinates":[76.74976,16.6365337]}},{"type":"Feature","properties":{"state":"Karnataka","district":35,"district_n":"YADGIR","pc":6,"pc_name":"Raichur","ac":37,"ac_name":"Shahapur","booth":179,"booth_name":"Vevasaya Seva Sahakar Sangha Karyalay (left Wing) Sagar"},"geometry":{"type":"Point","coordinates":[76.74967,16.6364231]}},{"type":"Feature","properties":{"state":"Karnataka","district":35,"district_n":"YADGIR","pc":6,"pc_name":"Raichur","ac":37,"ac_name":"Shahapur","booth":180,"booth_name":"Vevasaya Seva Sahakar Sangha Karyalay (right Wing) Sagar"},"geometry":{"type":"Point","coordinates":[76.69529,16.6330814]}},{"type":"Feature","properties":{"state":"Karnataka","district":35,"district_n":"YADGIR","pc":6,"pc_name":"Raichur","ac":37,"ac_name":"Shahapur","booth":181,"booth_name":"Grama Panchayat Office Building Sagar"},"geometry":{"type":"Point","coordinates":[76.69546,16.6328926]}},{"type":"Feature","properties":{"state":"Karnataka","district":35,"district_n":"YADGIR","pc":6,"pc_name":"Raichur","ac":37,"ac_name":"Shahapur","booth":182,"booth_name":"Anganwadi Kendra Near Police Out Post Sagar"},"geometry":{"type":"Point","coordinates":[76.6972,16.6360531]}},{"type":"Feature","properties":{"state":"Karnataka","district":35,"district_n":"YADGIR","pc":6,"pc_name":"Raichur","ac":37,"ac_name":"Shahapur","booth":183,"booth_name":"Govt Govt Girls High School Sagar"},"geometry":{"type":"Point","coordinates":[76.7014,16.6330013]}},{"type":"Feature","properties":{"state":"Karnataka","district":35,"district_n":"YADGIR","pc":6,"pc_name":"Raichur","ac":37,"ac_name":"Shahapur","booth":184,"booth_name":"Govt Govt High School(middle Wing) Sagar"},"geometry":{"type":"Point","coordinates":[76.69146,16.6348038]}},{"type":"Feature","properties":{"state":"Karnataka","district":35,"district_n":"YADGIR","pc":6,"pc_name":"Raichur","ac":37,"ac_name":"Shahapur","booth":185,"booth_name":"Govt Govt High School(north Wing) Sagar"},"geometry":{"type":"Point","coordinates":[76.69146,16.63479]}},{"type":"Feature","properties":{"state":"Karnataka","district":35,"district_n":"YADGIR","pc":6,"pc_name":"Raichur","ac":37,"ac_name":"Shahapur","booth":186,"booth_name":"Govt Govt Lower Primary School Virpapur Doddi Sagar"},"geometry":{"type":"Point","coordinates":[76.65434,16.6669941]}},{"type":"Feature","properties":{"state":"Karnataka","district":35,"district_n":"YADGIR","pc":6,"pc_name":"Raichur","ac":37,"ac_name":"Shahapur","booth":187,"booth_name":"Govt Govt Higher Primary School (right Wing) Shettikera"},"geometry":{"type":"Point","coordinates":[76.6601,16.6370316]}},{"type":"Feature","properties":{"state":"Karnataka","district":35,"district_n":"YADGIR","pc":6,"pc_name":"Raichur","ac":37,"ac_name":"Shahapur","booth":188,"booth_name":"Govt Govt Higher Primary School (left Wing) Shettikera"},"geometry":{"type":"Point","coordinates":[76.63211,16.6454315]}},{"type":"Feature","properties":{"state":"Karnataka","district":35,"district_n":"YADGIR","pc":6,"pc_name":"Raichur","ac":37,"ac_name":"Shahapur","booth":189,"booth_name":"Govt Govt Higher Primary School (right Wing) Ganganal"},"geometry":{"type":"Point","coordinates":[76.63183,16.64535]}},{"type":"Feature","properties":{"state":"Karnataka","district":35,"district_n":"YADGIR","pc":6,"pc_name":"Raichur","ac":37,"ac_name":"Shahapur","booth":190,"booth_name":"Govt Govt Higher Primary School (left Wing) Ganganal"},"geometry":{"type":"Point","coordinates":[76.61906,16.6254272]}},{"type":"Feature","properties":{"state":"Karnataka","district":35,"district_n":"YADGIR","pc":6,"pc_name":"Raichur","ac":37,"ac_name":"Shahapur","booth":191,"booth_name":"Govt Govt High School (left Wing) Wandurga"},"geometry":{"type":"Point","coordinates":[76.618866,16.6253872]}},{"type":"Feature","properties":{"state":"Karnataka","district":35,"district_n":"YADGIR","pc":6,"pc_name":"Raichur","ac":37,"ac_name":"Shahapur","booth":192,"booth_name":"Govt Govt High School (right Wing) Wandurga"},"geometry":{"type":"Point","coordinates":[76.58185,16.6084728]}},{"type":"Feature","properties":{"state":"Karnataka","district":35,"district_n":"YADGIR","pc":6,"pc_name":"Raichur","ac":37,"ac_name":"Shahapur","booth":193,"booth_name":"Govt Govt Higher Primary School Wandurga"},"geometry":{"type":"Point","coordinates":[76.58183,16.6086178]}},{"type":"Feature","properties":{"state":"Karnataka","district":35,"district_n":"YADGIR","pc":6,"pc_name":"Raichur","ac":37,"ac_name":"Shahapur","booth":194,"booth_name":"Govt Govt Girls Higher Primary School Wandurga"},"geometry":{"type":"Point","coordinates":[76.58294,16.6084976]}},{"type":"Feature","properties":{"state":"Karnataka","district":35,"district_n":"YADGIR","pc":6,"pc_name":"Raichur","ac":37,"ac_name":"Shahapur","booth":195,"booth_name":"Govt Govt Higher Primary School (left Wing) Channur Channur Channur K"},"geometry":{"type":"Point","coordinates":[76.63197,16.595562]}},{"type":"Feature","properties":{"state":"Karnataka","district":35,"district_n":"YADGIR","pc":6,"pc_name":"Raichur","ac":37,"ac_name":"Shahapur","booth":196,"booth_name":"Govt Govt Higher Primary School (right Wing) Channur Channur K"},"geometry":{"type":"Point","coordinates":[76.63214,16.59553]}},{"type":"Feature","properties":{"state":"Karnataka","district":35,"district_n":"YADGIR","pc":6,"pc_name":"Raichur","ac":37,"ac_name":"Shahapur","booth":197,"booth_name":"Govt Govt Higher Primary School Boodnur"},"geometry":{"type":"Point","coordinates":[76.61711,16.6161423]}},{"type":"Feature","properties":{"state":"Karnataka","district":35,"district_n":"YADGIR","pc":6,"pc_name":"Raichur","ac":37,"ac_name":"Shahapur","booth":198,"booth_name":"Govt Govt Lower Primary School Building Aldal"},"geometry":{"type":"Point","coordinates":[76.65742,16.6125546]}},{"type":"Feature","properties":{"state":"Karnataka","district":35,"district_n":"YADGIR","pc":6,"pc_name":"Raichur","ac":37,"ac_name":"Shahapur","booth":199,"booth_name":"Govt Govt Higher Primary School (right Wing) Goudager"},"geometry":{"type":"Point","coordinates":[76.664856,16.60652]}},{"type":"Feature","properties":{"state":"Karnataka","district":35,"district_n":"YADGIR","pc":6,"pc_name":"Raichur","ac":37,"ac_name":"Shahapur","booth":200,"booth_name":"Govt Govt Higher Primary School (left Wing) Goudagera"},"geometry":{"type":"Point","coordinates":[76.783226,16.6276245]}},{"type":"Feature","properties":{"state":"Karnataka","district":35,"district_n":"YADGIR","pc":6,"pc_name":"Raichur","ac":37,"ac_name":"Shahapur","booth":201,"booth_name":"Govt Govt Lower Primary School Kirdalli"},"geometry":{"type":"Point","coordinates":[76.78321,16.6275845]}},{"type":"Feature","properties":{"state":"Karnataka","district":35,"district_n":"YADGIR","pc":6,"pc_name":"Raichur","ac":37,"ac_name":"Shahapur","booth":202,"booth_name":"Anganawadi Centre Kiradalli"},"geometry":{"type":"Point","coordinates":[76.8517761,16.63085]}},{"type":"Feature","properties":{"state":"Karnataka","district":35,"district_n":"YADGIR","pc":6,"pc_name":"Raichur","ac":37,"ac_name":"Shahapur","booth":203,"booth_name":"Govt Govt Higher Primary School (right Wing) Karadakal"},"geometry":{"type":"Point","coordinates":[76.85169,16.630825]}},{"type":"Feature","properties":{"state":"Karnataka","district":35,"district_n":"YADGIR","pc":6,"pc_name":"Raichur","ac":37,"ac_name":"Shahapur","booth":204,"booth_name":"Govt Govt Higher Primary School (left Wing) Karadakal"},"geometry":{"type":"Point","coordinates":[76.85169,16.63084]}},{"type":"Feature","properties":{"state":"Karnataka","district":35,"district_n":"YADGIR","pc":6,"pc_name":"Raichur","ac":37,"ac_name":"Shahapur","booth":205,"booth_name":"New Panchayat Building Karadakal"},"geometry":{"type":"Point","coordinates":[76.85295,16.6306362]}},{"type":"Feature","properties":{"state":"Karnataka","district":35,"district_n":"YADGIR","pc":6,"pc_name":"Raichur","ac":37,"ac_name":"Shahapur","booth":206,"booth_name":"Govt Govt Higher Primary School (right Wing) Hegganadoddi"},"geometry":{"type":"Point","coordinates":[76.8516159,16.6500874]}},{"type":"Feature","properties":{"state":"Karnataka","district":35,"district_n":"YADGIR","pc":6,"pc_name":"Raichur","ac":37,"ac_name":"Shahapur","booth":207,"booth_name":"Govt Govt Higher Primary School (left Wing) Hegganadoddi"},"geometry":{"type":"Point","coordinates":[76.85715,16.6608734]}},{"type":"Feature","properties":{"state":"Karnataka","district":35,"district_n":"YADGIR","pc":6,"pc_name":"Raichur","ac":37,"ac_name":"Shahapur","booth":208,"booth_name":"Govt Govt Lower Primary School Jainapur"},"geometry":{"type":"Point","coordinates":[76.8716354,16.6679478]}},{"type":"Feature","properties":{"state":"Karnataka","district":35,"district_n":"YADGIR","pc":6,"pc_name":"Raichur","ac":37,"ac_name":"Shahapur","booth":209,"booth_name":"Govt Higher Primary School (right Wing) Malgatti"},"geometry":{"type":"Point","coordinates":[76.89426,16.6648579]}},{"type":"Feature","properties":{"state":"Karnataka","district":35,"district_n":"YADGIR","pc":6,"pc_name":"Raichur","ac":37,"ac_name":"Shahapur","booth":210,"booth_name":"Govt Higher Primary School (leftwing) Malgatti"},"geometry":{"type":"Point","coordinates":[76.89426,16.6648064]}},{"type":"Feature","properties":{"state":"Karnataka","district":35,"district_n":"YADGIR","pc":6,"pc_name":"Raichur","ac":37,"ac_name":"Shahapur","booth":211,"booth_name":"Govt Govt Lower Primary School Tipanatagi"},"geometry":{"type":"Point","coordinates":[76.89307,16.6654854]}},{"type":"Feature","properties":{"state":"Karnataka","district":35,"district_n":"YADGIR","pc":6,"pc_name":"Raichur","ac":37,"ac_name":"Shahapur","booth":212,"booth_name":"Govt Govt Lower Primary School Building Mahalroja"},"geometry":{"type":"Point","coordinates":[76.92376,16.6832561]}},{"type":"Feature","properties":{"state":"Karnataka","district":35,"district_n":"YADGIR","pc":6,"pc_name":"Raichur","ac":37,"ac_name":"Shahapur","booth":213,"booth_name":"Govt Govt Higher Primary School Dariyapur"},"geometry":{"type":"Point","coordinates":[76.88069,16.603529]}},{"type":"Feature","properties":{"state":"Karnataka","district":35,"district_n":"YADGIR","pc":6,"pc_name":"Raichur","ac":37,"ac_name":"Shahapur","booth":214,"booth_name":"Govt Govt Higher Primary School (left Wing) Rastapur"},"geometry":{"type":"Point","coordinates":[76.88069,16.60336]}},{"type":"Feature","properties":{"state":"Karnataka","district":35,"district_n":"YADGIR","pc":6,"pc_name":"Raichur","ac":37,"ac_name":"Shahapur","booth":215,"booth_name":"Govt Govt Higher Primary School (middle Wing) Rastapur"},"geometry":{"type":"Point","coordinates":[76.81419,16.5884724]}},{"type":"Feature","properties":{"state":"Karnataka","district":35,"district_n":"YADGIR","pc":6,"pc_name":"Raichur","ac":37,"ac_name":"Shahapur","booth":216,"booth_name":"Govt Govt Higher Primary School (right Wing) Rastapur"},"geometry":{"type":"Point","coordinates":[76.81416,16.5885277]}},{"type":"Feature","properties":{"state":"Karnataka","district":35,"district_n":"YADGIR","pc":6,"pc_name":"Raichur","ac":37,"ac_name":"Shahapur","booth":217,"booth_name":"Grama Panchayat Office Building Rastapur"},"geometry":{"type":"Point","coordinates":[76.99358,16.5706387]}},{"type":"Feature","properties":{"state":"Karnataka","district":35,"district_n":"YADGIR","pc":6,"pc_name":"Raichur","ac":37,"ac_name":"Shahapur","booth":218,"booth_name":"Govt Govt Lower Primary School Building Golagera"},"geometry":{"type":"Point","coordinates":[76.84917,16.57834]}},{"type":"Feature","properties":{"state":"Karnataka","district":35,"district_n":"YADGIR","pc":6,"pc_name":"Raichur","ac":37,"ac_name":"Shahapur","booth":132,"booth_name":"Govt Govt Higher Primary School Ganga Nagar (north Wing) Halisagar"},"geometry":{"type":"Point","coordinates":[76.84511,16.7066021]}},{"type":"Feature","properties":{"state":"Karnataka","district":35,"district_n":"YADGIR","pc":6,"pc_name":"Raichur","ac":37,"ac_name":"Shahapur","booth":133,"booth_name":"Govt Govt Higher Primary School (south Wing) Halisagar"},"geometry":{"type":"Point","coordinates":[76.86444,16.6901112]}},{"type":"Feature","properties":{"state":"Karnataka","district":35,"district_n":"YADGIR","pc":6,"pc_name":"Raichur","ac":37,"ac_name":"Shahapur","booth":134,"booth_name":"Govt Govt Model Primary School (right Wing) Halisagar"},"geometry":{"type":"Point","coordinates":[76.86412,16.74127]}},{"type":"Feature","properties":{"state":"Karnataka","district":35,"district_n":"YADGIR","pc":6,"pc_name":"Raichur","ac":37,"ac_name":"Shahapur","booth":135,"booth_name":"Govt Govt Model Primary School (left Wing) Halisagar"},"geometry":{"type":"Point","coordinates":[76.8783,16.7300282]}},{"type":"Feature","properties":{"state":"Karnataka","district":35,"district_n":"YADGIR","pc":6,"pc_name":"Raichur","ac":37,"ac_name":"Shahapur","booth":136,"booth_name":"Ekalavya Primary & High School (left Wing) Halisagar"},"geometry":{"type":"Point","coordinates":[76.84078,16.7038517]}},{"type":"Feature","properties":{"state":"Karnataka","district":35,"district_n":"YADGIR","pc":6,"pc_name":"Raichur","ac":37,"ac_name":"Shahapur","booth":137,"booth_name":"Ekalavya Primary & High School (right Wing) Halisagar"},"geometry":{"type":"Point","coordinates":[76.8406448,16.7040958]}},{"type":"Feature","properties":{"state":"Karnataka","district":35,"district_n":"YADGIR","pc":6,"pc_name":"Raichur","ac":37,"ac_name":"Shahapur","booth":138,"booth_name":"A E E P R E Sub Division Office Shahapur (halisagar)"},"geometry":{"type":"Point","coordinates":[76.83986,16.7028179]}},{"type":"Feature","properties":{"state":"Karnataka","district":35,"district_n":"YADGIR","pc":6,"pc_name":"Raichur","ac":37,"ac_name":"Shahapur","booth":139,"booth_name":"A E E P W D D Sub Division Office Shahapur (halisagar)"},"geometry":{"type":"Point","coordinates":[76.8398361,16.7027817]}},{"type":"Feature","properties":{"state":"Karnataka","district":35,"district_n":"YADGIR","pc":6,"pc_name":"Raichur","ac":37,"ac_name":"Shahapur","booth":140,"booth_name":"Govt Govt Lower Primary School Building Benakanalli Benakanalli (j)"},"geometry":{"type":"Point","coordinates":[76.83874,16.7029839]}},{"type":"Feature","properties":{"state":"Karnataka","district":35,"district_n":"YADGIR","pc":6,"pc_name":"Raichur","ac":37,"ac_name":"Shahapur","booth":141,"booth_name":"Govt Govt Higher Primary School Madnal"},"geometry":{"type":"Point","coordinates":[76.83875,16.702879]}},{"type":"Feature","properties":{"state":"Karnataka","district":35,"district_n":"YADGIR","pc":6,"pc_name":"Raichur","ac":37,"ac_name":"Shahapur","booth":142,"booth_name":"Govt Govt Higher Primary School Bevinalli Bevinalli (j)"},"geometry":{"type":"Point","coordinates":[76.8268,16.710474]}},{"type":"Feature","properties":{"state":"Karnataka","district":35,"district_n":"YADGIR","pc":6,"pc_name":"Raichur","ac":37,"ac_name":"Shahapur","booth":143,"booth_name":"Taluka Panchayata Office Old Building Shahapur Pattan"},"geometry":{"type":"Point","coordinates":[76.82659,16.7105923]}},{"type":"Feature","properties":{"state":"Karnataka","district":35,"district_n":"YADGIR","pc":6,"pc_name":"Raichur","ac":37,"ac_name":"Shahapur","booth":144,"booth_name":"Taluka Panchayata Office New Building Shahapur Pattan"},"geometry":{"type":"Point","coordinates":[76.8372,16.7019577]}},{"type":"Feature","properties":{"state":"Karnataka","district":35,"district_n":"YADGIR","pc":6,"pc_name":"Raichur","ac":37,"ac_name":"Shahapur","booth":145,"booth_name":"Govt Govt Girls Pu Collage Building (left Wing) Wing) Wing) Shahapur Pattan"},"geometry":{"type":"Point","coordinates":[76.83866,16.7011871]}},{"type":"Feature","properties":{"state":"Karnataka","district":35,"district_n":"YADGIR","pc":6,"pc_name":"Raichur","ac":37,"ac_name":"Shahapur","booth":146,"booth_name":"Govt Govt Girls Pu Collage Building (right Wing) Shahapur Pattan"},"geometry":{"type":"Point","coordinates":[76.83855,16.701128]}},{"type":"Feature","properties":{"state":"Karnataka","district":35,"district_n":"YADGIR","pc":6,"pc_name":"Raichur","ac":37,"ac_name":"Shahapur","booth":147,"booth_name":"Govt Govt Model Higher Primary School Saler Nagar (left Wing) Shahapur Pattan"},"geometry":{"type":"Point","coordinates":[76.84116,16.702467]}},{"type":"Feature","properties":{"state":"Karnataka","district":35,"district_n":"YADGIR","pc":6,"pc_name":"Raichur","ac":37,"ac_name":"Shahapur","booth":148,"booth_name":"Govt Govt Model Higher Primary School Saler Nagar (right Wing) Shahapur Pattan"},"geometry":{"type":"Point","coordinates":[76.841156,16.70264]}},{"type":"Feature","properties":{"state":"Karnataka","district":35,"district_n":"YADGIR","pc":6,"pc_name":"Raichur","ac":37,"ac_name":"Shahapur","booth":149,"booth_name":"Landarmy Office Shahapur Shahapur (left Wing) Shahapur Pattan"},"geometry":{"type":"Point","coordinates":[76.8427,16.69957]}},{"type":"Feature","properties":{"state":"Karnataka","district":35,"district_n":"YADGIR","pc":6,"pc_name":"Raichur","ac":37,"ac_name":"Shahapur","booth":150,"booth_name":"Landarmy Office Shahapur (right Wing) Shahapur Pattan"},"geometry":{"type":"Point","coordinates":[76.04173,16.5850677]}},{"type":"Feature","properties":{"state":"Karnataka","district":35,"district_n":"YADGIR","pc":6,"pc_name":"Raichur","ac":37,"ac_name":"Shahapur","booth":151,"booth_name":"C B S S School Diggi Besa Shahapur Pattan"},"geometry":{"type":"Point","coordinates":[76.8427658,16.6995373]}},{"type":"Feature","properties":{"state":"Karnataka","district":35,"district_n":"YADGIR","pc":6,"pc_name":"Raichur","ac":37,"ac_name":"Shahapur","booth":152,"booth_name":"Govt Govt Girls Model Primary School Old Tahasil Office (left Wing) Shahapur"},"geometry":{"type":"Point","coordinates":[76.8413544,16.702322]}},{"type":"Feature","properties":{"state":"Karnataka","district":35,"district_n":"YADGIR","pc":6,"pc_name":"Raichur","ac":37,"ac_name":"Shahapur","booth":153,"booth_name":"Govt Govt Girls Model Primary School Old Tahasil Office (right Wing) Shahapur"},"geometry":{"type":"Point","coordinates":[76.84271,16.6995316]}},{"type":"Feature","properties":{"state":"Karnataka","district":35,"district_n":"YADGIR","pc":6,"pc_name":"Raichur","ac":37,"ac_name":"Shahapur","booth":154,"booth_name":"Govt Govt Pu Collage (left Wing) Shahapur Pattan"},"geometry":{"type":"Point","coordinates":[76.8423157,16.69837]}},{"type":"Feature","properties":{"state":"Karnataka","district":35,"district_n":"YADGIR","pc":6,"pc_name":"Raichur","ac":37,"ac_name":"Shahapur","booth":155,"booth_name":"Govt Govt Pu Collage (right Wing) Shahapur Pattan"},"geometry":{"type":"Point","coordinates":[76.84211,16.6982689]}},{"type":"Feature","properties":{"state":"Karnataka","district":35,"district_n":"YADGIR","pc":6,"pc_name":"Raichur","ac":37,"ac_name":"Shahapur","booth":156,"booth_name":"Govt Govt Higher Primary School Old Building (left Wing) Vidya Nagnar Shahapur Pattan"},"geometry":{"type":"Point","coordinates":[76.83953,16.6937351]}},{"type":"Feature","properties":{"state":"Karnataka","district":35,"district_n":"YADGIR","pc":6,"pc_name":"Raichur","ac":37,"ac_name":"Shahapur","booth":157,"booth_name":"Govt Govt Higher Primary School Old Building R(ight Wing) Vidya Nagnar Shahapur Pattan"},"geometry":{"type":"Point","coordinates":[76.8394241,16.6938076]}},{"type":"Feature","properties":{"state":"Karnataka","district":35,"district_n":"YADGIR","pc":6,"pc_name":"Raichur","ac":37,"ac_name":"Shahapur","booth":1,"booth_name":"Govt Govt Lower Primary School Chincholi"},"geometry":{"type":"Point","coordinates":[76.4295,16.6917076]}},{"type":"Feature","properties":{"state":"Karnataka","district":35,"district_n":"YADGIR","pc":6,"pc_name":"Raichur","ac":37,"ac_name":"Shahapur","booth":2,"booth_name":"Govt Govt Model Primary School Vandaganoor"},"geometry":{"type":"Point","coordinates":[76.44054,16.7039814]}},{"type":"Feature","properties":{"state":"Karnataka","district":35,"district_n":"YADGIR","pc":6,"pc_name":"Raichur","ac":37,"ac_name":"Shahapur","booth":3,"booth_name":"Govt Govt Higher Primary School (right Wing) Yalagi"},"geometry":{"type":"Point","coordinates":[76.50276,16.6869659]}},{"type":"Feature","properties":{"state":"Karnataka","district":35,"district_n":"YADGIR","pc":6,"pc_name":"Raichur","ac":37,"ac_name":"Shahapur","booth":4,"booth_name":"Govt Govt Higher Primary School (left Wing) Yalagi"},"geometry":{"type":"Point","coordinates":[76.50279,16.6870556]}},{"type":"Feature","properties":{"state":"Karnataka","district":35,"district_n":"YADGIR","pc":6,"pc_name":"Raichur","ac":37,"ac_name":"Shahapur","booth":5,"booth_name":"Govt Govt High School (right Wing) Yalagi"},"geometry":{"type":"Point","coordinates":[76.50607,16.6880512]}},{"type":"Feature","properties":{"state":"Karnataka","district":35,"district_n":"YADGIR","pc":6,"pc_name":"Raichur","ac":37,"ac_name":"Shahapur","booth":6,"booth_name":"Govt Govt High School (left Wing) Yalagi"},"geometry":{"type":"Point","coordinates":[76.50621,16.6878719]}},{"type":"Feature","properties":{"state":"Karnataka","district":35,"district_n":"YADGIR","pc":6,"pc_name":"Raichur","ac":37,"ac_name":"Shahapur","booth":7,"booth_name":"Govt Govt Lower Primary School Yalagi Tanda"},"geometry":{"type":"Point","coordinates":[76.5103,16.6776886]}},{"type":"Feature","properties":{"state":"Karnataka","district":35,"district_n":"YADGIR","pc":6,"pc_name":"Raichur","ac":37,"ac_name":"Shahapur","booth":8,"booth_name":"Govt Govt Higher Primary School (right Wing) Hadanoor"},"geometry":{"type":"Point","coordinates":[76.54085,16.73574]}},{"type":"Feature","properties":{"state":"Karnataka","district":35,"district_n":"YADGIR","pc":6,"pc_name":"Raichur","ac":37,"ac_name":"Shahapur","booth":9,"booth_name":"Govt Govt Higher Primary School (left Wing) Hadanoor"},"geometry":{"type":"Point","coordinates":[76.54073,16.7360668]}},{"type":"Feature","properties":{"state":"Karnataka","district":35,"district_n":"YADGIR","pc":6,"pc_name":"Raichur","ac":37,"ac_name":"Shahapur","booth":10,"booth_name":"Anganawadi Building Malla K"},"geometry":{"type":"Point","coordinates":[76.5673752,16.7420273]}},{"type":"Feature","properties":{"state":"Karnataka","district":35,"district_n":"YADGIR","pc":6,"pc_name":"Raichur","ac":37,"ac_name":"Shahapur","booth":11,"booth_name":"Govt Govt Higher Primary School (left Wing) Yewoor Dodda Tanda"},"geometry":{"type":"Point","coordinates":[76.5869,16.7284164]}},{"type":"Feature","properties":{"state":"Karnataka","district":35,"district_n":"YADGIR","pc":6,"pc_name":"Raichur","ac":37,"ac_name":"Shahapur","booth":12,"booth_name":"Govt Govt Higher Primary School (right Wing) Yewoor Dodda Thanda"},"geometry":{"type":"Point","coordinates":[76.58727,16.7275314]}},{"type":"Feature","properties":{"state":"Karnataka","district":35,"district_n":"YADGIR","pc":6,"pc_name":"Raichur","ac":37,"ac_name":"Shahapur","booth":13,"booth_name":"Govt Govt Lower Primary School Kambar Tanda Yewoor"},"geometry":{"type":"Point","coordinates":[76.60971,16.7114162]}},{"type":"Feature","properties":{"state":"Karnataka","district":35,"district_n":"YADGIR","pc":6,"pc_name":"Raichur","ac":37,"ac_name":"Shahapur","booth":14,"booth_name":"Govt Govt Higher Primary School (left Wing ) Yevoor"},"geometry":{"type":"Point","coordinates":[76.60539,16.734375]}},{"type":"Feature","properties":{"state":"Karnataka","district":35,"district_n":"YADGIR","pc":6,"pc_name":"Raichur","ac":37,"ac_name":"Shahapur","booth":15,"booth_name":"Govt Govt Higher Primary School (right Wing ) Yevoor"},"geometry":{"type":"Point","coordinates":[76.60532,16.7342319]}},{"type":"Feature","properties":{"state":"Karnataka","district":35,"district_n":"YADGIR","pc":6,"pc_name":"Raichur","ac":37,"ac_name":"Shahapur","booth":16,"booth_name":"Govt Govt Lower Primary School Dand Solapur"},"geometry":{"type":"Point","coordinates":[76.63809,16.7235222]}},{"type":"Feature","properties":{"state":"Karnataka","district":35,"district_n":"YADGIR","pc":6,"pc_name":"Raichur","ac":37,"ac_name":"Shahapur","booth":17,"booth_name":"Govt Higher Primary School Ukkinal"},"geometry":{"type":"Point","coordinates":[76.66422,16.7571831]}},{"type":"Feature","properties":{"state":"Karnataka","district":35,"district_n":"YADGIR","pc":6,"pc_name":"Raichur","ac":37,"ac_name":"Shahapur","booth":18,"booth_name":"Govt Govt Higher Primary School (left Wing) Ukkinal Tanda"},"geometry":{"type":"Point","coordinates":[76.66536,16.7410564]}},{"type":"Feature","properties":{"state":"Karnataka","district":35,"district_n":"YADGIR","pc":6,"pc_name":"Raichur","ac":37,"ac_name":"Shahapur","booth":19,"booth_name":"Govt Govt Higher Primary School (north Wing) Ukkinal Tanda"},"geometry":{"type":"Point","coordinates":[76.6655,16.7411842]}},{"type":"Feature","properties":{"state":"Karnataka","district":35,"district_n":"YADGIR","pc":6,"pc_name":"Raichur","ac":37,"ac_name":"Shahapur","booth":20,"booth_name":"Govt Higher Primary School (est Wing) Harangera"},"geometry":{"type":"Point","coordinates":[76.69926,16.7553749]}},{"type":"Feature","properties":{"state":"Karnataka","district":35,"district_n":"YADGIR","pc":6,"pc_name":"Raichur","ac":37,"ac_name":"Shahapur","booth":21,"booth_name":"Govt Govt Higher Primary School (north Wing) Harangera"},"geometry":{"type":"Point","coordinates":[76.69917,16.7552624]}},{"type":"Feature","properties":{"state":"Karnataka","district":35,"district_n":"YADGIR","pc":6,"pc_name":"Raichur","ac":37,"ac_name":"Shahapur","booth":22,"booth_name":"Govt Govt Higher Primary School (left Wing) Maddarki"},"geometry":{"type":"Point","coordinates":[76.77903,16.8057079]}},{"type":"Feature","properties":{"state":"Karnataka","district":35,"district_n":"YADGIR","pc":6,"pc_name":"Raichur","ac":37,"ac_name":"Shahapur","booth":23,"booth_name":"Govt Govt Higher Primary School (middle Wing) Maddarki"},"geometry":{"type":"Point","coordinates":[76.779,16.80565]}},{"type":"Feature","properties":{"state":"Karnataka","district":35,"district_n":"YADGIR","pc":6,"pc_name":"Raichur","ac":37,"ac_name":"Shahapur","booth":24,"booth_name":"Govt Govt High School (right Wing) Maddarki"},"geometry":{"type":"Point","coordinates":[76.77922,16.805109]}},{"type":"Feature","properties":{"state":"Karnataka","district":35,"district_n":"YADGIR","pc":6,"pc_name":"Raichur","ac":37,"ac_name":"Shahapur","booth":25,"booth_name":"Govt Govt Higher Primary School School School Haral Halli"},"geometry":{"type":"Point","coordinates":[76.79771,16.7875919]}},{"type":"Feature","properties":{"state":"Karnataka","district":35,"district_n":"YADGIR","pc":6,"pc_name":"Raichur","ac":37,"ac_name":"Shahapur","booth":26,"booth_name":"Govt Govt Higher Primary School (left Wing ) Mudbool"},"geometry":{"type":"Point","coordinates":[76.8146439,16.833168]}},{"type":"Feature","properties":{"state":"Karnataka","district":35,"district_n":"YADGIR","pc":6,"pc_name":"Raichur","ac":37,"ac_name":"Shahapur","booth":27,"booth_name":"Govt Govt Higher Primary School (right Wing) Wing) Mudbool"},"geometry":{"type":"Point","coordinates":[76.81495,16.8328972]}},{"type":"Feature","properties":{"state":"Karnataka","district":35,"district_n":"YADGIR","pc":6,"pc_name":"Raichur","ac":37,"ac_name":"Shahapur","booth":28,"booth_name":"Grama Panchayat Office Building Building Building Mudbool"},"geometry":{"type":"Point","coordinates":[76.8125,16.830513]}},{"type":"Feature","properties":{"state":"Karnataka","district":35,"district_n":"YADGIR","pc":6,"pc_name":"Raichur","ac":37,"ac_name":"Shahapur","booth":29,"booth_name":"Govt Govt Higher Primary School School Hosoor"},"geometry":{"type":"Point","coordinates":[76.90256,16.873354]}},{"type":"Feature","properties":{"state":"Karnataka","district":35,"district_n":"YADGIR","pc":6,"pc_name":"Raichur","ac":37,"ac_name":"Shahapur","booth":30,"booth_name":"Govt Govt Higher Primary School School School Anabi"},"geometry":{"type":"Point","coordinates":[76.8988,16.8563976]}},{"type":"Feature","properties":{"state":"Karnataka","district":35,"district_n":"YADGIR","pc":6,"pc_name":"Raichur","ac":37,"ac_name":"Shahapur","booth":31,"booth_name":"Old Panchayat Office Building Anabi"},"geometry":{"type":"Point","coordinates":[76.89665,16.8541985]}},{"type":"Feature","properties":{"state":"Karnataka","district":35,"district_n":"YADGIR","pc":6,"pc_name":"Raichur","ac":37,"ac_name":"Shahapur","booth":32,"booth_name":"Grama Panchayata Office Building (right Wing) Sirwal"},"geometry":{"type":"Point","coordinates":[76.88569,16.8134975]}},{"type":"Feature","properties":{"state":"Karnataka","district":35,"district_n":"YADGIR","pc":6,"pc_name":"Raichur","ac":37,"ac_name":"Shahapur","booth":33,"booth_name":"Grama Panchayata Office Building (left Wing) Sirwal"},"geometry":{"type":"Point","coordinates":[76.88601,16.8139629]}},{"type":"Feature","properties":{"state":"Karnataka","district":35,"district_n":"YADGIR","pc":6,"pc_name":"Raichur","ac":37,"ac_name":"Shahapur","booth":34,"booth_name":"Govt Govt Model Primary School (left Wing) Sirwal"},"geometry":{"type":"Point","coordinates":[76.88609,16.81389]}},{"type":"Feature","properties":{"state":"Karnataka","district":35,"district_n":"YADGIR","pc":6,"pc_name":"Raichur","ac":37,"ac_name":"Shahapur","booth":35,"booth_name":"Govt Govt Model Primary School (middle Wing) Sirawal"},"geometry":{"type":"Point","coordinates":[76.88284,16.80698]}},{"type":"Feature","properties":{"state":"Karnataka","district":35,"district_n":"YADGIR","pc":6,"pc_name":"Raichur","ac":37,"ac_name":"Shahapur","booth":36,"booth_name":"Govt Govt Model Primary School (right Wing) Sirwal"},"geometry":{"type":"Point","coordinates":[76.85934,16.80677]}},{"type":"Feature","properties":{"state":"Karnataka","district":35,"district_n":"YADGIR","pc":6,"pc_name":"Raichur","ac":37,"ac_name":"Shahapur","booth":37,"booth_name":"Govt High School Sirwal"},"geometry":{"type":"Point","coordinates":[76.8452,16.7834911]}},{"type":"Feature","properties":{"state":"Karnataka","district":35,"district_n":"YADGIR","pc":6,"pc_name":"Raichur","ac":37,"ac_name":"Shahapur","booth":38,"booth_name":"Govt Govt Lower Primary School School Itga S Sirwal"},"geometry":{"type":"Point","coordinates":[76.84552,16.7770424]}},{"type":"Feature","properties":{"state":"Karnataka","district":35,"district_n":"YADGIR","pc":6,"pc_name":"Raichur","ac":37,"ac_name":"Shahapur","booth":39,"booth_name":"Govt Govt Lower Primary School School School Saladpur"},"geometry":{"type":"Point","coordinates":[76.78725,16.7774563]}},{"type":"Feature","properties":{"state":"Karnataka","district":35,"district_n":"YADGIR","pc":6,"pc_name":"Raichur","ac":37,"ac_name":"Shahapur","booth":40,"booth_name":"Govt Govt Lower Primary School Ingalagi"},"geometry":{"type":"Point","coordinates":[76.8184,16.7608242]}},{"type":"Feature","properties":{"state":"Karnataka","district":35,"district_n":"YADGIR","pc":6,"pc_name":"Raichur","ac":37,"ac_name":"Shahapur","booth":41,"booth_name":"Old Panchayat Office Building Hothpet"},"geometry":{"type":"Point","coordinates":[76.80311,16.7397118]}},{"type":"Feature","properties":{"state":"Karnataka","district":35,"district_n":"YADGIR","pc":6,"pc_name":"Raichur","ac":37,"ac_name":"Shahapur","booth":42,"booth_name":"Govt Govt Higher Primary School School School Hothpet"},"geometry":{"type":"Point","coordinates":[76.82565,16.7485924]}},{"type":"Feature","properties":{"state":"Karnataka","district":35,"district_n":"YADGIR","pc":6,"pc_name":"Raichur","ac":37,"ac_name":"Shahapur","booth":43,"booth_name":"Govt Govt Lower Primary School School School Naduvin Tanda Hothepet"},"geometry":{"type":"Point","coordinates":[76.82895,16.760416]}},{"type":"Feature","properties":{"state":"Karnataka","district":35,"district_n":"YADGIR","pc":6,"pc_name":"Raichur","ac":37,"ac_name":"Shahapur","booth":44,"booth_name":"Govt Govt Lower Primary School School School Halbavi"},"geometry":{"type":"Point","coordinates":[76.7902756,16.7538986]}},{"type":"Feature","properties":{"state":"Karnataka","district":35,"district_n":"YADGIR","pc":6,"pc_name":"Raichur","ac":37,"ac_name":"Shahapur","booth":45,"booth_name":"Govt Lower Primary School School School Maktapur"},"geometry":{"type":"Point","coordinates":[76.78724,16.777359]}},{"type":"Feature","properties":{"state":"Karnataka","district":35,"district_n":"YADGIR","pc":6,"pc_name":"Raichur","ac":37,"ac_name":"Shahapur","booth":46,"booth_name":"Govt Govt Higher Primary School (right Wing) Hulkal K"},"geometry":{"type":"Point","coordinates":[76.77074,16.7605629]}},{"type":"Feature","properties":{"state":"Karnataka","district":35,"district_n":"YADGIR","pc":6,"pc_name":"Raichur","ac":37,"ac_name":"Shahapur","booth":47,"booth_name":"Govt Govt Higher Primary School (left Wing) Hulkal K"},"geometry":{"type":"Point","coordinates":[76.76968,16.7445374]}},{"type":"Feature","properties":{"state":"Karnataka","district":35,"district_n":"YADGIR","pc":6,"pc_name":"Raichur","ac":37,"ac_name":"Shahapur","booth":48,"booth_name":"Govt Govt Lower Primary School School School Sadyapur"},"geometry":{"type":"Point","coordinates":[76.74768,16.72774]}},{"type":"Feature","properties":{"state":"Karnataka","district":35,"district_n":"YADGIR","pc":6,"pc_name":"Raichur","ac":37,"ac_name":"Shahapur","booth":49,"booth_name":"Govt Govt Lower Primary School Kodamanalli"},"geometry":{"type":"Point","coordinates":[76.74765,16.7278671]}},{"type":"Feature","properties":{"state":"Karnataka","district":35,"district_n":"YADGIR","pc":6,"pc_name":"Raichur","ac":37,"ac_name":"Shahapur","booth":50,"booth_name":"Govt Govt Lower Primary School Kanchana Kavi"},"geometry":{"type":"Point","coordinates":[76.74808,16.7278175]}},{"type":"Feature","properties":{"state":"Karnataka","district":35,"district_n":"YADGIR","pc":6,"pc_name":"Raichur","ac":37,"ac_name":"Shahapur","booth":51,"booth_name":"Govt Govt P U College , Building (left Wing) Gogi K"},"geometry":{"type":"Point","coordinates":[76.77449,16.7315464]}},{"type":"Feature","properties":{"state":"Karnataka","district":35,"district_n":"YADGIR","pc":6,"pc_name":"Raichur","ac":37,"ac_name":"Shahapur","booth":52,"booth_name":"Govt Govt P U College , Building (right Wing) Gogi K"},"geometry":{"type":"Point","coordinates":[76.7450256,16.7317028]}},{"type":"Feature","properties":{"state":"Karnataka","district":35,"district_n":"YADGIR","pc":6,"pc_name":"Raichur","ac":37,"ac_name":"Shahapur","booth":53,"booth_name":"Govt Govt P U College , New Building (left Wing) Gogi K"},"geometry":{"type":"Point","coordinates":[76.7434,16.6867752]}},{"type":"Feature","properties":{"state":"Karnataka","district":35,"district_n":"YADGIR","pc":6,"pc_name":"Raichur","ac":37,"ac_name":"Shahapur","booth":54,"booth_name":"Govt Govt Higher Primary School (left Wing) Gogi K"},"geometry":{"type":"Point","coordinates":[76.74468,16.7339]}},{"type":"Feature","properties":{"state":"Karnataka","district":35,"district_n":"YADGIR","pc":6,"pc_name":"Raichur","ac":37,"ac_name":"Shahapur","booth":55,"booth_name":"Govt Govt Higher Primary School (right Wing) Gogi K"},"geometry":{"type":"Point","coordinates":[76.74528,16.73375]}},{"type":"Feature","properties":{"state":"Karnataka","district":35,"district_n":"YADGIR","pc":6,"pc_name":"Raichur","ac":37,"ac_name":"Shahapur","booth":56,"booth_name":"Govt Govt Lower Primary School Gangu Nayak Tanda"},"geometry":{"type":"Point","coordinates":[76.74602,16.7356739]}},{"type":"Feature","properties":{"state":"Karnataka","district":35,"district_n":"YADGIR","pc":6,"pc_name":"Raichur","ac":37,"ac_name":"Shahapur","booth":57,"booth_name":"Govt Govt Girls Lower Primary School School School (left Wing) Gogi Pet"},"geometry":{"type":"Point","coordinates":[76.7448,16.7342815]}},{"type":"Feature","properties":{"state":"Karnataka","district":35,"district_n":"YADGIR","pc":6,"pc_name":"Raichur","ac":37,"ac_name":"Shahapur","booth":58,"booth_name":"Govt Govt Girls Lower Primary School School School (right Wing) Gogi Pet"},"geometry":{"type":"Point","coordinates":[76.74649,16.7364521]}},{"type":"Feature","properties":{"state":"Karnataka","district":35,"district_n":"YADGIR","pc":6,"pc_name":"Raichur","ac":37,"ac_name":"Shahapur","booth":59,"booth_name":"Anganwadi Kendra (right Wing) Gogi Pet"},"geometry":{"type":"Point","coordinates":[76.7463455,16.7366524]}},{"type":"Feature","properties":{"state":"Karnataka","district":35,"district_n":"YADGIR","pc":6,"pc_name":"Raichur","ac":37,"ac_name":"Shahapur","booth":60,"booth_name":"Anganwadi Kendra (left Wing) Gogi Pet"},"geometry":{"type":"Point","coordinates":[76.7450256,16.7377243]}},{"type":"Feature","properties":{"state":"Karnataka","district":35,"district_n":"YADGIR","pc":6,"pc_name":"Raichur","ac":37,"ac_name":"Shahapur","booth":61,"booth_name":"Govt Govt Higher Primary School (left Wing) Gogi Pet"},"geometry":{"type":"Point","coordinates":[76.74561,16.7572956]}},{"type":"Feature","properties":{"state":"Karnataka","district":35,"district_n":"YADGIR","pc":6,"pc_name":"Raichur","ac":37,"ac_name":"Shahapur","booth":62,"booth_name":"Govt Govt Higher Primary School (right Wing) Gogi Pet"},"geometry":{"type":"Point","coordinates":[76.69132,16.741684]}},{"type":"Feature","properties":{"state":"Karnataka","district":35,"district_n":"YADGIR","pc":6,"pc_name":"Raichur","ac":37,"ac_name":"Shahapur","booth":63,"booth_name":"Anganwadi Kendra (middle Wing) Gogi Pet"},"geometry":{"type":"Point","coordinates":[76.70869,16.72804]}},{"type":"Feature","properties":{"state":"Karnataka","district":35,"district_n":"YADGIR","pc":6,"pc_name":"Raichur","ac":37,"ac_name":"Shahapur","booth":64,"booth_name":"Govt Govt Lower Primary School Singanalli"},"geometry":{"type":"Point","coordinates":[76.70558,16.7139721]}},{"type":"Feature","properties":{"state":"Karnataka","district":35,"district_n":"YADGIR","pc":6,"pc_name":"Raichur","ac":37,"ac_name":"Shahapur","booth":65,"booth_name":"Govt Govt Higher Primary School Darshnapur"},"geometry":{"type":"Point","coordinates":[76.67272,16.706665]}},{"type":"Feature","properties":{"state":"Karnataka","district":35,"district_n":"YADGIR","pc":6,"pc_name":"Raichur","ac":37,"ac_name":"Shahapur","booth":66,"booth_name":"Govt Govt Higher Primary School Rabbanalli"},"geometry":{"type":"Point","coordinates":[76.639595,16.718153]}},{"type":"Feature","properties":{"state":"Karnataka","district":35,"district_n":"YADGIR","pc":6,"pc_name":"Raichur","ac":37,"ac_name":"Shahapur","booth":67,"booth_name":"Govt Govt Higher Primary School Karki Halli"},"geometry":{"type":"Point","coordinates":[76.6271,16.72339]}},{"type":"Feature","properties":{"state":"Karnataka","district":35,"district_n":"YADGIR","pc":6,"pc_name":"Raichur","ac":37,"ac_name":"Shahapur","booth":68,"booth_name":"Govt Govt Higher Primary School Chandapur"},"geometry":{"type":"Point","coordinates":[76.6492157,16.7166042]}},{"type":"Feature","properties":{"state":"Karnataka","district":35,"district_n":"YADGIR","pc":6,"pc_name":"Raichur","ac":37,"ac_name":"Shahapur","booth":69,"booth_name":"Govt Govt Lower Primary School (chandapur) Melin Tanda"},"geometry":{"type":"Point","coordinates":[76.62514,16.7073822]}},{"type":"Feature","properties":{"state":"Karnataka","district":35,"district_n":"YADGIR","pc":6,"pc_name":"Raichur","ac":37,"ac_name":"Shahapur","booth":70,"booth_name":"Govt Govt Higher Primary School Chamnal"},"geometry":{"type":"Point","coordinates":[76.60389,16.6921082]}},{"type":"Feature","properties":{"state":"Karnataka","district":35,"district_n":"YADGIR","pc":6,"pc_name":"Raichur","ac":37,"ac_name":"Shahapur","booth":71,"booth_name":"Govt Govt Lower Primary School Nadihal"},"geometry":{"type":"Point","coordinates":[76.56766,16.6920052]}},{"type":"Feature","properties":{"state":"Karnataka","district":35,"district_n":"YADGIR","pc":6,"pc_name":"Raichur","ac":37,"ac_name":"Shahapur","booth":72,"booth_name":"Govt Govt Lower Primary School Chamnal Tanda"},"geometry":{"type":"Point","coordinates":[76.56315,16.73713]}},{"type":"Feature","properties":{"state":"Karnataka","district":35,"district_n":"YADGIR","pc":6,"pc_name":"Raichur","ac":37,"ac_name":"Shahapur","booth":73,"booth_name":"Govt Govt Lower Primary School New Building Gundapur"},"geometry":{"type":"Point","coordinates":[76.5632,16.73714]}},{"type":"Feature","properties":{"state":"Karnataka","district":35,"district_n":"YADGIR","pc":6,"pc_name":"Raichur","ac":37,"ac_name":"Shahapur","booth":74,"booth_name":"Govt Govt Higher Primary School Khanapur Sk"},"geometry":{"type":"Point","coordinates":[76.53533,16.64775]}},{"type":"Feature","properties":{"state":"Karnataka","district":35,"district_n":"YADGIR","pc":6,"pc_name":"Raichur","ac":37,"ac_name":"Shahapur","booth":75,"booth_name":"Govt Govt Lower Primary School Gogadihal"},"geometry":{"type":"Point","coordinates":[76.5343552,16.6486874]}},{"type":"Feature","properties":{"state":"Karnataka","district":35,"district_n":"YADGIR","pc":6,"pc_name":"Raichur","ac":37,"ac_name":"Shahapur","booth":76,"booth_name":"Govt Govt Composite High School (left Wing) Mall B"},"geometry":{"type":"Point","coordinates":[76.5323,16.6475716]}},{"type":"Feature","properties":{"state":"Karnataka","district":35,"district_n":"YADGIR","pc":6,"pc_name":"Raichur","ac":37,"ac_name":"Shahapur","booth":77,"booth_name":"Govt Composite High School (right Wing) Mall B"},"geometry":{"type":"Point","coordinates":[76.53028,16.64919]}},{"type":"Feature","properties":{"state":"Karnataka","district":35,"district_n":"YADGIR","pc":6,"pc_name":"Raichur","ac":37,"ac_name":"Shahapur","booth":78,"booth_name":"Children Welfare Building (harijan Colony) Kembhavi"},"geometry":{"type":"Point","coordinates":[76.5324554,16.6475964]}},{"type":"Feature","properties":{"state":"Karnataka","district":35,"district_n":"YADGIR","pc":6,"pc_name":"Raichur","ac":37,"ac_name":"Shahapur","booth":79,"booth_name":"Community Hall (harijhan Colony) Kembhavi"},"geometry":{"type":"Point","coordinates":[76.52879,16.6485462]}},{"type":"Feature","properties":{"state":"Karnataka","district":35,"district_n":"YADGIR","pc":6,"pc_name":"Raichur","ac":37,"ac_name":"Shahapur","booth":80,"booth_name":"Govt Higher Primary School (middle Wing) Kemabhavi"},"geometry":{"type":"Point","coordinates":[76.52884,16.64968]}},{"type":"Feature","properties":{"state":"Karnataka","district":35,"district_n":"YADGIR","pc":6,"pc_name":"Raichur","ac":37,"ac_name":"Shahapur","booth":81,"booth_name":"Anganawadi Building Malagan Chowk Kembhavi"},"geometry":{"type":"Point","coordinates":[76.52906,16.6497536]}},{"type":"Feature","properties":{"state":"Karnataka","district":35,"district_n":"YADGIR","pc":6,"pc_name":"Raichur","ac":37,"ac_name":"Shahapur","booth":82,"booth_name":"Govt Govt Model Primary School (right Wing) Kembhavi"},"geometry":{"type":"Point","coordinates":[76.5244446,16.6542034]}},{"type":"Feature","properties":{"state":"Karnataka","district":35,"district_n":"YADGIR","pc":6,"pc_name":"Raichur","ac":37,"ac_name":"Shahapur","booth":83,"booth_name":"Govt Govt Girls High School (middle Wing) Kembhavi"},"geometry":{"type":"Point","coordinates":[76.53212,16.6499786]}},{"type":"Feature","properties":{"state":"Karnataka","district":35,"district_n":"YADGIR","pc":6,"pc_name":"Raichur","ac":37,"ac_name":"Shahapur","booth":84,"booth_name":"Govt Govt Junior College (left Wing) Kembhavi"},"geometry":{"type":"Point","coordinates":[76.53535,16.65155]}},{"type":"Feature","properties":{"state":"Karnataka","district":35,"district_n":"YADGIR","pc":6,"pc_name":"Raichur","ac":37,"ac_name":"Shahapur","booth":85,"booth_name":"Govt Govt Junior College (right Wing) Kembhavi"},"geometry":{"type":"Point","coordinates":[76.53321,16.6494045]}},{"type":"Feature","properties":{"state":"Karnataka","district":35,"district_n":"YADGIR","pc":6,"pc_name":"Raichur","ac":37,"ac_name":"Shahapur","booth":86,"booth_name":"Govt Higher Primary School Sanjeeva Nagar Kembhavi"},"geometry":{"type":"Point","coordinates":[76.5332,16.64959]}},{"type":"Feature","properties":{"state":"Karnataka","district":35,"district_n":"YADGIR","pc":6,"pc_name":"Raichur","ac":37,"ac_name":"Shahapur","booth":87,"booth_name":"Govt Govt Urdu High School Kembhavi"},"geometry":{"type":"Point","coordinates":[76.52936,16.6459827]}},{"type":"Feature","properties":{"state":"Karnataka","district":35,"district_n":"YADGIR","pc":6,"pc_name":"Raichur","ac":37,"ac_name":"Shahapur","booth":88,"booth_name":"Govt Govt Lower Primary School Kelageri Kembhavi"},"geometry":{"type":"Point","coordinates":[76.52923,16.6458721]}},{"type":"Feature","properties":{"state":"Karnataka","district":35,"district_n":"YADGIR","pc":6,"pc_name":"Raichur","ac":37,"ac_name":"Shahapur","booth":89,"booth_name":"Grama Pamchayath Office (right Wing) Kembhavi"},"geometry":{"type":"Point","coordinates":[76.50693,16.6381931]}},{"type":"Feature","properties":{"state":"Karnataka","district":35,"district_n":"YADGIR","pc":6,"pc_name":"Raichur","ac":37,"ac_name":"Shahapur","booth":90,"booth_name":"Grama Pamchayath Office (left Wing) Kembhavi"},"geometry":{"type":"Point","coordinates":[76.43988,16.64939]}},{"type":"Feature","properties":{"state":"Karnataka","district":35,"district_n":"YADGIR","pc":6,"pc_name":"Raichur","ac":37,"ac_name":"Shahapur","booth":91,"booth_name":"Govt Govt Girls Higher Primary School (left Wing) Kembhavi"},"geometry":{"type":"Point","coordinates":[76.42382,16.6535549]}},{"type":"Feature","properties":{"state":"Karnataka","district":35,"district_n":"YADGIR","pc":6,"pc_name":"Raichur","ac":37,"ac_name":"Shahapur","booth":92,"booth_name":"Govt Govt Girls Higher Primary School Kembhavi"},"geometry":{"type":"Point","coordinates":[76.43769,16.6268635]}},{"type":"Feature","properties":{"state":"Karnataka","district":35,"district_n":"YADGIR","pc":6,"pc_name":"Raichur","ac":37,"ac_name":"Shahapur","booth":93,"booth_name":"Govt Govt Lower Primary School Pattepur"},"geometry":{"type":"Point","coordinates":[76.42697,16.60748]}},{"type":"Feature","properties":{"state":"Karnataka","district":35,"district_n":"YADGIR","pc":6,"pc_name":"Raichur","ac":37,"ac_name":"Shahapur","booth":94,"booth_name":"Govt Govt Lower Primary School Yektapur"},"geometry":{"type":"Point","coordinates":[76.4357147,16.58872]}},{"type":"Feature","properties":{"state":"Karnataka","district":35,"district_n":"YADGIR","pc":6,"pc_name":"Raichur","ac":37,"ac_name":"Shahapur","booth":95,"booth_name":"Govt Govt Lower Primary School M Bommanahalli"},"geometry":{"type":"Point","coordinates":[76.47007,16.6372986]}},{"type":"Feature","properties":{"state":"Karnataka","district":35,"district_n":"YADGIR","pc":6,"pc_name":"Raichur","ac":37,"ac_name":"Shahapur","booth":96,"booth_name":"Govt Govt Higher Primary School Alahal"},"geometry":{"type":"Point","coordinates":[76.46064,16.6156845]}},{"type":"Feature","properties":{"state":"Karnataka","district":35,"district_n":"YADGIR","pc":6,"pc_name":"Raichur","ac":37,"ac_name":"Shahapur","booth":97,"booth_name":"Govt Govt Lower Primary School Bendar Tallahalli"},"geometry":{"type":"Point","coordinates":[76.54864,16.6329613]}},{"type":"Feature","properties":{"state":"Karnataka","district":35,"district_n":"YADGIR","pc":6,"pc_name":"Raichur","ac":37,"ac_name":"Shahapur","booth":98,"booth_name":"Govt Govt Lower Primary School Huvinahalli"},"geometry":{"type":"Point","coordinates":[76.5619659,16.6130619]}},{"type":"Feature","properties":{"state":"Karnataka","district":35,"district_n":"YADGIR","pc":6,"pc_name":"Raichur","ac":37,"ac_name":"Shahapur","booth":99,"booth_name":"Govt Lower Primary School Ainapur"},"geometry":{"type":"Point","coordinates":[76.56943,16.6336555]}},{"type":"Feature","properties":{"state":"Karnataka","district":35,"district_n":"YADGIR","pc":6,"pc_name":"Raichur","ac":37,"ac_name":"Shahapur","booth":100,"booth_name":"Govt Lower Primary School Malkapur"},"geometry":{"type":"Point","coordinates":[76.56959,16.63365]}},{"type":"Feature","properties":{"state":"Karnataka","district":35,"district_n":"YADGIR","pc":6,"pc_name":"Raichur","ac":37,"ac_name":"Shahapur","booth":101,"booth_name":"Govt Govt Lower Primary School Kachapur"},"geometry":{"type":"Point","coordinates":[76.60079,16.6873741]}},{"type":"Feature","properties":{"state":"Karnataka","district":35,"district_n":"YADGIR","pc":6,"pc_name":"Raichur","ac":37,"ac_name":"Shahapur","booth":102,"booth_name":"Govt Govt Higher Primary School Malahalli"},"geometry":{"type":"Point","coordinates":[76.60104,16.6875515]}},{"type":"Feature","properties":{"state":"Karnataka","district":35,"district_n":"YADGIR","pc":6,"pc_name":"Raichur","ac":37,"ac_name":"Shahapur","booth":103,"booth_name":"Govt Govt Lower Primary School Nadakoor"},"geometry":{"type":"Point","coordinates":[76.60095,16.6874981]}},{"type":"Feature","properties":{"state":"Karnataka","district":35,"district_n":"YADGIR","pc":6,"pc_name":"Raichur","ac":37,"ac_name":"Shahapur","booth":104,"booth_name":"Govt Govt Higher Primary School (right Wing) Parasanahalli"},"geometry":{"type":"Point","coordinates":[76.6025543,16.6886082]}},{"type":"Feature","properties":{"state":"Karnataka","district":35,"district_n":"YADGIR","pc":6,"pc_name":"Raichur","ac":37,"ac_name":"Shahapur","booth":105,"booth_name":"Govt Govt Higher Primary School (left Wing) Parasanahalli"},"geometry":{"type":"Point","coordinates":[76.6554947,16.6911869]}},{"type":"Feature","properties":{"state":"Karnataka","district":35,"district_n":"YADGIR","pc":6,"pc_name":"Raichur","ac":37,"ac_name":"Shahapur","booth":106,"booth_name":"Govt Govt Model Primary School (right Wing) Naganoor"},"geometry":{"type":"Point","coordinates":[76.6554642,16.6911526]}},{"type":"Feature","properties":{"state":"Karnataka","district":35,"district_n":"YADGIR","pc":6,"pc_name":"Raichur","ac":37,"ac_name":"Shahapur","booth":107,"booth_name":"Govt Govt Model Primary School (left Wing) Naganoor"},"geometry":{"type":"Point","coordinates":[76.67503,16.6726971]}},{"type":"Feature","properties":{"state":"Karnataka","district":35,"district_n":"YADGIR","pc":6,"pc_name":"Raichur","ac":37,"ac_name":"Shahapur","booth":108,"booth_name":"Govt Govt Model Primary School (middle Wing) Naganoor"},"geometry":{"type":"Point","coordinates":[76.6785355,16.6690636]}},{"type":"Feature","properties":{"state":"Karnataka","district":35,"district_n":"YADGIR","pc":6,"pc_name":"Raichur","ac":37,"ac_name":"Shahapur","booth":109,"booth_name":"Govt Govt Lower Primary School Janata Colony (right Wing ) Nagnoor"},"geometry":{"type":"Point","coordinates":[76.7112045,16.7047787]}},{"type":"Feature","properties":{"state":"Karnataka","district":35,"district_n":"YADGIR","pc":6,"pc_name":"Raichur","ac":37,"ac_name":"Shahapur","booth":110,"booth_name":"Govt Govt Lower Primary School Janata Colony (left Wing ) Nagnoor"},"geometry":{"type":"Point","coordinates":[76.71135,16.70535]}},{"type":"Feature","properties":{"state":"Karnataka","district":35,"district_n":"YADGIR","pc":6,"pc_name":"Raichur","ac":37,"ac_name":"Shahapur","booth":111,"booth_name":"Govt Govt Higher Primary School (left Wing) Bovi Kadamgera"},"geometry":{"type":"Point","coordinates":[76.71779,16.6641827]}},{"type":"Feature","properties":{"state":"Karnataka","district":35,"district_n":"YADGIR","pc":6,"pc_name":"Raichur","ac":37,"ac_name":"Shahapur","booth":112,"booth_name":"Govt Govt Higher Primary School (right Wing) Bovi Kadamgera"},"geometry":{"type":"Point","coordinates":[76.9357758,16.7781868]}},{"type":"Feature","properties":{"state":"Karnataka","district":35,"district_n":"YADGIR","pc":6,"pc_name":"Raichur","ac":37,"ac_name":"Shahapur","booth":113,"booth_name":"Govt Govt Higher Primary School New Building Kakkasgera"},"geometry":{"type":"Point","coordinates":[76.72624,16.6652527]}},{"type":"Feature","properties":{"state":"Karnataka","district":35,"district_n":"YADGIR","pc":6,"pc_name":"Raichur","ac":37,"ac_name":"Shahapur","booth":114,"booth_name":"Grama Panchayat Office Building Kakkasgera"},"geometry":{"type":"Point","coordinates":[76.7662,16.6682014]}},{"type":"Feature","properties":{"state":"Karnataka","district":35,"district_n":"YADGIR","pc":6,"pc_name":"Raichur","ac":37,"ac_name":"Shahapur","booth":115,"booth_name":"Govt Govt Higher Primary School (left Wing) Rajapur B"},"geometry":{"type":"Point","coordinates":[76.75199,16.6682262]}},{"type":"Feature","properties":{"state":"Karnataka","district":35,"district_n":"YADGIR","pc":6,"pc_name":"Raichur","ac":37,"ac_name":"Shahapur","booth":116,"booth_name":"Govt Govt Higher Primary School (right Wing) Rajapur B"},"geometry":{"type":"Point","coordinates":[76.74498,16.6804943]}},{"type":"Feature","properties":{"state":"Karnataka","district":35,"district_n":"YADGIR","pc":6,"pc_name":"Raichur","ac":37,"ac_name":"Shahapur","booth":117,"booth_name":"Govt Govt Higher Primary School Hoskera"},"geometry":{"type":"Point","coordinates":[76.78761,16.69833]}},{"type":"Feature","properties":{"state":"Karnataka","district":35,"district_n":"YADGIR","pc":6,"pc_name":"Raichur","ac":37,"ac_name":"Shahapur","booth":118,"booth_name":"Grama Panchayat Office New Building Hoskera"},"geometry":{"type":"Point","coordinates":[76.79194,16.67218]}},{"type":"Feature","properties":{"state":"Karnataka","district":35,"district_n":"YADGIR","pc":6,"pc_name":"Raichur","ac":37,"ac_name":"Shahapur","booth":119,"booth_name":"Govt Govt Lower Primary School Building Building Bangala Tanda Hoskera"},"geometry":{"type":"Point","coordinates":[76.77218,16.68491]}},{"type":"Feature","properties":{"state":"Karnataka","district":35,"district_n":"YADGIR","pc":6,"pc_name":"Raichur","ac":37,"ac_name":"Shahapur","booth":120,"booth_name":"Govt Govt Higher Primary School Naganatgi"},"geometry":{"type":"Point","coordinates":[76.806015,16.7078743]}},{"type":"Feature","properties":{"state":"Karnataka","district":35,"district_n":"YADGIR","pc":6,"pc_name":"Raichur","ac":37,"ac_name":"Shahapur","booth":121,"booth_name":"Govt Govt Lower Primary School Building Building Mega Nayak Tanda"},"geometry":{"type":"Point","coordinates":[76.80589,16.70782]}},{"type":"Feature","properties":{"state":"Karnataka","district":35,"district_n":"YADGIR","pc":6,"pc_name":"Raichur","ac":37,"ac_name":"Shahapur","booth":122,"booth_name":"Govt Govt Lower Primary School Building Naganatgi Tanda 2"},"geometry":{"type":"Point","coordinates":[76.79976,16.72545]}},{"type":"Feature","properties":{"state":"Karnataka","district":35,"district_n":"YADGIR","pc":6,"pc_name":"Raichur","ac":37,"ac_name":"Shahapur","booth":123,"booth_name":"Govt Govt Higher Primary School Building Saidapur"},"geometry":{"type":"Point","coordinates":[76.79972,16.7250443]}},{"type":"Feature","properties":{"state":"Karnataka","district":35,"district_n":"YADGIR","pc":6,"pc_name":"Raichur","ac":37,"ac_name":"Shahapur","booth":124,"booth_name":"Govt Govt Lower Primary School Building Ummar Doddi"},"geometry":{"type":"Point","coordinates":[76.7997742,16.7250557]}},{"type":"Feature","properties":{"state":"Karnataka","district":35,"district_n":"YADGIR","pc":6,"pc_name":"Raichur","ac":37,"ac_name":"Shahapur","booth":125,"booth_name":"Govt Govt Lower Primary School Building Bhanatihal"},"geometry":{"type":"Point","coordinates":[76.80994,16.7284279]}},{"type":"Feature","properties":{"state":"Karnataka","district":35,"district_n":"YADGIR","pc":6,"pc_name":"Raichur","ac":37,"ac_name":"Shahapur","booth":126,"booth_name":"Govt Govt Higher Primary School (left Wing) Diggi"},"geometry":{"type":"Point","coordinates":[76.8525162,16.7103786]}},{"type":"Feature","properties":{"state":"Karnataka","district":35,"district_n":"YADGIR","pc":6,"pc_name":"Raichur","ac":37,"ac_name":"Shahapur","booth":127,"booth_name":"Govt Govt Higher Primary School (right Wing) Diggi"},"geometry":{"type":"Point","coordinates":[76.85617,16.7077656]}},{"type":"Feature","properties":{"state":"Karnataka","district":35,"district_n":"YADGIR","pc":6,"pc_name":"Raichur","ac":37,"ac_name":"Shahapur","booth":128,"booth_name":"Govt Govt Higher Primary School (left Wing) Amlapur (bhimarayana Gudi)"},"geometry":{"type":"Point","coordinates":[76.84718,16.7085285]}},{"type":"Feature","properties":{"state":"Karnataka","district":35,"district_n":"YADGIR","pc":6,"pc_name":"Raichur","ac":37,"ac_name":"Shahapur","booth":129,"booth_name":"Govt Govt Higher Primary School (middle Wing) Amlapur (bhimarayana Gudi)"},"geometry":{"type":"Point","coordinates":[76.84663,16.709692]}},{"type":"Feature","properties":{"state":"Karnataka","district":35,"district_n":"YADGIR","pc":6,"pc_name":"Raichur","ac":37,"ac_name":"Shahapur","booth":130,"booth_name":"Govt Govt Higher Primary School (right Wing) Amalapur Bhimarayanagudi )"},"geometry":{"type":"Point","coordinates":[76.84504,16.7066]}},{"type":"Feature","properties":{"state":"Karnataka","district":35,"district_n":"YADGIR","pc":6,"pc_name":"Raichur","ac":37,"ac_name":"Shahapur","booth":131,"booth_name":"Govt Govt Lower Primary School Building Shakapur"},"geometry":{"type":"Point","coordinates":[76.8448639,16.7064152]}},{"type":"Feature","properties":{"state":"Karnataka","district":35,"district_n":"YADGIR","pc":6,"pc_name":"Raichur","ac":37,"ac_name":"Shahapur","booth":158,"booth_name":"Govt Govt Urdu Higher Primary School (adrsha Lodge) Back Side Shahapur Pattan"},"geometry":{"type":"Point","coordinates":[76.84496,16.692894]}},{"type":"Feature","properties":{"state":"Karnataka","district":35,"district_n":"YADGIR","pc":6,"pc_name":"Raichur","ac":37,"ac_name":"Shahapur","booth":159,"booth_name":"Sarva Shikshana Abhiyana B R C T M C C Back Side (left Wing) Shahapur Pattan"},"geometry":{"type":"Point","coordinates":[76.84493,16.6930275]}},{"type":"Feature","properties":{"state":"Karnataka","district":35,"district_n":"YADGIR","pc":6,"pc_name":"Raichur","ac":37,"ac_name":"Shahapur","booth":160,"booth_name":"Sarva Shikshana Abhiyana B R C T M C C Back Side (right Wing) Shahapur Pattan"},"geometry":{"type":"Point","coordinates":[76.8449249,16.6928673]}},{"type":"Feature","properties":{"state":"Karnataka","district":35,"district_n":"YADGIR","pc":6,"pc_name":"Raichur","ac":37,"ac_name":"Shahapur","booth":161,"booth_name":"Govt Govt Higher Primary School New Building (vidya Nagnar) Shahapur Pattan"},"geometry":{"type":"Point","coordinates":[76.84638,16.6906033]}},{"type":"Feature","properties":{"state":"Karnataka","district":35,"district_n":"YADGIR","pc":6,"pc_name":"Raichur","ac":37,"ac_name":"Shahapur","booth":162,"booth_name":"Smt Sumitra Memoriyal School (left Wing) Shahapur Pattan"},"geometry":{"type":"Point","coordinates":[76.846344,16.6904411]}},{"type":"Feature","properties":{"state":"Karnataka","district":35,"district_n":"YADGIR","pc":6,"pc_name":"Raichur","ac":37,"ac_name":"Shahapur","booth":163,"booth_name":"Smt Sumitra Memoriyal School (right Wing) Shahapur Pattan"},"geometry":{"type":"Point","coordinates":[76.83959,16.6938057]}},{"type":"Feature","properties":{"state":"Karnataka","district":35,"district_n":"YADGIR","pc":6,"pc_name":"Raichur","ac":37,"ac_name":"Shahapur","booth":164,"booth_name":"Govt Govt Higher Primary School Mamadapur (left Wing) Shahapur Pattan"},"geometry":{"type":"Point","coordinates":[76.84429,16.69463]}}]}