{"type":"FeatureCollection","features":[{"type":"Feature","properties":{"state":"Karnataka","district":4,"district_n":"GULBARGA","pc":5,"pc_name":"Gulbarga","ac":40,"ac_name":"Chittapur","booth":1,"booth_name":"Govt H P S Sawathkhed"},"geometry":{"type":"Point","coordinates":[77.01138,17.4141273]}},{"type":"Feature","properties":{"state":"Karnataka","district":4,"district_n":"GULBARGA","pc":5,"pc_name":"Gulbarga","ac":40,"ac_name":"Chittapur","booth":2,"booth_name":"Govt Govt Lps Jeewanmardgi"},"geometry":{"type":"Point","coordinates":[77.0295639,17.4268112]}},{"type":"Feature","properties":{"state":"Karnataka","district":4,"district_n":"GULBARGA","pc":5,"pc_name":"Gulbarga","ac":40,"ac_name":"Chittapur","booth":4,"booth_name":"Govt H P S Kamaknoor"},"geometry":{"type":"Point","coordinates":[77.03333,17.3983612]}},{"type":"Feature","properties":{"state":"Karnataka","district":4,"district_n":"GULBARGA","pc":5,"pc_name":"Gulbarga","ac":40,"ac_name":"Chittapur","booth":5,"booth_name":"Govt Govt Hps Tonchi"},"geometry":{"type":"Point","coordinates":[77.02644,17.4068527]}},{"type":"Feature","properties":{"state":"Karnataka","district":4,"district_n":"GULBARGA","pc":5,"pc_name":"Gulbarga","ac":40,"ac_name":"Chittapur","booth":7,"booth_name":"G P Office (new Building) Hebbal"},"geometry":{"type":"Point","coordinates":[76.09834,17.3814182]}},{"type":"Feature","properties":{"state":"Karnataka","district":4,"district_n":"GULBARGA","pc":5,"pc_name":"Gulbarga","ac":40,"ac_name":"Chittapur","booth":8,"booth_name":"Govt L P S Kansur"},"geometry":{"type":"Point","coordinates":[77.1026154,17.35178]}},{"type":"Feature","properties":{"state":"Karnataka","district":4,"district_n":"GULBARGA","pc":5,"pc_name":"Gulbarga","ac":40,"ac_name":"Chittapur","booth":10,"booth_name":"Govt H P S (left Wing) Korwar"},"geometry":{"type":"Point","coordinates":[77.05934,17.3180885]}},{"type":"Feature","properties":{"state":"Karnataka","district":4,"district_n":"GULBARGA","pc":5,"pc_name":"Gulbarga","ac":40,"ac_name":"Chittapur","booth":11,"booth_name":"Govt H P S (right Wing) Korwar"},"geometry":{"type":"Point","coordinates":[77.05937,17.3178825]}},{"type":"Feature","properties":{"state":"Karnataka","district":4,"district_n":"GULBARGA","pc":5,"pc_name":"Gulbarga","ac":40,"ac_name":"Chittapur","booth":13,"booth_name":"Govt H P S (right Wing) Kalagurthi"},"geometry":{"type":"Point","coordinates":[77.11381,17.3055973]}},{"type":"Feature","properties":{"state":"Karnataka","district":4,"district_n":"GULBARGA","pc":5,"pc_name":"Gulbarga","ac":40,"ac_name":"Chittapur","booth":16,"booth_name":"Govt H P S Wacha"},"geometry":{"type":"Point","coordinates":[77.0503159,17.30922]}},{"type":"Feature","properties":{"state":"Karnataka","district":4,"district_n":"GULBARGA","pc":5,"pc_name":"Gulbarga","ac":40,"ac_name":"Chittapur","booth":19,"booth_name":"Govt H P S Sangavi"},"geometry":{"type":"Point","coordinates":[77.019165,17.26482]}},{"type":"Feature","properties":{"state":"Karnataka","district":4,"district_n":"GULBARGA","pc":5,"pc_name":"Gulbarga","ac":40,"ac_name":"Chittapur","booth":22,"booth_name":"Govt H P S (new Building ) Indankal"},"geometry":{"type":"Point","coordinates":[77.08505,17.2826271]}},{"type":"Feature","properties":{"state":"Karnataka","district":4,"district_n":"GULBARGA","pc":5,"pc_name":"Gulbarga","ac":40,"ac_name":"Chittapur","booth":24,"booth_name":"Govt M P S (right wing) Gundagurti (new building)"},"geometry":{"type":"Point","coordinates":[77.06527,17.2429523]}},{"type":"Feature","properties":{"state":"Karnataka","district":4,"district_n":"GULBARGA","pc":5,"pc_name":"Gulbarga","ac":40,"ac_name":"Chittapur","booth":25,"booth_name":"Govt H P S Bennur(b)"},"geometry":{"type":"Point","coordinates":[76.99978,17.25459]}},{"type":"Feature","properties":{"state":"Karnataka","district":4,"district_n":"GULBARGA","pc":5,"pc_name":"Gulbarga","ac":40,"ac_name":"Chittapur","booth":27,"booth_name":"Govt H P S Mugalnagaon"},"geometry":{"type":"Point","coordinates":[77.00009,17.2169361]}},{"type":"Feature","properties":{"state":"Karnataka","district":4,"district_n":"GULBARGA","pc":5,"pc_name":"Gulbarga","ac":40,"ac_name":"Chittapur","booth":28,"booth_name":"Govt H P S (right Wing)pethsirur"},"geometry":{"type":"Point","coordinates":[76.99984,17.2545872]}},{"type":"Feature","properties":{"state":"Karnataka","district":4,"district_n":"GULBARGA","pc":5,"pc_name":"Gulbarga","ac":40,"ac_name":"Chittapur","booth":30,"booth_name":"Govt H P S Belagumpa"},"geometry":{"type":"Point","coordinates":[77.03551,17.2140369]}},{"type":"Feature","properties":{"state":"Karnataka","district":4,"district_n":"GULBARGA","pc":5,"pc_name":"Gulbarga","ac":40,"ac_name":"Chittapur","booth":31,"booth_name":"Govt H P S Evani"},"geometry":{"type":"Point","coordinates":[77.06327,17.21139]}},{"type":"Feature","properties":{"state":"Karnataka","district":4,"district_n":"GULBARGA","pc":5,"pc_name":"Gulbarga","ac":40,"ac_name":"Chittapur","booth":33,"booth_name":"Govt H P S Malkud"},"geometry":{"type":"Point","coordinates":[77.14234,17.2152424]}},{"type":"Feature","properties":{"state":"Karnataka","district":4,"district_n":"GULBARGA","pc":5,"pc_name":"Gulbarga","ac":40,"ac_name":"Chittapur","booth":36,"booth_name":"Public Laibrary Laibrary Dandoti"},"geometry":{"type":"Point","coordinates":[77.10516,17.183075]}},{"type":"Feature","properties":{"state":"Karnataka","district":4,"district_n":"GULBARGA","pc":5,"pc_name":"Gulbarga","ac":40,"ac_name":"Chittapur","booth":39,"booth_name":"Govt H P S,muttaga"},"geometry":{"type":"Point","coordinates":[77.00023,17.1731529]}},{"type":"Feature","properties":{"state":"Karnataka","district":4,"district_n":"GULBARGA","pc":5,"pc_name":"Gulbarga","ac":40,"ac_name":"Chittapur","booth":42,"booth_name":"Govt M P S,(left Wing) Bhankur"},"geometry":{"type":"Point","coordinates":[76.95351,17.1571884]}},{"type":"Feature","properties":{"state":"Karnataka","district":4,"district_n":"GULBARGA","pc":5,"pc_name":"Gulbarga","ac":40,"ac_name":"Chittapur","booth":44,"booth_name":"Govt M P S,(right Wing)bhankur"},"geometry":{"type":"Point","coordinates":[76.95371,17.1573582]}},{"type":"Feature","properties":{"state":"Karnataka","district":4,"district_n":"GULBARGA","pc":5,"pc_name":"Gulbarga","ac":40,"ac_name":"Chittapur","booth":45,"booth_name":"Govt H S,bhankur(right wing)"},"geometry":{"type":"Point","coordinates":[76.9514542,17.157383]}},{"type":"Feature","properties":{"state":"Karnataka","district":4,"district_n":"GULBARGA","pc":5,"pc_name":"Gulbarga","ac":40,"ac_name":"Chittapur","booth":47,"booth_name":"Govt L P S S Urdu (right Wing) Bhankur"},"geometry":{"type":"Point","coordinates":[76.9434,17.1533241]}},{"type":"Feature","properties":{"state":"Karnataka","district":4,"district_n":"GULBARGA","pc":5,"pc_name":"Gulbarga","ac":40,"ac_name":"Chittapur","booth":48,"booth_name":"Govt H P S,bhankurwadi"},"geometry":{"type":"Point","coordinates":[76.9447,17.1894245]}},{"type":"Feature","properties":{"state":"Karnataka","district":4,"district_n":"GULBARGA","pc":5,"pc_name":"Gulbarga","ac":40,"ac_name":"Chittapur","booth":50,"booth_name":"Govt H P S,kaddrgi"},"geometry":{"type":"Point","coordinates":[77.01679,17.16634]}},{"type":"Feature","properties":{"state":"Karnataka","district":4,"district_n":"GULBARGA","pc":5,"pc_name":"Gulbarga","ac":40,"ac_name":"Chittapur","booth":51,"booth_name":"Govt H P S S Urdu Bhogodi"},"geometry":{"type":"Point","coordinates":[77.0359039,17.1897316]}},{"type":"Feature","properties":{"state":"Karnataka","district":4,"district_n":"GULBARGA","pc":5,"pc_name":"Gulbarga","ac":40,"ac_name":"Chittapur","booth":53,"booth_name":"Govt H P S,mudbul"},"geometry":{"type":"Point","coordinates":[77.0860062,17.1594639]}},{"type":"Feature","properties":{"state":"Karnataka","district":4,"district_n":"GULBARGA","pc":5,"pc_name":"Gulbarga","ac":40,"ac_name":"Chittapur","booth":56,"booth_name":"Adarsh English Medum (right Wing) Chittapur"},"geometry":{"type":"Point","coordinates":[77.0896,17.1206226]}},{"type":"Feature","properties":{"state":"Karnataka","district":4,"district_n":"GULBARGA","pc":5,"pc_name":"Gulbarga","ac":40,"ac_name":"Chittapur","booth":59,"booth_name":"T M C Meeting Hall Chittapur"},"geometry":{"type":"Point","coordinates":[77.08909,17.120615]}},{"type":"Feature","properties":{"state":"Karnataka","district":4,"district_n":"GULBARGA","pc":5,"pc_name":"Gulbarga","ac":40,"ac_name":"Chittapur","booth":62,"booth_name":"Govt H P S (left Wing)station, Tand Chittapur"},"geometry":{"type":"Point","coordinates":[77.09179,17.11903]}},{"type":"Feature","properties":{"state":"Karnataka","district":4,"district_n":"GULBARGA","pc":5,"pc_name":"Gulbarga","ac":40,"ac_name":"Chittapur","booth":64,"booth_name":"Govt L P S Ek kaman Chungi naka Chittapur"},"geometry":{"type":"Point","coordinates":[77.08736,17.11702]}},{"type":"Feature","properties":{"state":"Karnataka","district":4,"district_n":"GULBARGA","pc":5,"pc_name":"Gulbarga","ac":40,"ac_name":"Chittapur","booth":65,"booth_name":"Govt H P S Near Asar Mohalla (left Wing)chittapur"},"geometry":{"type":"Point","coordinates":[77.0833359,17.1172066]}},{"type":"Feature","properties":{"state":"Karnataka","district":4,"district_n":"GULBARGA","pc":5,"pc_name":"Gulbarga","ac":40,"ac_name":"Chittapur","booth":67,"booth_name":"Govt H P S S Urdu For Boys School Chittapur(right Wing)"},"geometry":{"type":"Point","coordinates":[77.0818,17.1179066]}},{"type":"Feature","properties":{"state":"Karnataka","district":4,"district_n":"GULBARGA","pc":5,"pc_name":"Gulbarga","ac":40,"ac_name":"Chittapur","booth":87,"booth_name":"Govt L P S S Ravoor Pet Ravoor"},"geometry":{"type":"Point","coordinates":[77.0027542,17.0863438]}},{"type":"Feature","properties":{"state":"Karnataka","district":4,"district_n":"GULBARGA","pc":5,"pc_name":"Gulbarga","ac":40,"ac_name":"Chittapur","booth":88,"booth_name":"Govt Public Library Building Ravoor"},"geometry":{"type":"Point","coordinates":[77.00317,17.08663]}},{"type":"Feature","properties":{"state":"Karnataka","district":4,"district_n":"GULBARGA","pc":5,"pc_name":"Gulbarga","ac":40,"ac_name":"Chittapur","booth":90,"booth_name":"Sachidanand High School (left Wing) Ravoor"},"geometry":{"type":"Point","coordinates":[77.0059,17.0859623]}},{"type":"Feature","properties":{"state":"Karnataka","district":4,"district_n":"GULBARGA","pc":5,"pc_name":"Gulbarga","ac":40,"ac_name":"Chittapur","booth":91,"booth_name":"Gram panchayat Office New Building"},"geometry":{"type":"Point","coordinates":[77.00297,17.0898132]}},{"type":"Feature","properties":{"state":"Karnataka","district":4,"district_n":"GULBARGA","pc":5,"pc_name":"Gulbarga","ac":40,"ac_name":"Chittapur","booth":93,"booth_name":"Govt urdu H P School School Ravoor"},"geometry":{"type":"Point","coordinates":[77.00056,17.0881062]}},{"type":"Feature","properties":{"state":"Karnataka","district":4,"district_n":"GULBARGA","pc":5,"pc_name":"Gulbarga","ac":40,"ac_name":"Chittapur","booth":94,"booth_name":"Govt Govt M P S Honagunta(right Wing)"},"geometry":{"type":"Point","coordinates":[76.90752,17.0589828]}},{"type":"Feature","properties":{"state":"Karnataka","district":4,"district_n":"GULBARGA","pc":5,"pc_name":"Gulbarga","ac":40,"ac_name":"Chittapur","booth":96,"booth_name":"Gram Old Panchyat Office Honagunta"},"geometry":{"type":"Point","coordinates":[76.9084244,17.0576363]}},{"type":"Feature","properties":{"state":"Karnataka","district":4,"district_n":"GULBARGA","pc":5,"pc_name":"Gulbarga","ac":40,"ac_name":"Chittapur","booth":99,"booth_name":"Gram Panchyat Office Ingalgi"},"geometry":{"type":"Point","coordinates":[76.94623,17.0650063]}},{"type":"Feature","properties":{"state":"Karnataka","district":4,"district_n":"GULBARGA","pc":5,"pc_name":"Gulbarga","ac":40,"ac_name":"Chittapur","booth":102,"booth_name":"Govt H P S Ingalgi(left Wing)"},"geometry":{"type":"Point","coordinates":[76.94659,17.0656719]}},{"type":"Feature","properties":{"state":"Karnataka","district":4,"district_n":"GULBARGA","pc":5,"pc_name":"Gulbarga","ac":40,"ac_name":"Chittapur","booth":111,"booth_name":"Mini Roza H P S S English Medum School (right Wing) Wadi"},"geometry":{"type":"Point","coordinates":[76.98725,17.0499954]}},{"type":"Feature","properties":{"state":"Karnataka","district":4,"district_n":"GULBARGA","pc":5,"pc_name":"Gulbarga","ac":40,"ac_name":"Chittapur","booth":113,"booth_name":"V P Nayak Nayak P U U College (right Wing) Wadi"},"geometry":{"type":"Point","coordinates":[76.98839,17.050251]}},{"type":"Feature","properties":{"state":"Karnataka","district":4,"district_n":"GULBARGA","pc":5,"pc_name":"Gulbarga","ac":40,"ac_name":"Chittapur","booth":114,"booth_name":"Community Hall (left Wing) Wadi"},"geometry":{"type":"Point","coordinates":[76.9905,17.0508213]}},{"type":"Feature","properties":{"state":"Karnataka","district":4,"district_n":"GULBARGA","pc":5,"pc_name":"Gulbarga","ac":40,"ac_name":"Chittapur","booth":116,"booth_name":"Anagan Wadi Center Bhimanagar Wadi"},"geometry":{"type":"Point","coordinates":[76.9902649,17.0507584]}},{"type":"Feature","properties":{"state":"Karnataka","district":4,"district_n":"GULBARGA","pc":5,"pc_name":"Gulbarga","ac":40,"ac_name":"Chittapur","booth":131,"booth_name":"St St Ambrus Convent School, Acc Company Wadi (middle Wing)"},"geometry":{"type":"Point","coordinates":[76.98448,17.0511246]}},{"type":"Feature","properties":{"state":"Karnataka","district":4,"district_n":"GULBARGA","pc":5,"pc_name":"Gulbarga","ac":40,"ac_name":"Chittapur","booth":133,"booth_name":"Govt Govt H P S Sulahalli"},"geometry":{"type":"Point","coordinates":[77.0434952,17.0475521]}},{"type":"Feature","properties":{"state":"Karnataka","district":4,"district_n":"GULBARGA","pc":5,"pc_name":"Gulbarga","ac":40,"ac_name":"Chittapur","booth":134,"booth_name":"Govt Govt H P S Bommana halli"},"geometry":{"type":"Point","coordinates":[77.07473,17.0285683]}},{"type":"Feature","properties":{"state":"Karnataka","district":4,"district_n":"GULBARGA","pc":5,"pc_name":"Gulbarga","ac":40,"ac_name":"Chittapur","booth":136,"booth_name":"Govt Govt H P S Karadal(left Wing)"},"geometry":{"type":"Point","coordinates":[77.08529,17.0232658]}},{"type":"Feature","properties":{"state":"Karnataka","district":4,"district_n":"GULBARGA","pc":5,"pc_name":"Gulbarga","ac":40,"ac_name":"Chittapur","booth":139,"booth_name":"Govt Govt H P S (left wing) Hossur"},"geometry":{"type":"Point","coordinates":[77.13469,17.0350113]}},{"type":"Feature","properties":{"state":"Karnataka","district":4,"district_n":"GULBARGA","pc":5,"pc_name":"Gulbarga","ac":40,"ac_name":"Chittapur","booth":142,"booth_name":"Govt L P S Alur"},"geometry":{"type":"Point","coordinates":[77.0510254,17.0341358]}},{"type":"Feature","properties":{"state":"Karnataka","district":4,"district_n":"GULBARGA","pc":5,"pc_name":"Gulbarga","ac":40,"ac_name":"Chittapur","booth":145,"booth_name":"Govt L P S Devapur"},"geometry":{"type":"Point","coordinates":[77.038,17.0161915]}},{"type":"Feature","properties":{"state":"Karnataka","district":4,"district_n":"GULBARGA","pc":5,"pc_name":"Gulbarga","ac":40,"ac_name":"Chittapur","booth":147,"booth_name":"Govt H P S Kundanoor(left wing) Kundanur"},"geometry":{"type":"Point","coordinates":[76.92787,17.0432]}},{"type":"Feature","properties":{"state":"Karnataka","district":4,"district_n":"GULBARGA","pc":5,"pc_name":"Gulbarga","ac":40,"ac_name":"Chittapur","booth":148,"booth_name":"Govt H P S (new Bulding) Chamanoor"},"geometry":{"type":"Point","coordinates":[76.97329,17.00813]}},{"type":"Feature","properties":{"state":"Karnataka","district":4,"district_n":"GULBARGA","pc":5,"pc_name":"Gulbarga","ac":40,"ac_name":"Chittapur","booth":150,"booth_name":"Govt Govt H P S Balavadagi(right Wing)"},"geometry":{"type":"Point","coordinates":[76.97779,17.0023251]}},{"type":"Feature","properties":{"state":"Karnataka","district":4,"district_n":"GULBARGA","pc":5,"pc_name":"Gulbarga","ac":40,"ac_name":"Chittapur","booth":151,"booth_name":"Grampanchyat Office Halkatta"},"geometry":{"type":"Point","coordinates":[77.00556,17.0167484]}},{"type":"Feature","properties":{"state":"Karnataka","district":4,"district_n":"GULBARGA","pc":5,"pc_name":"Gulbarga","ac":40,"ac_name":"Chittapur","booth":153,"booth_name":"Govt Govt Urdu Hps (left wing ) Halkatta"},"geometry":{"type":"Point","coordinates":[77.0090256,17.0163116]}},{"type":"Feature","properties":{"state":"Karnataka","district":4,"district_n":"GULBARGA","pc":5,"pc_name":"Gulbarga","ac":40,"ac_name":"Chittapur","booth":154,"booth_name":"Govt H P S (right Wing) Halkatta"},"geometry":{"type":"Point","coordinates":[77.00802,17.0166531]}},{"type":"Feature","properties":{"state":"Karnataka","district":4,"district_n":"GULBARGA","pc":5,"pc_name":"Gulbarga","ac":40,"ac_name":"Chittapur","booth":156,"booth_name":"Govt L P S Hannikera Ramunaik Tanda"},"geometry":{"type":"Point","coordinates":[77.07346,16.983633]}},{"type":"Feature","properties":{"state":"Karnataka","district":4,"district_n":"GULBARGA","pc":5,"pc_name":"Gulbarga","ac":40,"ac_name":"Chittapur","booth":159,"booth_name":"Grampanchyat Building Allolli"},"geometry":{"type":"Point","coordinates":[77.09808,17.0034351]}},{"type":"Feature","properties":{"state":"Karnataka","district":4,"district_n":"GULBARGA","pc":5,"pc_name":"Gulbarga","ac":40,"ac_name":"Chittapur","booth":162,"booth_name":"Govt Govt Hps (right wing) Rajola"},"geometry":{"type":"Point","coordinates":[77.20325,17.0044136]}},{"type":"Feature","properties":{"state":"Karnataka","district":4,"district_n":"GULBARGA","pc":5,"pc_name":"Gulbarga","ac":40,"ac_name":"Chittapur","booth":165,"booth_name":"Govt H P S Ladlapur(right wing)"},"geometry":{"type":"Point","coordinates":[77.03764,16.976347]}},{"type":"Feature","properties":{"state":"Karnataka","district":4,"district_n":"GULBARGA","pc":5,"pc_name":"Gulbarga","ac":40,"ac_name":"Chittapur","booth":168,"booth_name":"Govt H P S Konchur(left wing) Konchur"},"geometry":{"type":"Point","coordinates":[76.99183,16.99037]}},{"type":"Feature","properties":{"state":"Karnataka","district":4,"district_n":"GULBARGA","pc":5,"pc_name":"Gulbarga","ac":40,"ac_name":"Chittapur","booth":170,"booth_name":"Govt L P S Kolkunda"},"geometry":{"type":"Point","coordinates":[76.93348,16.9569511]}},{"type":"Feature","properties":{"state":"Karnataka","district":4,"district_n":"GULBARGA","pc":5,"pc_name":"Gulbarga","ac":40,"ac_name":"Chittapur","booth":171,"booth_name":"Govt L P S Malaga(n)"},"geometry":{"type":"Point","coordinates":[76.94019,16.9375362]}},{"type":"Feature","properties":{"state":"Karnataka","district":4,"district_n":"GULBARGA","pc":5,"pc_name":"Gulbarga","ac":40,"ac_name":"Chittapur","booth":173,"booth_name":"Govt M P S Nalwar(left Wing)"},"geometry":{"type":"Point","coordinates":[76.99132,16.9439754]}},{"type":"Feature","properties":{"state":"Karnataka","district":4,"district_n":"GULBARGA","pc":5,"pc_name":"Gulbarga","ac":40,"ac_name":"Chittapur","booth":174,"booth_name":"Govt Girls Girls H P S Nalwar (left wing)"},"geometry":{"type":"Point","coordinates":[76.9914,16.94414]}},{"type":"Feature","properties":{"state":"Karnataka","district":4,"district_n":"GULBARGA","pc":5,"pc_name":"Gulbarga","ac":40,"ac_name":"Chittapur","booth":176,"booth_name":"Govt H P S Nalwar Station (left Wing)"},"geometry":{"type":"Point","coordinates":[77.01734,16.9359474]}},{"type":"Feature","properties":{"state":"Karnataka","district":4,"district_n":"GULBARGA","pc":5,"pc_name":"Gulbarga","ac":40,"ac_name":"Chittapur","booth":177,"booth_name":"Govt H P S Nalwar Station(middle Wing)"},"geometry":{"type":"Point","coordinates":[77.01743,16.9359589]}},{"type":"Feature","properties":{"state":"Karnataka","district":4,"district_n":"GULBARGA","pc":5,"pc_name":"Gulbarga","ac":40,"ac_name":"Chittapur","booth":179,"booth_name":"Anganawadi Centre Kumbarhalli"},"geometry":{"type":"Point","coordinates":[77.02396,16.93753]}},{"type":"Feature","properties":{"state":"Karnataka","district":4,"district_n":"GULBARGA","pc":5,"pc_name":"Gulbarga","ac":40,"ac_name":"Chittapur","booth":182,"booth_name":"Anganawadi (new Building ) Dandagunda"},"geometry":{"type":"Point","coordinates":[77.10805,16.9698849]}},{"type":"Feature","properties":{"state":"Karnataka","district":4,"district_n":"GULBARGA","pc":5,"pc_name":"Gulbarga","ac":40,"ac_name":"Chittapur","booth":185,"booth_name":"Govt H P S Ramathirtha"},"geometry":{"type":"Point","coordinates":[77.18016,16.9769974]}},{"type":"Feature","properties":{"state":"Karnataka","district":4,"district_n":"GULBARGA","pc":5,"pc_name":"Gulbarga","ac":40,"ac_name":"Chittapur","booth":188,"booth_name":"Govt H S (right wing) Bhimanalli"},"geometry":{"type":"Point","coordinates":[77.19993,16.9522171]}},{"type":"Feature","properties":{"state":"Karnataka","district":4,"district_n":"GULBARGA","pc":5,"pc_name":"Gulbarga","ac":40,"ac_name":"Chittapur","booth":190,"booth_name":"Govt H P S (right (right wing) Belagera"},"geometry":{"type":"Point","coordinates":[77.13635,16.9286327]}},{"type":"Feature","properties":{"state":"Karnataka","district":4,"district_n":"GULBARGA","pc":5,"pc_name":"Gulbarga","ac":40,"ac_name":"Chittapur","booth":191,"booth_name":"Govt L P S Mungi Tanda Belgera"},"geometry":{"type":"Point","coordinates":[77.12933,16.94047]}},{"type":"Feature","properties":{"state":"Karnataka","district":4,"district_n":"GULBARGA","pc":5,"pc_name":"Gulbarga","ac":40,"ac_name":"Chittapur","booth":193,"booth_name":"Govt H P S (south Wing) Yagapur"},"geometry":{"type":"Point","coordinates":[77.11292,16.9159489]}},{"type":"Feature","properties":{"state":"Karnataka","district":4,"district_n":"GULBARGA","pc":5,"pc_name":"Gulbarga","ac":40,"ac_name":"Chittapur","booth":194,"booth_name":"Govt H P S Building Dodda Tanda Yagapur"},"geometry":{"type":"Point","coordinates":[77.12939,16.940464]}},{"type":"Feature","properties":{"state":"Karnataka","district":4,"district_n":"GULBARGA","pc":5,"pc_name":"Gulbarga","ac":40,"ac_name":"Chittapur","booth":196,"booth_name":"Govt H P S (middle Wing)"},"geometry":{"type":"Point","coordinates":[76.98889,16.9226131]}},{"type":"Feature","properties":{"state":"Karnataka","district":4,"district_n":"GULBARGA","pc":5,"pc_name":"Gulbarga","ac":40,"ac_name":"Chittapur","booth":197,"booth_name":"Govt L P S Turnoor"},"geometry":{"type":"Point","coordinates":[76.94274,16.926754]}},{"type":"Feature","properties":{"state":"Karnataka","district":4,"district_n":"GULBARGA","pc":5,"pc_name":"Gulbarga","ac":40,"ac_name":"Chittapur","booth":199,"booth_name":"Govt H P S Rampurhalli"},"geometry":{"type":"Point","coordinates":[77.0234,16.885088]}},{"type":"Feature","properties":{"state":"Karnataka","district":4,"district_n":"GULBARGA","pc":5,"pc_name":"Gulbarga","ac":40,"ac_name":"Chittapur","booth":202,"booth_name":"Govt L P S Kollur(right Wing)"},"geometry":{"type":"Point","coordinates":[76.95214,16.88126]}},{"type":"Feature","properties":{"state":"Karnataka","district":4,"district_n":"GULBARGA","pc":5,"pc_name":"Gulbarga","ac":40,"ac_name":"Chittapur","booth":205,"booth_name":"Govt H P S Tarkaspeth(left wing)"},"geometry":{"type":"Point","coordinates":[76.9911,16.8885746]}},{"type":"Feature","properties":{"state":"Karnataka","district":4,"district_n":"GULBARGA","pc":5,"pc_name":"Gulbarga","ac":40,"ac_name":"Chittapur","booth":208,"booth_name":"Govt H P S Hulandagera"},"geometry":{"type":"Point","coordinates":[76.9598846,16.8360367]}},{"type":"Feature","properties":{"state":"Karnataka","district":4,"district_n":"GULBARGA","pc":5,"pc_name":"Gulbarga","ac":40,"ac_name":"Chittapur","booth":210,"booth_name":"Govt L P S Balunaik Tanda"},"geometry":{"type":"Point","coordinates":[76.9522,16.8810768]}},{"type":"Feature","properties":{"state":"Karnataka","district":4,"district_n":"GULBARGA","pc":5,"pc_name":"Gulbarga","ac":40,"ac_name":"Chittapur","booth":47,"booth_name":"Govt L P S S Urdu (left Wing) Bhankur"},"geometry":{"type":"Point","coordinates":[76.9434,17.1533241]}},{"type":"Feature","properties":{"state":"Karnataka","district":4,"district_n":"GULBARGA","pc":5,"pc_name":"Gulbarga","ac":40,"ac_name":"Chittapur","booth":70,"booth_name":"Govt H P S (south wing) peth Chittapur"},"geometry":{"type":"Point","coordinates":[77.0757446,17.1155281]}},{"type":"Feature","properties":{"state":"Karnataka","district":4,"district_n":"GULBARGA","pc":5,"pc_name":"Gulbarga","ac":40,"ac_name":"Chittapur","booth":110,"booth_name":"Govt M P School (left Wing) Wadi"},"geometry":{"type":"Point","coordinates":[76.98792,17.0468273]}},{"type":"Feature","properties":{"state":"Karnataka","district":4,"district_n":"GULBARGA","pc":5,"pc_name":"Gulbarga","ac":40,"ac_name":"Chittapur","booth":139,"booth_name":"Govt Govt H P S (right wing) Hossur"},"geometry":{"type":"Point","coordinates":[77.13469,17.0350113]}},{"type":"Feature","properties":{"state":"Karnataka","district":4,"district_n":"GULBARGA","pc":5,"pc_name":"Gulbarga","ac":40,"ac_name":"Chittapur","booth":188,"booth_name":"Govt H S (left wing) Bhimanalli"},"geometry":{"type":"Point","coordinates":[77.19993,16.9522171]}},{"type":"Feature","properties":{"state":"Karnataka","district":4,"district_n":"GULBARGA","pc":5,"pc_name":"Gulbarga","ac":40,"ac_name":"Chittapur","booth":105,"booth_name":"Govt H P S Keri Tanda Wadi(left wing)"},"geometry":{"type":"Point","coordinates":[76.99728,17.03927]}},{"type":"Feature","properties":{"state":"Karnataka","district":4,"district_n":"GULBARGA","pc":5,"pc_name":"Gulbarga","ac":40,"ac_name":"Chittapur","booth":107,"booth_name":"Govt Urdu H P S (right Wing) Wadi"},"geometry":{"type":"Point","coordinates":[76.98788,17.0466175]}},{"type":"Feature","properties":{"state":"Karnataka","district":4,"district_n":"GULBARGA","pc":5,"pc_name":"Gulbarga","ac":40,"ac_name":"Chittapur","booth":108,"booth_name":"Community Hall Jambaveer Colony Wadi"},"geometry":{"type":"Point","coordinates":[76.98209,17.0488224]}},{"type":"Feature","properties":{"state":"Karnataka","district":4,"district_n":"GULBARGA","pc":5,"pc_name":"Gulbarga","ac":40,"ac_name":"Chittapur","booth":110,"booth_name":"Govt M P School (right Wing) Wadi"},"geometry":{"type":"Point","coordinates":[76.98792,17.0468273]}},{"type":"Feature","properties":{"state":"Karnataka","district":4,"district_n":"GULBARGA","pc":5,"pc_name":"Gulbarga","ac":40,"ac_name":"Chittapur","booth":119,"booth_name":"Tmc Library Office (right Wing) Wadi"},"geometry":{"type":"Point","coordinates":[76.9913254,17.0531578]}},{"type":"Feature","properties":{"state":"Karnataka","district":4,"district_n":"GULBARGA","pc":5,"pc_name":"Gulbarga","ac":40,"ac_name":"Chittapur","booth":122,"booth_name":"All All Amin Urdu School Kalkamm Area Wadi (righ Wing)"},"geometry":{"type":"Point","coordinates":[76.9912949,17.05606]}},{"type":"Feature","properties":{"state":"Karnataka","district":4,"district_n":"GULBARGA","pc":5,"pc_name":"Gulbarga","ac":40,"ac_name":"Chittapur","booth":125,"booth_name":"Govt Girls Girls H P S (left Wing) Wadi"},"geometry":{"type":"Point","coordinates":[76.99137,17.0533276]}},{"type":"Feature","properties":{"state":"Karnataka","district":4,"district_n":"GULBARGA","pc":5,"pc_name":"Gulbarga","ac":40,"ac_name":"Chittapur","booth":127,"booth_name":"Central Railway primary School (left wing) wing) Wadi"},"geometry":{"type":"Point","coordinates":[76.992424,17.05198]}},{"type":"Feature","properties":{"state":"Karnataka","district":4,"district_n":"GULBARGA","pc":5,"pc_name":"Gulbarga","ac":40,"ac_name":"Chittapur","booth":128,"booth_name":"Ganesh Hall Railway Quarters Hanuman Nagar wadi"},"geometry":{"type":"Point","coordinates":[76.9953842,17.0521069]}},{"type":"Feature","properties":{"state":"Karnataka","district":4,"district_n":"GULBARGA","pc":5,"pc_name":"Gulbarga","ac":40,"ac_name":"Chittapur","booth":130,"booth_name":"St St Ambrus Convent School, Acc Company Wadi (rigt Wing)"},"geometry":{"type":"Point","coordinates":[76.9848862,17.0512962]}},{"type":"Feature","properties":{"state":"Karnataka","district":4,"district_n":"GULBARGA","pc":5,"pc_name":"Gulbarga","ac":40,"ac_name":"Chittapur","booth":92,"booth_name":"Govt M P School Ravoor"},"geometry":{"type":"Point","coordinates":[77.0013657,17.0883484]}},{"type":"Feature","properties":{"state":"Karnataka","district":4,"district_n":"GULBARGA","pc":5,"pc_name":"Gulbarga","ac":40,"ac_name":"Chittapur","booth":95,"booth_name":"Govt Govt H P S Honagunta(left Wing)"},"geometry":{"type":"Point","coordinates":[76.90762,17.0587158]}},{"type":"Feature","properties":{"state":"Karnataka","district":4,"district_n":"GULBARGA","pc":5,"pc_name":"Gulbarga","ac":40,"ac_name":"Chittapur","booth":98,"booth_name":"Govt Govt L P S Kadihalli"},"geometry":{"type":"Point","coordinates":[76.85033,17.06674]}},{"type":"Feature","properties":{"state":"Karnataka","district":4,"district_n":"GULBARGA","pc":5,"pc_name":"Gulbarga","ac":40,"ac_name":"Chittapur","booth":101,"booth_name":"Govt H P S Ingalgi(right Wing)"},"geometry":{"type":"Point","coordinates":[76.94677,17.0655975]}},{"type":"Feature","properties":{"state":"Karnataka","district":4,"district_n":"GULBARGA","pc":5,"pc_name":"Gulbarga","ac":40,"ac_name":"Chittapur","booth":104,"booth_name":"Govt H P S Basawana Khani Wadi"},"geometry":{"type":"Point","coordinates":[77.00747,17.0405]}},{"type":"Feature","properties":{"state":"Karnataka","district":4,"district_n":"GULBARGA","pc":5,"pc_name":"Gulbarga","ac":40,"ac_name":"Chittapur","booth":112,"booth_name":"Mini Roza H P S S English Medum School (left Wing) Wadi"},"geometry":{"type":"Point","coordinates":[76.98743,17.0496941]}},{"type":"Feature","properties":{"state":"Karnataka","district":4,"district_n":"GULBARGA","pc":5,"pc_name":"Gulbarga","ac":40,"ac_name":"Chittapur","booth":115,"booth_name":"Vp Nayak P U U College (left Wing) Wadi"},"geometry":{"type":"Point","coordinates":[76.9904556,17.0510273]}},{"type":"Feature","properties":{"state":"Karnataka","district":4,"district_n":"GULBARGA","pc":5,"pc_name":"Gulbarga","ac":40,"ac_name":"Chittapur","booth":118,"booth_name":"Vp Nayak H P S (left Wing) Wadi"},"geometry":{"type":"Point","coordinates":[76.98951,17.0479736]}},{"type":"Feature","properties":{"state":"Karnataka","district":4,"district_n":"GULBARGA","pc":5,"pc_name":"Gulbarga","ac":40,"ac_name":"Chittapur","booth":121,"booth_name":"Tmc Library Office (left Wing) Wadi"},"geometry":{"type":"Point","coordinates":[76.99131,17.05305]}},{"type":"Feature","properties":{"state":"Karnataka","district":4,"district_n":"GULBARGA","pc":5,"pc_name":"Gulbarga","ac":40,"ac_name":"Chittapur","booth":124,"booth_name":"Govt Govt Govt H P P Girls School(middle Wing) Wadi"},"geometry":{"type":"Point","coordinates":[76.99139,17.0532475]}},{"type":"Feature","properties":{"state":"Karnataka","district":4,"district_n":"GULBARGA","pc":5,"pc_name":"Gulbarga","ac":40,"ac_name":"Chittapur","booth":132,"booth_name":"St St Ambrus Convent School School Acc Company Wadi (left Wing)"},"geometry":{"type":"Point","coordinates":[76.98537,17.05059]}},{"type":"Feature","properties":{"state":"Karnataka","district":4,"district_n":"GULBARGA","pc":5,"pc_name":"Gulbarga","ac":40,"ac_name":"Chittapur","booth":135,"booth_name":"Govt Govt H P S Karadal(right Wing)"},"geometry":{"type":"Point","coordinates":[77.08519,17.02317]}},{"type":"Feature","properties":{"state":"Karnataka","district":4,"district_n":"GULBARGA","pc":5,"pc_name":"Gulbarga","ac":40,"ac_name":"Chittapur","booth":138,"booth_name":"Govt Govt H P S (right wing)satnoor"},"geometry":{"type":"Point","coordinates":[77.1189,17.0397434]}},{"type":"Feature","properties":{"state":"Karnataka","district":4,"district_n":"GULBARGA","pc":5,"pc_name":"Gulbarga","ac":40,"ac_name":"Chittapur","booth":141,"booth_name":"Govt Govt H P S (left Wing) Donagaon"},"geometry":{"type":"Point","coordinates":[77.19066,17.02823]}},{"type":"Feature","properties":{"state":"Karnataka","district":4,"district_n":"GULBARGA","pc":5,"pc_name":"Gulbarga","ac":40,"ac_name":"Chittapur","booth":144,"booth_name":"Govt H P S Kamarwadi(middle Kamarwadi(middle wing)"},"geometry":{"type":"Point","coordinates":[77.03585,17.0395164]}},{"type":"Feature","properties":{"state":"Karnataka","district":4,"district_n":"GULBARGA","pc":5,"pc_name":"Gulbarga","ac":40,"ac_name":"Chittapur","booth":152,"booth_name":"Govt Govt Urdu Hps (right wing ) Halkatta"},"geometry":{"type":"Point","coordinates":[77.00901,17.0162468]}},{"type":"Feature","properties":{"state":"Karnataka","district":4,"district_n":"GULBARGA","pc":5,"pc_name":"Gulbarga","ac":40,"ac_name":"Chittapur","booth":155,"booth_name":"Govt H P S Hannikera(right Wing)"},"geometry":{"type":"Point","coordinates":[77.06445,16.99563]}},{"type":"Feature","properties":{"state":"Karnataka","district":4,"district_n":"GULBARGA","pc":5,"pc_name":"Gulbarga","ac":40,"ac_name":"Chittapur","booth":158,"booth_name":"Anganawadi Kendra ( Infornt of Village) Allolli"},"geometry":{"type":"Point","coordinates":[77.10016,17.0033321]}},{"type":"Feature","properties":{"state":"Karnataka","district":4,"district_n":"GULBARGA","pc":5,"pc_name":"Gulbarga","ac":40,"ac_name":"Chittapur","booth":161,"booth_name":"Govt H P S (left wing) Rajola"},"geometry":{"type":"Point","coordinates":[77.2032242,17.0046234]}},{"type":"Feature","properties":{"state":"Karnataka","district":4,"district_n":"GULBARGA","pc":5,"pc_name":"Gulbarga","ac":40,"ac_name":"Chittapur","booth":164,"booth_name":"Grampanchayat Office Office Building Building Ladlapur"},"geometry":{"type":"Point","coordinates":[77.03505,16.9758625]}},{"type":"Feature","properties":{"state":"Karnataka","district":4,"district_n":"GULBARGA","pc":5,"pc_name":"Gulbarga","ac":40,"ac_name":"Chittapur","booth":167,"booth_name":"Govt H P S Konchur(right Wing) Konchur"},"geometry":{"type":"Point","coordinates":[76.99177,16.9901924]}},{"type":"Feature","properties":{"state":"Karnataka","district":4,"district_n":"GULBARGA","pc":5,"pc_name":"Gulbarga","ac":40,"ac_name":"Chittapur","booth":175,"booth_name":"Govt M P S Nalwar(right Wing)"},"geometry":{"type":"Point","coordinates":[76.99129,16.94427]}},{"type":"Feature","properties":{"state":"Karnataka","district":4,"district_n":"GULBARGA","pc":5,"pc_name":"Gulbarga","ac":40,"ac_name":"Chittapur","booth":178,"booth_name":"Govt H P S Kumbarahalli"},"geometry":{"type":"Point","coordinates":[77.025,16.9375553]}},{"type":"Feature","properties":{"state":"Karnataka","district":4,"district_n":"GULBARGA","pc":5,"pc_name":"Gulbarga","ac":40,"ac_name":"Chittapur","booth":181,"booth_name":"Govt L P S Building Sanknur"},"geometry":{"type":"Point","coordinates":[77.08652,16.95785]}},{"type":"Feature","properties":{"state":"Karnataka","district":4,"district_n":"GULBARGA","pc":5,"pc_name":"Gulbarga","ac":40,"ac_name":"Chittapur","booth":184,"booth_name":"Grampanchyat Grampanchyat Building (meeting Hal) Hal) Allur(b)"},"geometry":{"type":"Point","coordinates":[77.1534348,16.9689941]}},{"type":"Feature","properties":{"state":"Karnataka","district":4,"district_n":"GULBARGA","pc":5,"pc_name":"Gulbarga","ac":40,"ac_name":"Chittapur","booth":187,"booth_name":"Govt Hps (middle wing) Bhimanalli"},"geometry":{"type":"Point","coordinates":[77.1998749,16.952095]}},{"type":"Feature","properties":{"state":"Karnataka","district":4,"district_n":"GULBARGA","pc":5,"pc_name":"Gulbarga","ac":40,"ac_name":"Chittapur","booth":195,"booth_name":"Govt L P S Chandu Nayak Tanda yagapur"},"geometry":{"type":"Point","coordinates":[77.1003647,16.9113]}},{"type":"Feature","properties":{"state":"Karnataka","district":4,"district_n":"GULBARGA","pc":5,"pc_name":"Gulbarga","ac":40,"ac_name":"Chittapur","booth":198,"booth_name":"Govt H P S Maradgi"},"geometry":{"type":"Point","coordinates":[76.94274,16.926754]}},{"type":"Feature","properties":{"state":"Karnataka","district":4,"district_n":"GULBARGA","pc":5,"pc_name":"Gulbarga","ac":40,"ac_name":"Chittapur","booth":201,"booth_name":"Govt H P S Kollur(left Wing)"},"geometry":{"type":"Point","coordinates":[76.9522,16.8810768]}},{"type":"Feature","properties":{"state":"Karnataka","district":4,"district_n":"GULBARGA","pc":5,"pc_name":"Gulbarga","ac":40,"ac_name":"Chittapur","booth":204,"booth_name":"Govt H P S Tarkaspeth(right Wing)"},"geometry":{"type":"Point","coordinates":[76.9919,16.8875027]}},{"type":"Feature","properties":{"state":"Karnataka","district":4,"district_n":"GULBARGA","pc":5,"pc_name":"Gulbarga","ac":40,"ac_name":"Chittapur","booth":207,"booth_name":"Govt H P S (new Building) Kanaganahalli"},"geometry":{"type":"Point","coordinates":[76.93798,16.8403339]}},{"type":"Feature","properties":{"state":"Karnataka","district":4,"district_n":"GULBARGA","pc":5,"pc_name":"Gulbarga","ac":40,"ac_name":"Chittapur","booth":34,"booth_name":"Govt Hps (right wing) Dandoti"},"geometry":{"type":"Point","coordinates":[77.101,17.1823444]}},{"type":"Feature","properties":{"state":"Karnataka","district":4,"district_n":"GULBARGA","pc":5,"pc_name":"Gulbarga","ac":40,"ac_name":"Chittapur","booth":86,"booth_name":"Gram Panchyat Office Diggaon"},"geometry":{"type":"Point","coordinates":[77.1594,17.0905342]}},{"type":"Feature","properties":{"state":"Karnataka","district":4,"district_n":"GULBARGA","pc":5,"pc_name":"Gulbarga","ac":40,"ac_name":"Chittapur","booth":89,"booth_name":"Sachidanand High School (right Wing) Ravoor"},"geometry":{"type":"Point","coordinates":[77.00558,17.0858841]}},{"type":"Feature","properties":{"state":"Karnataka","district":4,"district_n":"GULBARGA","pc":5,"pc_name":"Gulbarga","ac":40,"ac_name":"Chittapur","booth":97,"booth_name":"Govt L P S S Honugunta waddarwadi"},"geometry":{"type":"Point","coordinates":[76.9238358,17.0880165]}},{"type":"Feature","properties":{"state":"Karnataka","district":4,"district_n":"GULBARGA","pc":5,"pc_name":"Gulbarga","ac":40,"ac_name":"Chittapur","booth":100,"booth_name":"Govt Govt H P S S Urdu Urdu Ingalgi"},"geometry":{"type":"Point","coordinates":[76.94636,17.0651951]}},{"type":"Feature","properties":{"state":"Karnataka","district":4,"district_n":"GULBARGA","pc":5,"pc_name":"Gulbarga","ac":40,"ac_name":"Chittapur","booth":103,"booth_name":"Anganwadi canter Ingalgi"},"geometry":{"type":"Point","coordinates":[76.94678,17.0658722]}},{"type":"Feature","properties":{"state":"Karnataka","district":4,"district_n":"GULBARGA","pc":5,"pc_name":"Gulbarga","ac":40,"ac_name":"Chittapur","booth":106,"booth_name":"Govt H P S Keri Tanda Wadi(right wing)"},"geometry":{"type":"Point","coordinates":[76.99733,17.03937]}},{"type":"Feature","properties":{"state":"Karnataka","district":4,"district_n":"GULBARGA","pc":5,"pc_name":"Gulbarga","ac":40,"ac_name":"Chittapur","booth":109,"booth_name":"Anagan Wadi Center Jambaveer Colony Wadi"},"geometry":{"type":"Point","coordinates":[76.989624,17.0489674]}},{"type":"Feature","properties":{"state":"Karnataka","district":4,"district_n":"GULBARGA","pc":5,"pc_name":"Gulbarga","ac":40,"ac_name":"Chittapur","booth":117,"booth_name":"Vp Nayak H P S (right Wing) Wadi"},"geometry":{"type":"Point","coordinates":[76.98942,17.0479279]}},{"type":"Feature","properties":{"state":"Karnataka","district":4,"district_n":"GULBARGA","pc":5,"pc_name":"Gulbarga","ac":40,"ac_name":"Chittapur","booth":120,"booth_name":"Tmc office Wadi"},"geometry":{"type":"Point","coordinates":[76.99165,17.053278]}},{"type":"Feature","properties":{"state":"Karnataka","district":4,"district_n":"GULBARGA","pc":5,"pc_name":"Gulbarga","ac":40,"ac_name":"Chittapur","booth":123,"booth_name":"All All Amin Urdu School Kalkamm Area Wadi (left Wing)"},"geometry":{"type":"Point","coordinates":[76.99157,17.0562153]}},{"type":"Feature","properties":{"state":"Karnataka","district":4,"district_n":"GULBARGA","pc":5,"pc_name":"Gulbarga","ac":40,"ac_name":"Chittapur","booth":126,"booth_name":"Govt Lps Indranagar Wadi"},"geometry":{"type":"Point","coordinates":[77.00001,17.0607586]}},{"type":"Feature","properties":{"state":"Karnataka","district":4,"district_n":"GULBARGA","pc":5,"pc_name":"Gulbarga","ac":40,"ac_name":"Chittapur","booth":129,"booth_name":"Centeral Railway Primary School Wadi (left Wing)"},"geometry":{"type":"Point","coordinates":[76.9923248,17.052021]}},{"type":"Feature","properties":{"state":"Karnataka","district":4,"district_n":"GULBARGA","pc":5,"pc_name":"Gulbarga","ac":40,"ac_name":"Chittapur","booth":137,"booth_name":"Govt Govt H P S (left wing)satnoor"},"geometry":{"type":"Point","coordinates":[77.11858,17.0396557]}},{"type":"Feature","properties":{"state":"Karnataka","district":4,"district_n":"GULBARGA","pc":5,"pc_name":"Gulbarga","ac":40,"ac_name":"Chittapur","booth":140,"booth_name":"Govt Govt H P S (right Wing) Donagaon"},"geometry":{"type":"Point","coordinates":[77.19108,17.0279636]}},{"type":"Feature","properties":{"state":"Karnataka","district":4,"district_n":"GULBARGA","pc":5,"pc_name":"Gulbarga","ac":40,"ac_name":"Chittapur","booth":143,"booth_name":"Govt H P S Kamarwadi (left wing)"},"geometry":{"type":"Point","coordinates":[77.03563,17.0395527]}},{"type":"Feature","properties":{"state":"Karnataka","district":4,"district_n":"GULBARGA","pc":5,"pc_name":"Gulbarga","ac":40,"ac_name":"Chittapur","booth":146,"booth_name":"Govt H P S Kundanoor (right Wing) Kundanur"},"geometry":{"type":"Point","coordinates":[76.92791,17.0431252]}},{"type":"Feature","properties":{"state":"Karnataka","district":4,"district_n":"GULBARGA","pc":5,"pc_name":"Gulbarga","ac":40,"ac_name":"Chittapur","booth":149,"booth_name":"Govt Govt H P S Balavadagi"},"geometry":{"type":"Point","coordinates":[76.97722,17.0082245]}},{"type":"Feature","properties":{"state":"Karnataka","district":4,"district_n":"GULBARGA","pc":5,"pc_name":"Gulbarga","ac":40,"ac_name":"Chittapur","booth":157,"booth_name":"Govt H P S S S Allahalli"},"geometry":{"type":"Point","coordinates":[77.10027,17.00332]}},{"type":"Feature","properties":{"state":"Karnataka","district":4,"district_n":"GULBARGA","pc":5,"pc_name":"Gulbarga","ac":40,"ac_name":"Chittapur","booth":160,"booth_name":"Govt H P S (new Bulding) Bhankalaga"},"geometry":{"type":"Point","coordinates":[77.162796,17.026125]}},{"type":"Feature","properties":{"state":"Karnataka","district":4,"district_n":"GULBARGA","pc":5,"pc_name":"Gulbarga","ac":40,"ac_name":"Chittapur","booth":163,"booth_name":"Govt Govt H P S S (right Wing) Allur(k)"},"geometry":{"type":"Point","coordinates":[77.15324,16.98012]}},{"type":"Feature","properties":{"state":"Karnataka","district":4,"district_n":"GULBARGA","pc":5,"pc_name":"Gulbarga","ac":40,"ac_name":"Chittapur","booth":163,"booth_name":"Govt Govt H P S S (left Wing) Allur(k)"},"geometry":{"type":"Point","coordinates":[77.15324,16.98012]}},{"type":"Feature","properties":{"state":"Karnataka","district":4,"district_n":"GULBARGA","pc":5,"pc_name":"Gulbarga","ac":40,"ac_name":"Chittapur","booth":166,"booth_name":"Govt H P S Ladlapur(left wing)"},"geometry":{"type":"Point","coordinates":[77.03768,16.9768333]}},{"type":"Feature","properties":{"state":"Karnataka","district":4,"district_n":"GULBARGA","pc":5,"pc_name":"Gulbarga","ac":40,"ac_name":"Chittapur","booth":169,"booth_name":"Anganawadi Centre Kadaboor"},"geometry":{"type":"Point","coordinates":[76.94302,16.9880047]}},{"type":"Feature","properties":{"state":"Karnataka","district":4,"district_n":"GULBARGA","pc":5,"pc_name":"Gulbarga","ac":40,"ac_name":"Chittapur","booth":172,"booth_name":"Govt Girls H P S S Nalwar (right Wing)"},"geometry":{"type":"Point","coordinates":[76.991394,16.9440231]}},{"type":"Feature","properties":{"state":"Karnataka","district":4,"district_n":"GULBARGA","pc":5,"pc_name":"Gulbarga","ac":40,"ac_name":"Chittapur","booth":180,"booth_name":"Govt L P S Darmanaik Tanda"},"geometry":{"type":"Point","coordinates":[77.03984,16.9289551]}},{"type":"Feature","properties":{"state":"Karnataka","district":4,"district_n":"GULBARGA","pc":5,"pc_name":"Gulbarga","ac":40,"ac_name":"Chittapur","booth":183,"booth_name":"Govt H P S (new Bulding) Allur(b)"},"geometry":{"type":"Point","coordinates":[77.15393,16.9695988]}},{"type":"Feature","properties":{"state":"Karnataka","district":4,"district_n":"GULBARGA","pc":5,"pc_name":"Gulbarga","ac":40,"ac_name":"Chittapur","booth":186,"booth_name":"Govt Hps (right wing) Bhimanalli"},"geometry":{"type":"Point","coordinates":[77.2001343,16.95217]}},{"type":"Feature","properties":{"state":"Karnataka","district":4,"district_n":"GULBARGA","pc":5,"pc_name":"Gulbarga","ac":40,"ac_name":"Chittapur","booth":189,"booth_name":"Govt H P S (left wing) Belagera"},"geometry":{"type":"Point","coordinates":[77.13643,16.9289]}},{"type":"Feature","properties":{"state":"Karnataka","district":4,"district_n":"GULBARGA","pc":5,"pc_name":"Gulbarga","ac":40,"ac_name":"Chittapur","booth":192,"booth_name":"Govt H P S (north Wing) Yagapur"},"geometry":{"type":"Point","coordinates":[77.11314,16.91584]}},{"type":"Feature","properties":{"state":"Karnataka","district":4,"district_n":"GULBARGA","pc":5,"pc_name":"Gulbarga","ac":40,"ac_name":"Chittapur","booth":200,"booth_name":"Govt H P S Shampurhalli"},"geometry":{"type":"Point","coordinates":[77.0316238,16.8770046]}},{"type":"Feature","properties":{"state":"Karnataka","district":4,"district_n":"GULBARGA","pc":5,"pc_name":"Gulbarga","ac":40,"ac_name":"Chittapur","booth":203,"booth_name":"Panchayat Office Kollur"},"geometry":{"type":"Point","coordinates":[76.9513855,16.88126]}},{"type":"Feature","properties":{"state":"Karnataka","district":4,"district_n":"GULBARGA","pc":5,"pc_name":"Gulbarga","ac":40,"ac_name":"Chittapur","booth":206,"booth_name":"Govt H P S Sannati"},"geometry":{"type":"Point","coordinates":[76.90898,16.8297634]}},{"type":"Feature","properties":{"state":"Karnataka","district":4,"district_n":"GULBARGA","pc":5,"pc_name":"Gulbarga","ac":40,"ac_name":"Chittapur","booth":209,"booth_name":"Govt L P S (new Building) Bannahatti"},"geometry":{"type":"Point","coordinates":[76.97974,16.8250923]}},{"type":"Feature","properties":{"state":"Karnataka","district":4,"district_n":"GULBARGA","pc":5,"pc_name":"Gulbarga","ac":40,"ac_name":"Chittapur","booth":68,"booth_name":"Govt Govt H P S For Kanya School Urdu Chittapur(right Wing)"},"geometry":{"type":"Point","coordinates":[77.08238,17.1181145]}},{"type":"Feature","properties":{"state":"Karnataka","district":4,"district_n":"GULBARGA","pc":5,"pc_name":"Gulbarga","ac":40,"ac_name":"Chittapur","booth":70,"booth_name":"Govt H P S (righ wing) peth Chittapur"},"geometry":{"type":"Point","coordinates":[77.0757446,17.1155281]}},{"type":"Feature","properties":{"state":"Karnataka","district":4,"district_n":"GULBARGA","pc":5,"pc_name":"Gulbarga","ac":40,"ac_name":"Chittapur","booth":71,"booth_name":"Govt H P S(left wing) peth Chittapur"},"geometry":{"type":"Point","coordinates":[77.07578,17.1155071]}},{"type":"Feature","properties":{"state":"Karnataka","district":4,"district_n":"GULBARGA","pc":5,"pc_name":"Gulbarga","ac":40,"ac_name":"Chittapur","booth":73,"booth_name":"Govt H P S boys School Chittapur"},"geometry":{"type":"Point","coordinates":[77.08167,17.1176338]}},{"type":"Feature","properties":{"state":"Karnataka","district":4,"district_n":"GULBARGA","pc":5,"pc_name":"Gulbarga","ac":40,"ac_name":"Chittapur","booth":76,"booth_name":"Govt H P S Kelagera (right wing)chittapur"},"geometry":{"type":"Point","coordinates":[77.0836,17.1199036]}},{"type":"Feature","properties":{"state":"Karnataka","district":4,"district_n":"GULBARGA","pc":5,"pc_name":"Gulbarga","ac":40,"ac_name":"Chittapur","booth":79,"booth_name":"Govt H P S Malagatti"},"geometry":{"type":"Point","coordinates":[76.9756241,17.116066]}},{"type":"Feature","properties":{"state":"Karnataka","district":4,"district_n":"GULBARGA","pc":5,"pc_name":"Gulbarga","ac":40,"ac_name":"Chittapur","booth":82,"booth_name":"Govt M P S (north Wing) Gandhi Nager"},"geometry":{"type":"Point","coordinates":[76.99452,17.0747013]}},{"type":"Feature","properties":{"state":"Karnataka","district":4,"district_n":"GULBARGA","pc":5,"pc_name":"Gulbarga","ac":40,"ac_name":"Chittapur","booth":85,"booth_name":"Govt Govt H P S (left Wing) Diggaon"},"geometry":{"type":"Point","coordinates":[77.15818,17.0900135]}},{"type":"Feature","properties":{"state":"Karnataka","district":4,"district_n":"GULBARGA","pc":5,"pc_name":"Gulbarga","ac":40,"ac_name":"Chittapur","booth":21,"booth_name":"Govt H P S Mattimud"},"geometry":{"type":"Point","coordinates":[77.07057,17.2795734]}},{"type":"Feature","properties":{"state":"Karnataka","district":4,"district_n":"GULBARGA","pc":5,"pc_name":"Gulbarga","ac":40,"ac_name":"Chittapur","booth":29,"booth_name":"Govt H P S (left Wing)pethsirur"},"geometry":{"type":"Point","coordinates":[77.00013,17.2169113]}},{"type":"Feature","properties":{"state":"Karnataka","district":4,"district_n":"GULBARGA","pc":5,"pc_name":"Gulbarga","ac":40,"ac_name":"Chittapur","booth":9,"booth_name":"Govt Govt Hps Ashok Nagar"},"geometry":{"type":"Point","coordinates":[77.08857,17.3447247]}},{"type":"Feature","properties":{"state":"Karnataka","district":4,"district_n":"GULBARGA","pc":5,"pc_name":"Gulbarga","ac":40,"ac_name":"Chittapur","booth":12,"booth_name":"Govt H P S Malghan"},"geometry":{"type":"Point","coordinates":[77.12479,17.33041]}},{"type":"Feature","properties":{"state":"Karnataka","district":4,"district_n":"GULBARGA","pc":5,"pc_name":"Gulbarga","ac":40,"ac_name":"Chittapur","booth":15,"booth_name":"Govt H P S Mutchkhed"},"geometry":{"type":"Point","coordinates":[77.11383,17.305603]}},{"type":"Feature","properties":{"state":"Karnataka","district":4,"district_n":"GULBARGA","pc":5,"pc_name":"Gulbarga","ac":40,"ac_name":"Chittapur","booth":18,"booth_name":"Govt H P S Madbool"},"geometry":{"type":"Point","coordinates":[77.01658,17.2754574]}},{"type":"Feature","properties":{"state":"Karnataka","district":4,"district_n":"GULBARGA","pc":5,"pc_name":"Gulbarga","ac":40,"ac_name":"Chittapur","booth":41,"booth_name":"Gram Panchayat Office Bhankur"},"geometry":{"type":"Point","coordinates":[76.9564,17.15811]}},{"type":"Feature","properties":{"state":"Karnataka","district":4,"district_n":"GULBARGA","pc":5,"pc_name":"Gulbarga","ac":40,"ac_name":"Chittapur","booth":49,"booth_name":"Govt L P S,jeevanagi"},"geometry":{"type":"Point","coordinates":[77.00085,17.1605339]}},{"type":"Feature","properties":{"state":"Karnataka","district":4,"district_n":"GULBARGA","pc":5,"pc_name":"Gulbarga","ac":40,"ac_name":"Chittapur","booth":52,"booth_name":"Govt H P S S Bhagodi"},"geometry":{"type":"Point","coordinates":[77.03723,17.180212]}},{"type":"Feature","properties":{"state":"Karnataka","district":4,"district_n":"GULBARGA","pc":5,"pc_name":"Gulbarga","ac":40,"ac_name":"Chittapur","booth":55,"booth_name":"Govt H P S,magola"},"geometry":{"type":"Point","coordinates":[77.1131744,17.153511]}},{"type":"Feature","properties":{"state":"Karnataka","district":4,"district_n":"GULBARGA","pc":5,"pc_name":"Gulbarga","ac":40,"ac_name":"Chittapur","booth":58,"booth_name":"Sub Register Staff Room Chittapur"},"geometry":{"type":"Point","coordinates":[77.08984,17.1207275]}},{"type":"Feature","properties":{"state":"Karnataka","district":4,"district_n":"GULBARGA","pc":5,"pc_name":"Gulbarga","ac":40,"ac_name":"Chittapur","booth":61,"booth_name":"Govt H P S (right Wing)station Tanda Chittapur"},"geometry":{"type":"Point","coordinates":[77.09203,17.1190853]}},{"type":"Feature","properties":{"state":"Karnataka","district":4,"district_n":"GULBARGA","pc":5,"pc_name":"Gulbarga","ac":40,"ac_name":"Chittapur","booth":69,"booth_name":"Govt H P S Kanya Urdu School Chittapur(left Wing)"},"geometry":{"type":"Point","coordinates":[77.08232,17.1179848]}},{"type":"Feature","properties":{"state":"Karnataka","district":4,"district_n":"GULBARGA","pc":5,"pc_name":"Gulbarga","ac":40,"ac_name":"Chittapur","booth":72,"booth_name":"Govt Govt H p s Urdu for Boys School Chittapur (left Wing)"},"geometry":{"type":"Point","coordinates":[77.08193,17.1179466]}},{"type":"Feature","properties":{"state":"Karnataka","district":4,"district_n":"GULBARGA","pc":5,"pc_name":"Gulbarga","ac":40,"ac_name":"Chittapur","booth":75,"booth_name":"Govt H P S Kelagera (left wing)chittapur"},"geometry":{"type":"Point","coordinates":[77.0835,17.1200218]}},{"type":"Feature","properties":{"state":"Karnataka","district":4,"district_n":"GULBARGA","pc":5,"pc_name":"Gulbarga","ac":40,"ac_name":"Chittapur","booth":78,"booth_name":"Govt H P S Shankarwadi"},"geometry":{"type":"Point","coordinates":[76.97129,17.15231]}},{"type":"Feature","properties":{"state":"Karnataka","district":4,"district_n":"GULBARGA","pc":5,"pc_name":"Gulbarga","ac":40,"ac_name":"Chittapur","booth":81,"booth_name":"Govt M P S (east Wing) Gandhi Nager"},"geometry":{"type":"Point","coordinates":[76.99693,17.0759964]}},{"type":"Feature","properties":{"state":"Karnataka","district":4,"district_n":"GULBARGA","pc":5,"pc_name":"Gulbarga","ac":40,"ac_name":"Chittapur","booth":84,"booth_name":"Govt Govt H P S (right Wing) Diggaon"},"geometry":{"type":"Point","coordinates":[77.15852,17.0901756]}},{"type":"Feature","properties":{"state":"Karnataka","district":4,"district_n":"GULBARGA","pc":5,"pc_name":"Gulbarga","ac":40,"ac_name":"Chittapur","booth":32,"booth_name":"Govt H P S Tonasanahalli (t)"},"geometry":{"type":"Point","coordinates":[77.1334152,17.2344551]}},{"type":"Feature","properties":{"state":"Karnataka","district":4,"district_n":"GULBARGA","pc":5,"pc_name":"Gulbarga","ac":40,"ac_name":"Chittapur","booth":35,"booth_name":"Govt Hps Urdu Dandoti"},"geometry":{"type":"Point","coordinates":[77.10105,17.1823368]}},{"type":"Feature","properties":{"state":"Karnataka","district":4,"district_n":"GULBARGA","pc":5,"pc_name":"Gulbarga","ac":40,"ac_name":"Chittapur","booth":38,"booth_name":"Govt L P S,katamdevarhalli"},"geometry":{"type":"Point","coordinates":[77.02102,17.1945267]}},{"type":"Feature","properties":{"state":"Karnataka","district":4,"district_n":"GULBARGA","pc":5,"pc_name":"Gulbarga","ac":40,"ac_name":"Chittapur","booth":20,"booth_name":"Govt H P S Mupta"},"geometry":{"type":"Point","coordinates":[77.03939,17.2618446]}},{"type":"Feature","properties":{"state":"Karnataka","district":4,"district_n":"GULBARGA","pc":5,"pc_name":"Gulbarga","ac":40,"ac_name":"Chittapur","booth":23,"booth_name":"Govt M P S (left wing) Gundagurti"},"geometry":{"type":"Point","coordinates":[77.08505,17.2826271]}},{"type":"Feature","properties":{"state":"Karnataka","district":4,"district_n":"GULBARGA","pc":5,"pc_name":"Gulbarga","ac":40,"ac_name":"Chittapur","booth":26,"booth_name":"Govt L P S Molali Tanda Mahanagar"},"geometry":{"type":"Point","coordinates":[76.99978,17.25459]}},{"type":"Feature","properties":{"state":"Karnataka","district":4,"district_n":"GULBARGA","pc":5,"pc_name":"Gulbarga","ac":40,"ac_name":"Chittapur","booth":3,"booth_name":"Govt H P S (old Building) Nippani"},"geometry":{"type":"Point","coordinates":[76.98415,17.38537]}},{"type":"Feature","properties":{"state":"Karnataka","district":4,"district_n":"GULBARGA","pc":5,"pc_name":"Gulbarga","ac":40,"ac_name":"Chittapur","booth":6,"booth_name":"Govt M P S (north Wing)hebbal"},"geometry":{"type":"Point","coordinates":[77.06415,17.3779545]}},{"type":"Feature","properties":{"state":"Karnataka","district":4,"district_n":"GULBARGA","pc":5,"pc_name":"Gulbarga","ac":40,"ac_name":"Chittapur","booth":14,"booth_name":"Govt H P S (left Wing) Kalagurthi"},"geometry":{"type":"Point","coordinates":[77.11383,17.305603]}},{"type":"Feature","properties":{"state":"Karnataka","district":4,"district_n":"GULBARGA","pc":5,"pc_name":"Gulbarga","ac":40,"ac_name":"Chittapur","booth":17,"booth_name":"Govt H P S Hadnoor"},"geometry":{"type":"Point","coordinates":[77.00122,17.3044262]}},{"type":"Feature","properties":{"state":"Karnataka","district":4,"district_n":"GULBARGA","pc":5,"pc_name":"Gulbarga","ac":40,"ac_name":"Chittapur","booth":43,"booth_name":"Govt M P S,(middle S,(middle Wing) Bhankur"},"geometry":{"type":"Point","coordinates":[76.95358,17.1573524]}},{"type":"Feature","properties":{"state":"Karnataka","district":4,"district_n":"GULBARGA","pc":5,"pc_name":"Gulbarga","ac":40,"ac_name":"Chittapur","booth":46,"booth_name":"Govt H S,bhankur(left wing)"},"geometry":{"type":"Point","coordinates":[76.95154,17.1575089]}},{"type":"Feature","properties":{"state":"Karnataka","district":4,"district_n":"GULBARGA","pc":5,"pc_name":"Gulbarga","ac":40,"ac_name":"Chittapur","booth":54,"booth_name":"Govt L P S,margol"},"geometry":{"type":"Point","coordinates":[77.1129,17.1537228]}},{"type":"Feature","properties":{"state":"Karnataka","district":4,"district_n":"GULBARGA","pc":5,"pc_name":"Gulbarga","ac":40,"ac_name":"Chittapur","booth":57,"booth_name":"Adarsh English Medum (lifg Wing) Chittapur"},"geometry":{"type":"Point","coordinates":[77.0896759,17.1206188]}},{"type":"Feature","properties":{"state":"Karnataka","district":4,"district_n":"GULBARGA","pc":5,"pc_name":"Gulbarga","ac":40,"ac_name":"Chittapur","booth":60,"booth_name":"T M C (s G S R Y ) Chittapur"},"geometry":{"type":"Point","coordinates":[77.08954,17.1206417]}},{"type":"Feature","properties":{"state":"Karnataka","district":4,"district_n":"GULBARGA","pc":5,"pc_name":"Gulbarga","ac":40,"ac_name":"Chittapur","booth":63,"booth_name":"Govt L P S Diggaon Raod Chiittapur"},"geometry":{"type":"Point","coordinates":[77.09036,17.114006]}},{"type":"Feature","properties":{"state":"Karnataka","district":4,"district_n":"GULBARGA","pc":5,"pc_name":"Gulbarga","ac":40,"ac_name":"Chittapur","booth":66,"booth_name":"Govt H P S Near Asar Mohalla(right Wing)chittapur"},"geometry":{"type":"Point","coordinates":[77.08327,17.1170826]}},{"type":"Feature","properties":{"state":"Karnataka","district":4,"district_n":"GULBARGA","pc":5,"pc_name":"Gulbarga","ac":40,"ac_name":"Chittapur","booth":74,"booth_name":"H P S S Shishu Vihar Chittapur"},"geometry":{"type":"Point","coordinates":[77.08302,17.12264]}},{"type":"Feature","properties":{"state":"Karnataka","district":4,"district_n":"GULBARGA","pc":5,"pc_name":"Gulbarga","ac":40,"ac_name":"Chittapur","booth":77,"booth_name":"Govt H P S Yergal"},"geometry":{"type":"Point","coordinates":[77.03657,17.12729]}},{"type":"Feature","properties":{"state":"Karnataka","district":4,"district_n":"GULBARGA","pc":5,"pc_name":"Gulbarga","ac":40,"ac_name":"Chittapur","booth":80,"booth_name":"Old Gram panchyat Office (meeting Hall ) Malagatti"},"geometry":{"type":"Point","coordinates":[76.9750061,17.11467]}},{"type":"Feature","properties":{"state":"Karnataka","district":4,"district_n":"GULBARGA","pc":5,"pc_name":"Gulbarga","ac":40,"ac_name":"Chittapur","booth":83,"booth_name":"Govt H P S Itga"},"geometry":{"type":"Point","coordinates":[77.1394653,17.1205788]}},{"type":"Feature","properties":{"state":"Karnataka","district":4,"district_n":"GULBARGA","pc":5,"pc_name":"Gulbarga","ac":40,"ac_name":"Chittapur","booth":34,"booth_name":"Govt Hps (left wing) Dandoti"},"geometry":{"type":"Point","coordinates":[77.101,17.1823444]}},{"type":"Feature","properties":{"state":"Karnataka","district":4,"district_n":"GULBARGA","pc":5,"pc_name":"Gulbarga","ac":40,"ac_name":"Chittapur","booth":37,"booth_name":"Panchayat Office Dandoti"},"geometry":{"type":"Point","coordinates":[77.10443,17.18212]}},{"type":"Feature","properties":{"state":"Karnataka","district":4,"district_n":"GULBARGA","pc":5,"pc_name":"Gulbarga","ac":40,"ac_name":"Chittapur","booth":40,"booth_name":"Govt H P S,teri Tanda Sevanagar"},"geometry":{"type":"Point","coordinates":[76.95467,17.200695]}}]}