{"type":"FeatureCollection","features":[{"type":"Feature","properties":{"state":"Karnataka","district":4,"district_n":"GULBARGA","pc":7,"pc_name":"Bidar","ac":46,"ac_name":"Aland","booth":44,"booth_name":"Govt Higher Primary School"},"geometry":{"type":"Point","coordinates":[76.83124,17.3515263]}},{"type":"Feature","properties":{"state":"Karnataka","district":4,"district_n":"GULBARGA","pc":7,"pc_name":"Bidar","ac":46,"ac_name":"Aland","booth":46,"booth_name":"Panchayat Office Building (right Wing)"},"geometry":{"type":"Point","coordinates":[76.83124,17.3515263]}},{"type":"Feature","properties":{"state":"Karnataka","district":4,"district_n":"GULBARGA","pc":7,"pc_name":"Bidar","ac":46,"ac_name":"Aland","booth":49,"booth_name":"Govt Higher Primary School (right Wing)"},"geometry":{"type":"Point","coordinates":[76.83124,17.3515263]}},{"type":"Feature","properties":{"state":"Karnataka","district":4,"district_n":"GULBARGA","pc":7,"pc_name":"Bidar","ac":46,"ac_name":"Aland","booth":55,"booth_name":"Grama Panchayati Office New Building"},"geometry":{"type":"Point","coordinates":[76.4574,17.59643]}},{"type":"Feature","properties":{"state":"Karnataka","district":4,"district_n":"GULBARGA","pc":7,"pc_name":"Bidar","ac":46,"ac_name":"Aland","booth":1,"booth_name":"Govt Higher Primary School"},"geometry":{"type":"Point","coordinates":[76.55354,17.7531052]}},{"type":"Feature","properties":{"state":"Karnataka","district":4,"district_n":"GULBARGA","pc":7,"pc_name":"Bidar","ac":46,"ac_name":"Aland","booth":3,"booth_name":"Govt Higher Primary School"},"geometry":{"type":"Point","coordinates":[76.62097,17.7364712]}},{"type":"Feature","properties":{"state":"Karnataka","district":4,"district_n":"GULBARGA","pc":7,"pc_name":"Bidar","ac":46,"ac_name":"Aland","booth":6,"booth_name":"Govt Higher Primary School (left Wing)"},"geometry":{"type":"Point","coordinates":[76.54522,17.7327652]}},{"type":"Feature","properties":{"state":"Karnataka","district":4,"district_n":"GULBARGA","pc":7,"pc_name":"Bidar","ac":46,"ac_name":"Aland","booth":9,"booth_name":"Govt Higher Primary School Building Building (south Wing)"},"geometry":{"type":"Point","coordinates":[76.63715,17.7106552]}},{"type":"Feature","properties":{"state":"Karnataka","district":4,"district_n":"GULBARGA","pc":7,"pc_name":"Bidar","ac":46,"ac_name":"Aland","booth":12,"booth_name":"Govt Higher Primary School Building Building (right Wing)"},"geometry":{"type":"Point","coordinates":[76.56992,17.6872883]}},{"type":"Feature","properties":{"state":"Karnataka","district":4,"district_n":"GULBARGA","pc":7,"pc_name":"Bidar","ac":46,"ac_name":"Aland","booth":14,"booth_name":"Govt Govt High School"},"geometry":{"type":"Point","coordinates":[76.5697556,17.6872883]}},{"type":"Feature","properties":{"state":"Karnataka","district":4,"district_n":"GULBARGA","pc":7,"pc_name":"Bidar","ac":46,"ac_name":"Aland","booth":15,"booth_name":"Grama Panchayat Office"},"geometry":{"type":"Point","coordinates":[76.56641,17.68797]}},{"type":"Feature","properties":{"state":"Karnataka","district":4,"district_n":"GULBARGA","pc":7,"pc_name":"Bidar","ac":46,"ac_name":"Aland","booth":17,"booth_name":"Govt Higher Primary School Building Building (left Wing)"},"geometry":{"type":"Point","coordinates":[76.52058,17.6979218]}},{"type":"Feature","properties":{"state":"Karnataka","district":4,"district_n":"GULBARGA","pc":7,"pc_name":"Bidar","ac":46,"ac_name":"Aland","booth":18,"booth_name":"Govt Higher Primary School New Building"},"geometry":{"type":"Point","coordinates":[76.49911,17.70729]}},{"type":"Feature","properties":{"state":"Karnataka","district":4,"district_n":"GULBARGA","pc":7,"pc_name":"Bidar","ac":46,"ac_name":"Aland","booth":20,"booth_name":"Govt Higher Primary School"},"geometry":{"type":"Point","coordinates":[76.5836258,17.679184]}},{"type":"Feature","properties":{"state":"Karnataka","district":4,"district_n":"GULBARGA","pc":7,"pc_name":"Bidar","ac":46,"ac_name":"Aland","booth":21,"booth_name":"Govt Higher Primary School School School (south Wing)"},"geometry":{"type":"Point","coordinates":[76.62026,17.6779442]}},{"type":"Feature","properties":{"state":"Karnataka","district":4,"district_n":"GULBARGA","pc":7,"pc_name":"Bidar","ac":46,"ac_name":"Aland","booth":23,"booth_name":"Govt Higher Primary School (north Wing)"},"geometry":{"type":"Point","coordinates":[76.6262,17.67811]}},{"type":"Feature","properties":{"state":"Karnataka","district":4,"district_n":"GULBARGA","pc":7,"pc_name":"Bidar","ac":46,"ac_name":"Aland","booth":26,"booth_name":"Govt Higher Primary School (west)"},"geometry":{"type":"Point","coordinates":[76.63763,17.67325]}},{"type":"Feature","properties":{"state":"Karnataka","district":4,"district_n":"GULBARGA","pc":7,"pc_name":"Bidar","ac":46,"ac_name":"Aland","booth":29,"booth_name":"Govt Higher Primary School North wing"},"geometry":{"type":"Point","coordinates":[76.59519,17.658762]}},{"type":"Feature","properties":{"state":"Karnataka","district":4,"district_n":"GULBARGA","pc":7,"pc_name":"Bidar","ac":46,"ac_name":"Aland","booth":37,"booth_name":"Govt Higher Primary School"},"geometry":{"type":"Point","coordinates":[76.54418,17.64321]}},{"type":"Feature","properties":{"state":"Karnataka","district":4,"district_n":"GULBARGA","pc":7,"pc_name":"Bidar","ac":46,"ac_name":"Aland","booth":38,"booth_name":"Govt Higher Primary School"},"geometry":{"type":"Point","coordinates":[76.5849152,17.6384678]}},{"type":"Feature","properties":{"state":"Karnataka","district":4,"district_n":"GULBARGA","pc":7,"pc_name":"Bidar","ac":46,"ac_name":"Aland","booth":40,"booth_name":"Govt Higher Primary School (left Wing)"},"geometry":{"type":"Point","coordinates":[76.70242,17.6187534]}},{"type":"Feature","properties":{"state":"Karnataka","district":4,"district_n":"GULBARGA","pc":7,"pc_name":"Bidar","ac":46,"ac_name":"Aland","booth":175,"booth_name":"Govt Higher Primary School (left Wing)"},"geometry":{"type":"Point","coordinates":[76.29339,17.23545]}},{"type":"Feature","properties":{"state":"Karnataka","district":4,"district_n":"GULBARGA","pc":7,"pc_name":"Bidar","ac":46,"ac_name":"Aland","booth":178,"booth_name":"Grama Panchayati Office"},"geometry":{"type":"Point","coordinates":[76.374115,17.4561348]}},{"type":"Feature","properties":{"state":"Karnataka","district":4,"district_n":"GULBARGA","pc":7,"pc_name":"Bidar","ac":46,"ac_name":"Aland","booth":180,"booth_name":"Govt Higher Primary School (central Wing)"},"geometry":{"type":"Point","coordinates":[76.3731155,17.46295]}},{"type":"Feature","properties":{"state":"Karnataka","district":4,"district_n":"GULBARGA","pc":7,"pc_name":"Bidar","ac":46,"ac_name":"Aland","booth":181,"booth_name":"Pashu Chikitsalay Hospital"},"geometry":{"type":"Point","coordinates":[76.2245,17.27575]}},{"type":"Feature","properties":{"state":"Karnataka","district":4,"district_n":"GULBARGA","pc":7,"pc_name":"Bidar","ac":46,"ac_name":"Aland","booth":183,"booth_name":"Govt Junior College"},"geometry":{"type":"Point","coordinates":[76.37306,17.4629765]}},{"type":"Feature","properties":{"state":"Karnataka","district":4,"district_n":"GULBARGA","pc":7,"pc_name":"Bidar","ac":46,"ac_name":"Aland","booth":186,"booth_name":"Govt Higher Primary School (west Wing)"},"geometry":{"type":"Point","coordinates":[76.80903,17.3409023]}},{"type":"Feature","properties":{"state":"Karnataka","district":4,"district_n":"GULBARGA","pc":7,"pc_name":"Bidar","ac":46,"ac_name":"Aland","booth":187,"booth_name":"Grama Panchayati Office"},"geometry":{"type":"Point","coordinates":[76.80903,17.3409023]}},{"type":"Feature","properties":{"state":"Karnataka","district":4,"district_n":"GULBARGA","pc":7,"pc_name":"Bidar","ac":46,"ac_name":"Aland","booth":206,"booth_name":"Govt Model Primary School (left Wing)"},"geometry":{"type":"Point","coordinates":[76.58034,17.3932972]}},{"type":"Feature","properties":{"state":"Karnataka","district":4,"district_n":"GULBARGA","pc":7,"pc_name":"Bidar","ac":46,"ac_name":"Aland","booth":207,"booth_name":"Govt Model Primary School (south Wing)"},"geometry":{"type":"Point","coordinates":[76.80903,17.3409023]}},{"type":"Feature","properties":{"state":"Karnataka","district":4,"district_n":"GULBARGA","pc":7,"pc_name":"Bidar","ac":46,"ac_name":"Aland","booth":123,"booth_name":"Grama Panchayat Office (right Wing)"},"geometry":{"type":"Point","coordinates":[76.4952,17.5241]}},{"type":"Feature","properties":{"state":"Karnataka","district":4,"district_n":"GULBARGA","pc":7,"pc_name":"Bidar","ac":46,"ac_name":"Aland","booth":124,"booth_name":"Grama Panchayat Office (right Wing)"},"geometry":{"type":"Point","coordinates":[76.31936,17.27869]}},{"type":"Feature","properties":{"state":"Karnataka","district":4,"district_n":"GULBARGA","pc":7,"pc_name":"Bidar","ac":46,"ac_name":"Aland","booth":126,"booth_name":"Govt Higher Primary School"},"geometry":{"type":"Point","coordinates":[76.24931,17.31858]}},{"type":"Feature","properties":{"state":"Karnataka","district":4,"district_n":"GULBARGA","pc":7,"pc_name":"Bidar","ac":46,"ac_name":"Aland","booth":127,"booth_name":"Govt Higher Primary School (right Wing)"},"geometry":{"type":"Point","coordinates":[76.21224,17.30136]}},{"type":"Feature","properties":{"state":"Karnataka","district":4,"district_n":"GULBARGA","pc":7,"pc_name":"Bidar","ac":46,"ac_name":"Aland","booth":129,"booth_name":"Govt Higher Primary School"},"geometry":{"type":"Point","coordinates":[76.26953,17.31084]}},{"type":"Feature","properties":{"state":"Karnataka","district":4,"district_n":"GULBARGA","pc":7,"pc_name":"Bidar","ac":46,"ac_name":"Aland","booth":132,"booth_name":"Govt Lower Primary School"},"geometry":{"type":"Point","coordinates":[76.5504,17.52961]}},{"type":"Feature","properties":{"state":"Karnataka","district":4,"district_n":"GULBARGA","pc":7,"pc_name":"Bidar","ac":46,"ac_name":"Aland","booth":135,"booth_name":"Govt Higher Primary School"},"geometry":{"type":"Point","coordinates":[76.66484,17.4977474]}},{"type":"Feature","properties":{"state":"Karnataka","district":4,"district_n":"GULBARGA","pc":7,"pc_name":"Bidar","ac":46,"ac_name":"Aland","booth":138,"booth_name":"Govt Higher Primary School (west Wing)"},"geometry":{"type":"Point","coordinates":[76.70352,17.4738865]}},{"type":"Feature","properties":{"state":"Karnataka","district":4,"district_n":"GULBARGA","pc":7,"pc_name":"Bidar","ac":46,"ac_name":"Aland","booth":140,"booth_name":"Govt Higher Primary School"},"geometry":{"type":"Point","coordinates":[76.672966,17.444931]}},{"type":"Feature","properties":{"state":"Karnataka","district":4,"district_n":"GULBARGA","pc":7,"pc_name":"Bidar","ac":46,"ac_name":"Aland","booth":141,"booth_name":"Govt Higher Primary School (east Wing)"},"geometry":{"type":"Point","coordinates":[76.66056,17.4594517]}},{"type":"Feature","properties":{"state":"Karnataka","district":4,"district_n":"GULBARGA","pc":7,"pc_name":"Bidar","ac":46,"ac_name":"Aland","booth":143,"booth_name":"Govt Higher Primary School (central Wing)"},"geometry":{"type":"Point","coordinates":[76.66056,17.4594517]}},{"type":"Feature","properties":{"state":"Karnataka","district":4,"district_n":"GULBARGA","pc":7,"pc_name":"Bidar","ac":46,"ac_name":"Aland","booth":144,"booth_name":"Grama Panchayat Office"},"geometry":{"type":"Point","coordinates":[76.66056,17.4594517]}},{"type":"Feature","properties":{"state":"Karnataka","district":4,"district_n":"GULBARGA","pc":7,"pc_name":"Bidar","ac":46,"ac_name":"Aland","booth":146,"booth_name":"Govt Higher Primary School (south Wing)"},"geometry":{"type":"Point","coordinates":[76.60198,17.49845]}},{"type":"Feature","properties":{"state":"Karnataka","district":4,"district_n":"GULBARGA","pc":7,"pc_name":"Bidar","ac":46,"ac_name":"Aland","booth":147,"booth_name":"Govt Higher Primary School (east Wing)"},"geometry":{"type":"Point","coordinates":[76.58034,17.3932972]}},{"type":"Feature","properties":{"state":"Karnataka","district":4,"district_n":"GULBARGA","pc":7,"pc_name":"Bidar","ac":46,"ac_name":"Aland","booth":149,"booth_name":"Govt Higher Primary School (north Wing)"},"geometry":{"type":"Point","coordinates":[76.26057,17.26979]}},{"type":"Feature","properties":{"state":"Karnataka","district":4,"district_n":"GULBARGA","pc":7,"pc_name":"Bidar","ac":46,"ac_name":"Aland","booth":152,"booth_name":"Govt Higher Primary School (north Wing)"},"geometry":{"type":"Point","coordinates":[76.60198,17.49845]}},{"type":"Feature","properties":{"state":"Karnataka","district":4,"district_n":"GULBARGA","pc":7,"pc_name":"Bidar","ac":46,"ac_name":"Aland","booth":155,"booth_name":"Govt Higher Primary School"},"geometry":{"type":"Point","coordinates":[76.3920746,17.4850979]}},{"type":"Feature","properties":{"state":"Karnataka","district":4,"district_n":"GULBARGA","pc":7,"pc_name":"Bidar","ac":46,"ac_name":"Aland","booth":158,"booth_name":"Govt Higher Primary School"},"geometry":{"type":"Point","coordinates":[76.43731,17.4871426]}},{"type":"Feature","properties":{"state":"Karnataka","district":4,"district_n":"GULBARGA","pc":7,"pc_name":"Bidar","ac":46,"ac_name":"Aland","booth":160,"booth_name":"Govt Higher Primary School (right Wing)"},"geometry":{"type":"Point","coordinates":[76.58034,17.3932972]}},{"type":"Feature","properties":{"state":"Karnataka","district":4,"district_n":"GULBARGA","pc":7,"pc_name":"Bidar","ac":46,"ac_name":"Aland","booth":161,"booth_name":"Govt Higher Primary School (left Wing)"},"geometry":{"type":"Point","coordinates":[76.58034,17.3932972]}},{"type":"Feature","properties":{"state":"Karnataka","district":4,"district_n":"GULBARGA","pc":7,"pc_name":"Bidar","ac":46,"ac_name":"Aland","booth":163,"booth_name":"Govt Higher Primary School (south Wing)"},"geometry":{"type":"Point","coordinates":[76.66056,17.4594517]}},{"type":"Feature","properties":{"state":"Karnataka","district":4,"district_n":"GULBARGA","pc":7,"pc_name":"Bidar","ac":46,"ac_name":"Aland","booth":41,"booth_name":"Govt Higher Primary School"},"geometry":{"type":"Point","coordinates":[76.6659241,17.6473083]}},{"type":"Feature","properties":{"state":"Karnataka","district":4,"district_n":"GULBARGA","pc":7,"pc_name":"Bidar","ac":46,"ac_name":"Aland","booth":43,"booth_name":"Govt Lower Primary School"},"geometry":{"type":"Point","coordinates":[76.83124,17.3515263]}},{"type":"Feature","properties":{"state":"Karnataka","district":4,"district_n":"GULBARGA","pc":7,"pc_name":"Bidar","ac":46,"ac_name":"Aland","booth":80,"booth_name":"Govt Junior College Aland (principals Room) Aland Gulbarga Road"},"geometry":{"type":"Point","coordinates":[76.56282,17.5615921]}},{"type":"Feature","properties":{"state":"Karnataka","district":4,"district_n":"GULBARGA","pc":7,"pc_name":"Bidar","ac":46,"ac_name":"Aland","booth":81,"booth_name":"Govt Junior College Aland (left Wing) Wing) Gulbarga Road"},"geometry":{"type":"Point","coordinates":[76.56296,17.5614]}},{"type":"Feature","properties":{"state":"Karnataka","district":4,"district_n":"GULBARGA","pc":7,"pc_name":"Bidar","ac":46,"ac_name":"Aland","booth":101,"booth_name":"Govt Higher Primary School"},"geometry":{"type":"Point","coordinates":[76.6990662,17.5750751]}},{"type":"Feature","properties":{"state":"Karnataka","district":4,"district_n":"GULBARGA","pc":7,"pc_name":"Bidar","ac":46,"ac_name":"Aland","booth":118,"booth_name":"Govt Higher Primary School"},"geometry":{"type":"Point","coordinates":[76.64834,17.52457]}},{"type":"Feature","properties":{"state":"Karnataka","district":4,"district_n":"GULBARGA","pc":7,"pc_name":"Bidar","ac":46,"ac_name":"Aland","booth":64,"booth_name":"Govt Higher Primary School"},"geometry":{"type":"Point","coordinates":[76.58697,17.5260372]}},{"type":"Feature","properties":{"state":"Karnataka","district":4,"district_n":"GULBARGA","pc":7,"pc_name":"Bidar","ac":46,"ac_name":"Aland","booth":69,"booth_name":"Govt Pre University College (girls) (right Wing)"},"geometry":{"type":"Point","coordinates":[76.5689545,17.5674839]}},{"type":"Feature","properties":{"state":"Karnataka","district":4,"district_n":"GULBARGA","pc":7,"pc_name":"Bidar","ac":46,"ac_name":"Aland","booth":72,"booth_name":"Govt Higher Primary School Hatyanagalli (right Wing)"},"geometry":{"type":"Point","coordinates":[76.57097,17.5609169]}},{"type":"Feature","properties":{"state":"Karnataka","district":4,"district_n":"GULBARGA","pc":7,"pc_name":"Bidar","ac":46,"ac_name":"Aland","booth":75,"booth_name":"Govt Higher Primary School (right Wing) Sharana Nagar"},"geometry":{"type":"Point","coordinates":[76.5685349,17.5582352]}},{"type":"Feature","properties":{"state":"Karnataka","district":4,"district_n":"GULBARGA","pc":7,"pc_name":"Bidar","ac":46,"ac_name":"Aland","booth":77,"booth_name":"Om Sai D Ed Ed College (marathi) (left Wing) Sharana Nagar"},"geometry":{"type":"Point","coordinates":[76.5682144,17.5576477]}},{"type":"Feature","properties":{"state":"Karnataka","district":4,"district_n":"GULBARGA","pc":7,"pc_name":"Bidar","ac":46,"ac_name":"Aland","booth":78,"booth_name":"Govt Higher Primary School, Ansari Mohalla"},"geometry":{"type":"Point","coordinates":[76.5663,17.5602226]}},{"type":"Feature","properties":{"state":"Karnataka","district":4,"district_n":"GULBARGA","pc":7,"pc_name":"Bidar","ac":46,"ac_name":"Aland","booth":83,"booth_name":"Digambar Jain Higher Primary School (right Wing)"},"geometry":{"type":"Point","coordinates":[76.56875,17.5633678]}},{"type":"Feature","properties":{"state":"Karnataka","district":4,"district_n":"GULBARGA","pc":7,"pc_name":"Bidar","ac":46,"ac_name":"Aland","booth":84,"booth_name":"Digambar Jain Higher Primary School (left Wing)"},"geometry":{"type":"Point","coordinates":[76.56837,17.563345]}},{"type":"Feature","properties":{"state":"Karnataka","district":4,"district_n":"GULBARGA","pc":7,"pc_name":"Bidar","ac":46,"ac_name":"Aland","booth":86,"booth_name":"Shri Shri Shri Siddalingeshwar Shivacharya Hiremath Hiremath Higher Primary School"},"geometry":{"type":"Point","coordinates":[76.5678253,17.5647]}},{"type":"Feature","properties":{"state":"Karnataka","district":4,"district_n":"GULBARGA","pc":7,"pc_name":"Bidar","ac":46,"ac_name":"Aland","booth":89,"booth_name":"Taluk Panchayath Office"},"geometry":{"type":"Point","coordinates":[76.5665741,17.5705]}},{"type":"Feature","properties":{"state":"Karnataka","district":4,"district_n":"GULBARGA","pc":7,"pc_name":"Bidar","ac":46,"ac_name":"Aland","booth":92,"booth_name":"Govt Of Karnataka Empolyees Office, Near Guru Bhavan Building"},"geometry":{"type":"Point","coordinates":[76.56687,17.5698643]}},{"type":"Feature","properties":{"state":"Karnataka","district":4,"district_n":"GULBARGA","pc":7,"pc_name":"Bidar","ac":46,"ac_name":"Aland","booth":95,"booth_name":"Govt Lower Primary School"},"geometry":{"type":"Point","coordinates":[76.57431,17.5017166]}},{"type":"Feature","properties":{"state":"Karnataka","district":4,"district_n":"GULBARGA","pc":7,"pc_name":"Bidar","ac":46,"ac_name":"Aland","booth":97,"booth_name":"Govt Higher Primary School (right Wing)"},"geometry":{"type":"Point","coordinates":[76.83124,17.3515263]}},{"type":"Feature","properties":{"state":"Karnataka","district":4,"district_n":"GULBARGA","pc":7,"pc_name":"Bidar","ac":46,"ac_name":"Aland","booth":98,"booth_name":"Govt Higher Primary School (left Wing)"},"geometry":{"type":"Point","coordinates":[76.66047,17.57003]}},{"type":"Feature","properties":{"state":"Karnataka","district":4,"district_n":"GULBARGA","pc":7,"pc_name":"Bidar","ac":46,"ac_name":"Aland","booth":100,"booth_name":"Govt Higher Primary School"},"geometry":{"type":"Point","coordinates":[76.67489,17.58009]}},{"type":"Feature","properties":{"state":"Karnataka","district":4,"district_n":"GULBARGA","pc":7,"pc_name":"Bidar","ac":46,"ac_name":"Aland","booth":209,"booth_name":"Gram Panchayati Office Building"},"geometry":{"type":"Point","coordinates":[76.80903,17.3409023]}},{"type":"Feature","properties":{"state":"Karnataka","district":4,"district_n":"GULBARGA","pc":7,"pc_name":"Bidar","ac":46,"ac_name":"Aland","booth":210,"booth_name":"Govt Govt High School"},"geometry":{"type":"Point","coordinates":[76.80903,17.3409023]}},{"type":"Feature","properties":{"state":"Karnataka","district":4,"district_n":"GULBARGA","pc":7,"pc_name":"Bidar","ac":46,"ac_name":"Aland","booth":215,"booth_name":"Govt Model Primary School (left Wing)"},"geometry":{"type":"Point","coordinates":[76.58034,17.3932972]}},{"type":"Feature","properties":{"state":"Karnataka","district":4,"district_n":"GULBARGA","pc":7,"pc_name":"Bidar","ac":46,"ac_name":"Aland","booth":171,"booth_name":"Govt Higher Primary School (right Wing)"},"geometry":{"type":"Point","coordinates":[76.58034,17.3932972]}},{"type":"Feature","properties":{"state":"Karnataka","district":4,"district_n":"GULBARGA","pc":7,"pc_name":"Bidar","ac":46,"ac_name":"Aland","booth":174,"booth_name":"Govt Higher Primary School (right Wing)"},"geometry":{"type":"Point","coordinates":[76.29339,17.23545]}},{"type":"Feature","properties":{"state":"Karnataka","district":4,"district_n":"GULBARGA","pc":7,"pc_name":"Bidar","ac":46,"ac_name":"Aland","booth":177,"booth_name":"Govt Higher Primary School"},"geometry":{"type":"Point","coordinates":[76.4111,17.4458828]}},{"type":"Feature","properties":{"state":"Karnataka","district":4,"district_n":"GULBARGA","pc":7,"pc_name":"Bidar","ac":46,"ac_name":"Aland","booth":185,"booth_name":"Govt Model Primary School (central Wing)"},"geometry":{"type":"Point","coordinates":[76.80903,17.3409023]}},{"type":"Feature","properties":{"state":"Karnataka","district":4,"district_n":"GULBARGA","pc":7,"pc_name":"Bidar","ac":46,"ac_name":"Aland","booth":208,"booth_name":"Govt Model Primary School (north Wing)"},"geometry":{"type":"Point","coordinates":[76.80903,17.3409023]}},{"type":"Feature","properties":{"state":"Karnataka","district":4,"district_n":"GULBARGA","pc":7,"pc_name":"Bidar","ac":46,"ac_name":"Aland","booth":214,"booth_name":"Govt Model Primary School (right Wing)"},"geometry":{"type":"Point","coordinates":[76.58034,17.3932972]}},{"type":"Feature","properties":{"state":"Karnataka","district":4,"district_n":"GULBARGA","pc":7,"pc_name":"Bidar","ac":46,"ac_name":"Aland","booth":170,"booth_name":"Govt Govt Model Primary School(left Wing)"},"geometry":{"type":"Point","coordinates":[76.66056,17.4594517]}},{"type":"Feature","properties":{"state":"Karnataka","district":4,"district_n":"GULBARGA","pc":7,"pc_name":"Bidar","ac":46,"ac_name":"Aland","booth":173,"booth_name":"Govt Higher Primary School"},"geometry":{"type":"Point","coordinates":[76.59284,17.5170345]}},{"type":"Feature","properties":{"state":"Karnataka","district":4,"district_n":"GULBARGA","pc":7,"pc_name":"Bidar","ac":46,"ac_name":"Aland","booth":176,"booth_name":"Govt Higher Primary School"},"geometry":{"type":"Point","coordinates":[76.29339,17.23545]}},{"type":"Feature","properties":{"state":"Karnataka","district":4,"district_n":"GULBARGA","pc":7,"pc_name":"Bidar","ac":46,"ac_name":"Aland","booth":179,"booth_name":"Govt Higher Primary School (east Wing)179"},"geometry":{"type":"Point","coordinates":[76.3731,17.463026]}},{"type":"Feature","properties":{"state":"Karnataka","district":4,"district_n":"GULBARGA","pc":7,"pc_name":"Bidar","ac":46,"ac_name":"Aland","booth":182,"booth_name":"Community Hall"},"geometry":{"type":"Point","coordinates":[76.22402,17.27227]}},{"type":"Feature","properties":{"state":"Karnataka","district":4,"district_n":"GULBARGA","pc":7,"pc_name":"Bidar","ac":46,"ac_name":"Aland","booth":205,"booth_name":"Govt Model Primary School (right Wing)"},"geometry":{"type":"Point","coordinates":[76.58034,17.3932972]}},{"type":"Feature","properties":{"state":"Karnataka","district":4,"district_n":"GULBARGA","pc":7,"pc_name":"Bidar","ac":46,"ac_name":"Aland","booth":216,"booth_name":"Govt Model Primary School"},"geometry":{"type":"Point","coordinates":[76.58034,17.3932972]}},{"type":"Feature","properties":{"state":"Karnataka","district":4,"district_n":"GULBARGA","pc":7,"pc_name":"Bidar","ac":46,"ac_name":"Aland","booth":164,"booth_name":"Govt Lower Primary School"},"geometry":{"type":"Point","coordinates":[76.672966,17.444931]}},{"type":"Feature","properties":{"state":"Karnataka","district":4,"district_n":"GULBARGA","pc":7,"pc_name":"Bidar","ac":46,"ac_name":"Aland","booth":166,"booth_name":"Govt Lower Primary School"},"geometry":{"type":"Point","coordinates":[76.66056,17.4594517]}},{"type":"Feature","properties":{"state":"Karnataka","district":4,"district_n":"GULBARGA","pc":7,"pc_name":"Bidar","ac":46,"ac_name":"Aland","booth":167,"booth_name":"Grama Panchayati Office"},"geometry":{"type":"Point","coordinates":[76.672966,17.444931]}},{"type":"Feature","properties":{"state":"Karnataka","district":4,"district_n":"GULBARGA","pc":7,"pc_name":"Bidar","ac":46,"ac_name":"Aland","booth":169,"booth_name":"Govt Govt Model Primary School(right Wing)"},"geometry":{"type":"Point","coordinates":[76.66056,17.4594517]}},{"type":"Feature","properties":{"state":"Karnataka","district":4,"district_n":"GULBARGA","pc":7,"pc_name":"Bidar","ac":46,"ac_name":"Aland","booth":125,"booth_name":"Grama Panchyat Office (left Wing)"},"geometry":{"type":"Point","coordinates":[76.25372,17.32185]}},{"type":"Feature","properties":{"state":"Karnataka","district":4,"district_n":"GULBARGA","pc":7,"pc_name":"Bidar","ac":46,"ac_name":"Aland","booth":128,"booth_name":"Govt Higher Primary School (left Wing)"},"geometry":{"type":"Point","coordinates":[76.2122,17.30133]}},{"type":"Feature","properties":{"state":"Karnataka","district":4,"district_n":"GULBARGA","pc":7,"pc_name":"Bidar","ac":46,"ac_name":"Aland","booth":131,"booth_name":"Govt Higher Primary School"},"geometry":{"type":"Point","coordinates":[76.55044,17.5296268]}},{"type":"Feature","properties":{"state":"Karnataka","district":4,"district_n":"GULBARGA","pc":7,"pc_name":"Bidar","ac":46,"ac_name":"Aland","booth":134,"booth_name":"Govt Higher Primary School"},"geometry":{"type":"Point","coordinates":[76.64678,17.4986839]}},{"type":"Feature","properties":{"state":"Karnataka","district":4,"district_n":"GULBARGA","pc":7,"pc_name":"Bidar","ac":46,"ac_name":"Aland","booth":137,"booth_name":"Govt Higher Primary School (east Wing)"},"geometry":{"type":"Point","coordinates":[76.70352,17.4738865]}},{"type":"Feature","properties":{"state":"Karnataka","district":4,"district_n":"GULBARGA","pc":7,"pc_name":"Bidar","ac":46,"ac_name":"Aland","booth":145,"booth_name":"Govt Higher Primary School (north Wing)"},"geometry":{"type":"Point","coordinates":[76.60198,17.49845]}},{"type":"Feature","properties":{"state":"Karnataka","district":4,"district_n":"GULBARGA","pc":7,"pc_name":"Bidar","ac":46,"ac_name":"Aland","booth":148,"booth_name":"Govt Higher Primary School (west Wing)"},"geometry":{"type":"Point","coordinates":[76.58034,17.3932972]}},{"type":"Feature","properties":{"state":"Karnataka","district":4,"district_n":"GULBARGA","pc":7,"pc_name":"Bidar","ac":46,"ac_name":"Aland","booth":109,"booth_name":"Govt Higher Primary School"},"geometry":{"type":"Point","coordinates":[76.2282,17.31864]}},{"type":"Feature","properties":{"state":"Karnataka","district":4,"district_n":"GULBARGA","pc":7,"pc_name":"Bidar","ac":46,"ac_name":"Aland","booth":115,"booth_name":"Govt Higher Primary School (right Wing)"},"geometry":{"type":"Point","coordinates":[76.63559,17.5766773]}},{"type":"Feature","properties":{"state":"Karnataka","district":4,"district_n":"GULBARGA","pc":7,"pc_name":"Bidar","ac":46,"ac_name":"Aland","booth":120,"booth_name":"Govt Higher Primary School (left Wing)"},"geometry":{"type":"Point","coordinates":[76.60633,17.5288]}},{"type":"Feature","properties":{"state":"Karnataka","district":4,"district_n":"GULBARGA","pc":7,"pc_name":"Bidar","ac":46,"ac_name":"Aland","booth":121,"booth_name":"Govt Lower Primary School"},"geometry":{"type":"Point","coordinates":[76.5942459,17.5359936]}},{"type":"Feature","properties":{"state":"Karnataka","district":4,"district_n":"GULBARGA","pc":7,"pc_name":"Bidar","ac":46,"ac_name":"Aland","booth":8,"booth_name":"Govt Higher Primary School (north Wing)"},"geometry":{"type":"Point","coordinates":[76.604126,17.7115879]}},{"type":"Feature","properties":{"state":"Karnataka","district":4,"district_n":"GULBARGA","pc":7,"pc_name":"Bidar","ac":46,"ac_name":"Aland","booth":117,"booth_name":"Govt Higher Primary School"},"geometry":{"type":"Point","coordinates":[76.6723557,17.53112]}},{"type":"Feature","properties":{"state":"Karnataka","district":4,"district_n":"GULBARGA","pc":7,"pc_name":"Bidar","ac":46,"ac_name":"Aland","booth":117,"booth_name":"Govt Higher Primary School"},"geometry":{"type":"Point","coordinates":[76.6723557,17.53112]}},{"type":"Feature","properties":{"state":"Karnataka","district":4,"district_n":"GULBARGA","pc":7,"pc_name":"Bidar","ac":46,"ac_name":"Aland","booth":28,"booth_name":"Govt Higher Primary School (south Wing)"},"geometry":{"type":"Point","coordinates":[76.59536,17.6585541]}},{"type":"Feature","properties":{"state":"Karnataka","district":4,"district_n":"GULBARGA","pc":7,"pc_name":"Bidar","ac":46,"ac_name":"Aland","booth":2,"booth_name":"Govt Higher Primary School"},"geometry":{"type":"Point","coordinates":[76.62254,17.7584324]}},{"type":"Feature","properties":{"state":"Karnataka","district":4,"district_n":"GULBARGA","pc":7,"pc_name":"Bidar","ac":46,"ac_name":"Aland","booth":45,"booth_name":"Govt Lower Primary School"},"geometry":{"type":"Point","coordinates":[76.83124,17.3515263]}},{"type":"Feature","properties":{"state":"Karnataka","district":4,"district_n":"GULBARGA","pc":7,"pc_name":"Bidar","ac":46,"ac_name":"Aland","booth":48,"booth_name":"Govt Higher Primary School (left Wing)"},"geometry":{"type":"Point","coordinates":[76.65603,17.6115284]}},{"type":"Feature","properties":{"state":"Karnataka","district":4,"district_n":"GULBARGA","pc":7,"pc_name":"Bidar","ac":46,"ac_name":"Aland","booth":51,"booth_name":"Govt Higher Primary School"},"geometry":{"type":"Point","coordinates":[76.56681,17.5675926]}},{"type":"Feature","properties":{"state":"Karnataka","district":4,"district_n":"GULBARGA","pc":7,"pc_name":"Bidar","ac":46,"ac_name":"Aland","booth":54,"booth_name":"Govt Higher Primary School (south Wing)"},"geometry":{"type":"Point","coordinates":[76.45649,17.5969582]}},{"type":"Feature","properties":{"state":"Karnataka","district":4,"district_n":"GULBARGA","pc":7,"pc_name":"Bidar","ac":46,"ac_name":"Aland","booth":47,"booth_name":"Panchayat Office Building (left Wing)"},"geometry":{"type":"Point","coordinates":[76.6506348,17.6112442]}},{"type":"Feature","properties":{"state":"Karnataka","district":4,"district_n":"GULBARGA","pc":7,"pc_name":"Bidar","ac":46,"ac_name":"Aland","booth":50,"booth_name":"Govt Higher Primary School"},"geometry":{"type":"Point","coordinates":[76.83124,17.3515263]}},{"type":"Feature","properties":{"state":"Karnataka","district":4,"district_n":"GULBARGA","pc":7,"pc_name":"Bidar","ac":46,"ac_name":"Aland","booth":53,"booth_name":"Govt Higher Primary School (north Wing)"},"geometry":{"type":"Point","coordinates":[76.45663,17.5986767]}},{"type":"Feature","properties":{"state":"Karnataka","district":4,"district_n":"GULBARGA","pc":7,"pc_name":"Bidar","ac":46,"ac_name":"Aland","booth":189,"booth_name":"Govt Higher Primary School (south Wing)"},"geometry":{"type":"Point","coordinates":[76.48533,17.3896942]}},{"type":"Feature","properties":{"state":"Karnataka","district":4,"district_n":"GULBARGA","pc":7,"pc_name":"Bidar","ac":46,"ac_name":"Aland","booth":192,"booth_name":"Govt Govt Model Primary School(west Wing)"},"geometry":{"type":"Point","coordinates":[76.48533,17.3896942]}},{"type":"Feature","properties":{"state":"Karnataka","district":4,"district_n":"GULBARGA","pc":7,"pc_name":"Bidar","ac":46,"ac_name":"Aland","booth":195,"booth_name":"Govt Higher Primary School (left Wing)"},"geometry":{"type":"Point","coordinates":[76.58034,17.3932972]}},{"type":"Feature","properties":{"state":"Karnataka","district":4,"district_n":"GULBARGA","pc":7,"pc_name":"Bidar","ac":46,"ac_name":"Aland","booth":198,"booth_name":"Govt Higher Primary School"},"geometry":{"type":"Point","coordinates":[76.6338654,17.357069]}},{"type":"Feature","properties":{"state":"Karnataka","district":4,"district_n":"GULBARGA","pc":7,"pc_name":"Bidar","ac":46,"ac_name":"Aland","booth":201,"booth_name":"Govt Higher Primary School (left Wing)"},"geometry":{"type":"Point","coordinates":[76.58034,17.3932972]}},{"type":"Feature","properties":{"state":"Karnataka","district":4,"district_n":"GULBARGA","pc":7,"pc_name":"Bidar","ac":46,"ac_name":"Aland","booth":203,"booth_name":"Sahayak Karya Nirvahak Abhiyantar Kacheri (niravari)"},"geometry":{"type":"Point","coordinates":[76.58034,17.3932972]}},{"type":"Feature","properties":{"state":"Karnataka","district":4,"district_n":"GULBARGA","pc":7,"pc_name":"Bidar","ac":46,"ac_name":"Aland","booth":204,"booth_name":"Govt Lower Primary School"},"geometry":{"type":"Point","coordinates":[76.58034,17.3932972]}},{"type":"Feature","properties":{"state":"Karnataka","district":4,"district_n":"GULBARGA","pc":7,"pc_name":"Bidar","ac":46,"ac_name":"Aland","booth":191,"booth_name":"Grama Panchayati Office"},"geometry":{"type":"Point","coordinates":[76.34063,17.34177]}},{"type":"Feature","properties":{"state":"Karnataka","district":4,"district_n":"GULBARGA","pc":7,"pc_name":"Bidar","ac":46,"ac_name":"Aland","booth":194,"booth_name":"Govt Higher Primary School (right Wing)"},"geometry":{"type":"Point","coordinates":[76.5708542,17.4675922]}},{"type":"Feature","properties":{"state":"Karnataka","district":4,"district_n":"GULBARGA","pc":7,"pc_name":"Bidar","ac":46,"ac_name":"Aland","booth":197,"booth_name":"Govt Higher Primary School"},"geometry":{"type":"Point","coordinates":[76.6637955,17.40767]}},{"type":"Feature","properties":{"state":"Karnataka","district":4,"district_n":"GULBARGA","pc":7,"pc_name":"Bidar","ac":46,"ac_name":"Aland","booth":19,"booth_name":"Govt Higher Primary School (new Building)"},"geometry":{"type":"Point","coordinates":[76.49967,17.6891651]}},{"type":"Feature","properties":{"state":"Karnataka","district":4,"district_n":"GULBARGA","pc":7,"pc_name":"Bidar","ac":46,"ac_name":"Aland","booth":42,"booth_name":"Govt Higher Primary School"},"geometry":{"type":"Point","coordinates":[76.70246,17.4645329]}},{"type":"Feature","properties":{"state":"Karnataka","district":4,"district_n":"GULBARGA","pc":7,"pc_name":"Bidar","ac":46,"ac_name":"Aland","booth":5,"booth_name":"Govt Higher Primary School (right Wing)"},"geometry":{"type":"Point","coordinates":[76.54522,17.73276]}},{"type":"Feature","properties":{"state":"Karnataka","district":4,"district_n":"GULBARGA","pc":7,"pc_name":"Bidar","ac":46,"ac_name":"Aland","booth":11,"booth_name":"Govt Higher Primary School"},"geometry":{"type":"Point","coordinates":[76.65941,17.6994057]}},{"type":"Feature","properties":{"state":"Karnataka","district":4,"district_n":"GULBARGA","pc":7,"pc_name":"Bidar","ac":46,"ac_name":"Aland","booth":22,"booth_name":"Govt Higher Primary School (north Wing)"},"geometry":{"type":"Point","coordinates":[76.62004,17.6780186]}},{"type":"Feature","properties":{"state":"Karnataka","district":4,"district_n":"GULBARGA","pc":7,"pc_name":"Bidar","ac":46,"ac_name":"Aland","booth":25,"booth_name":"Govt Higher Primary School"},"geometry":{"type":"Point","coordinates":[76.68484,17.66656]}},{"type":"Feature","properties":{"state":"Karnataka","district":4,"district_n":"GULBARGA","pc":7,"pc_name":"Bidar","ac":46,"ac_name":"Aland","booth":65,"booth_name":"Anganawadi Kendra"},"geometry":{"type":"Point","coordinates":[76.58697,17.5260372]}},{"type":"Feature","properties":{"state":"Karnataka","district":4,"district_n":"GULBARGA","pc":7,"pc_name":"Bidar","ac":46,"ac_name":"Aland","booth":68,"booth_name":"Govt Govt Pre University College (girls) (left Wing)"},"geometry":{"type":"Point","coordinates":[76.56897,17.567585]}},{"type":"Feature","properties":{"state":"Karnataka","district":4,"district_n":"GULBARGA","pc":7,"pc_name":"Bidar","ac":46,"ac_name":"Aland","booth":151,"booth_name":"Govt Lower Primary School"},"geometry":{"type":"Point","coordinates":[76.58034,17.3932972]}},{"type":"Feature","properties":{"state":"Karnataka","district":4,"district_n":"GULBARGA","pc":7,"pc_name":"Bidar","ac":46,"ac_name":"Aland","booth":154,"booth_name":"Govt Higher Primary School"},"geometry":{"type":"Point","coordinates":[76.26683,17.30316]}},{"type":"Feature","properties":{"state":"Karnataka","district":4,"district_n":"GULBARGA","pc":7,"pc_name":"Bidar","ac":46,"ac_name":"Aland","booth":157,"booth_name":"Govt Higher Primary School (left Wing)"},"geometry":{"type":"Point","coordinates":[76.4053955,17.4792938]}},{"type":"Feature","properties":{"state":"Karnataka","district":4,"district_n":"GULBARGA","pc":7,"pc_name":"Bidar","ac":46,"ac_name":"Aland","booth":165,"booth_name":"Govt Higher Primary School"},"geometry":{"type":"Point","coordinates":[76.672966,17.444931]}},{"type":"Feature","properties":{"state":"Karnataka","district":4,"district_n":"GULBARGA","pc":7,"pc_name":"Bidar","ac":46,"ac_name":"Aland","booth":168,"booth_name":"Govt Primary School School (girls)"},"geometry":{"type":"Point","coordinates":[76.672966,17.444931]}},{"type":"Feature","properties":{"state":"Karnataka","district":4,"district_n":"GULBARGA","pc":7,"pc_name":"Bidar","ac":46,"ac_name":"Aland","booth":122,"booth_name":"Govt Higher Primary School"},"geometry":{"type":"Point","coordinates":[76.31936,17.27869]}},{"type":"Feature","properties":{"state":"Karnataka","district":4,"district_n":"GULBARGA","pc":7,"pc_name":"Bidar","ac":46,"ac_name":"Aland","booth":130,"booth_name":"Govt Higher Primary School"},"geometry":{"type":"Point","coordinates":[76.5189,17.5129375]}},{"type":"Feature","properties":{"state":"Karnataka","district":4,"district_n":"GULBARGA","pc":7,"pc_name":"Bidar","ac":46,"ac_name":"Aland","booth":133,"booth_name":"Govt Lower Primary School"},"geometry":{"type":"Point","coordinates":[76.539856,17.4978065]}},{"type":"Feature","properties":{"state":"Karnataka","district":4,"district_n":"GULBARGA","pc":7,"pc_name":"Bidar","ac":46,"ac_name":"Aland","booth":136,"booth_name":"Govt Lower Primary School"},"geometry":{"type":"Point","coordinates":[76.65091,17.5098019]}},{"type":"Feature","properties":{"state":"Karnataka","district":4,"district_n":"GULBARGA","pc":7,"pc_name":"Bidar","ac":46,"ac_name":"Aland","booth":139,"booth_name":"Govt Higher Primary School (north Wing)"},"geometry":{"type":"Point","coordinates":[76.70352,17.4738865]}},{"type":"Feature","properties":{"state":"Karnataka","district":4,"district_n":"GULBARGA","pc":7,"pc_name":"Bidar","ac":46,"ac_name":"Aland","booth":150,"booth_name":"V S S N N Office"},"geometry":{"type":"Point","coordinates":[76.58034,17.3932972]}},{"type":"Feature","properties":{"state":"Karnataka","district":4,"district_n":"GULBARGA","pc":7,"pc_name":"Bidar","ac":46,"ac_name":"Aland","booth":153,"booth_name":"Govt Higher Primary School (south Wing)"},"geometry":{"type":"Point","coordinates":[76.60198,17.49845]}},{"type":"Feature","properties":{"state":"Karnataka","district":4,"district_n":"GULBARGA","pc":7,"pc_name":"Bidar","ac":46,"ac_name":"Aland","booth":156,"booth_name":"Govt Higher Primary School (right Wing)"},"geometry":{"type":"Point","coordinates":[76.40547,17.4794941]}},{"type":"Feature","properties":{"state":"Karnataka","district":4,"district_n":"GULBARGA","pc":7,"pc_name":"Bidar","ac":46,"ac_name":"Aland","booth":159,"booth_name":"Govt Lower Primary School"},"geometry":{"type":"Point","coordinates":[76.26781,17.29503]}},{"type":"Feature","properties":{"state":"Karnataka","district":4,"district_n":"GULBARGA","pc":7,"pc_name":"Bidar","ac":46,"ac_name":"Aland","booth":162,"booth_name":"Govt Higher Primary School (north Wing)"},"geometry":{"type":"Point","coordinates":[76.66056,17.4594517]}},{"type":"Feature","properties":{"state":"Karnataka","district":4,"district_n":"GULBARGA","pc":7,"pc_name":"Bidar","ac":46,"ac_name":"Aland","booth":103,"booth_name":"Govt Higher Primary School"},"geometry":{"type":"Point","coordinates":[76.58697,17.5260372]}},{"type":"Feature","properties":{"state":"Karnataka","district":4,"district_n":"GULBARGA","pc":7,"pc_name":"Bidar","ac":46,"ac_name":"Aland","booth":104,"booth_name":"Govt Lower Primary School"},"geometry":{"type":"Point","coordinates":[76.5407,17.5578728]}},{"type":"Feature","properties":{"state":"Karnataka","district":4,"district_n":"GULBARGA","pc":7,"pc_name":"Bidar","ac":46,"ac_name":"Aland","booth":106,"booth_name":"Govt Higher Primary School"},"geometry":{"type":"Point","coordinates":[76.56687,17.56986]}},{"type":"Feature","properties":{"state":"Karnataka","district":4,"district_n":"GULBARGA","pc":7,"pc_name":"Bidar","ac":46,"ac_name":"Aland","booth":112,"booth_name":"Govt Higher Primary School (right Wing)"},"geometry":{"type":"Point","coordinates":[76.34061,17.34091]}},{"type":"Feature","properties":{"state":"Karnataka","district":4,"district_n":"GULBARGA","pc":7,"pc_name":"Bidar","ac":46,"ac_name":"Aland","booth":111,"booth_name":"Govt Higher Primary School (right Wing)"},"geometry":{"type":"Point","coordinates":[76.24782,17.32548]}},{"type":"Feature","properties":{"state":"Karnataka","district":4,"district_n":"GULBARGA","pc":7,"pc_name":"Bidar","ac":46,"ac_name":"Aland","booth":114,"booth_name":"Govt Govt Higher Primary School"},"geometry":{"type":"Point","coordinates":[76.56129,17.5413132]}},{"type":"Feature","properties":{"state":"Karnataka","district":4,"district_n":"GULBARGA","pc":7,"pc_name":"Bidar","ac":46,"ac_name":"Aland","booth":102,"booth_name":"Govt Higher Primary School"},"geometry":{"type":"Point","coordinates":[76.56861,17.5643635]}},{"type":"Feature","properties":{"state":"Karnataka","district":4,"district_n":"GULBARGA","pc":7,"pc_name":"Bidar","ac":46,"ac_name":"Aland","booth":113,"booth_name":"Govt Higher Primary School"},"geometry":{"type":"Point","coordinates":[76.48534,17.534729]}},{"type":"Feature","properties":{"state":"Karnataka","district":4,"district_n":"GULBARGA","pc":7,"pc_name":"Bidar","ac":46,"ac_name":"Aland","booth":71,"booth_name":"Digambar Jain Higher Primary School (center Wing)"},"geometry":{"type":"Point","coordinates":[76.5667953,17.5675716]}},{"type":"Feature","properties":{"state":"Karnataka","district":4,"district_n":"GULBARGA","pc":7,"pc_name":"Bidar","ac":46,"ac_name":"Aland","booth":74,"booth_name":"Govt Higher Primary School Sharana Nagar"},"geometry":{"type":"Point","coordinates":[76.56856,17.55826]}},{"type":"Feature","properties":{"state":"Karnataka","district":4,"district_n":"GULBARGA","pc":7,"pc_name":"Bidar","ac":46,"ac_name":"Aland","booth":85,"booth_name":"Krushi Asst Asst Director Office New Building ( Left Wing)"},"geometry":{"type":"Point","coordinates":[76.56369,17.5609379]}},{"type":"Feature","properties":{"state":"Karnataka","district":4,"district_n":"GULBARGA","pc":7,"pc_name":"Bidar","ac":46,"ac_name":"Aland","booth":91,"booth_name":"Govt Model Higher Primary School (left Wing)"},"geometry":{"type":"Point","coordinates":[76.5665054,17.5689087]}},{"type":"Feature","properties":{"state":"Karnataka","district":4,"district_n":"GULBARGA","pc":7,"pc_name":"Bidar","ac":46,"ac_name":"Aland","booth":94,"booth_name":"Govt Lower Primary School"},"geometry":{"type":"Point","coordinates":[76.5942459,17.5359936]}},{"type":"Feature","properties":{"state":"Karnataka","district":4,"district_n":"GULBARGA","pc":7,"pc_name":"Bidar","ac":46,"ac_name":"Aland","booth":82,"booth_name":"Govt Higher Primary School Balyanakeri"},"geometry":{"type":"Point","coordinates":[76.56591,17.56147]}},{"type":"Feature","properties":{"state":"Karnataka","district":4,"district_n":"GULBARGA","pc":7,"pc_name":"Bidar","ac":46,"ac_name":"Aland","booth":88,"booth_name":"P W D D Office"},"geometry":{"type":"Point","coordinates":[76.56616,17.5704575]}},{"type":"Feature","properties":{"state":"Karnataka","district":4,"district_n":"GULBARGA","pc":7,"pc_name":"Bidar","ac":46,"ac_name":"Aland","booth":7,"booth_name":"?????? ????? ???????? ????(????? ???)"},"geometry":{"type":"Point","coordinates":[76.60552,17.71193]}},{"type":"Feature","properties":{"state":"Karnataka","district":4,"district_n":"GULBARGA","pc":7,"pc_name":"Bidar","ac":46,"ac_name":"Aland","booth":10,"booth_name":"Govt Higher Primary School Building Building (north Wing)"},"geometry":{"type":"Point","coordinates":[76.5667953,17.5675716]}},{"type":"Feature","properties":{"state":"Karnataka","district":4,"district_n":"GULBARGA","pc":7,"pc_name":"Bidar","ac":46,"ac_name":"Aland","booth":116,"booth_name":"Govt Higher Primary School (left Wing)"},"geometry":{"type":"Point","coordinates":[76.63556,17.5766411]}},{"type":"Feature","properties":{"state":"Karnataka","district":4,"district_n":"GULBARGA","pc":7,"pc_name":"Bidar","ac":46,"ac_name":"Aland","booth":13,"booth_name":"Govt Higher Primary School Building Building (north Wing)"},"geometry":{"type":"Point","coordinates":[76.570015,17.6872959]}},{"type":"Feature","properties":{"state":"Karnataka","district":4,"district_n":"GULBARGA","pc":7,"pc_name":"Bidar","ac":46,"ac_name":"Aland","booth":16,"booth_name":"Govt Higher Primary School School (right Wing)"},"geometry":{"type":"Point","coordinates":[76.52058,17.6979084]}},{"type":"Feature","properties":{"state":"Karnataka","district":4,"district_n":"GULBARGA","pc":7,"pc_name":"Bidar","ac":46,"ac_name":"Aland","booth":73,"booth_name":"Govt Higher Primary School Hatyanagalli (left Wing)"},"geometry":{"type":"Point","coordinates":[76.57098,17.5609646]}},{"type":"Feature","properties":{"state":"Karnataka","district":4,"district_n":"GULBARGA","pc":7,"pc_name":"Bidar","ac":46,"ac_name":"Aland","booth":110,"booth_name":"Govt Higher Primary School"},"geometry":{"type":"Point","coordinates":[76.24782,17.32548]}},{"type":"Feature","properties":{"state":"Karnataka","district":4,"district_n":"GULBARGA","pc":7,"pc_name":"Bidar","ac":46,"ac_name":"Aland","booth":119,"booth_name":"Govt Higher Primary School (right Wing)"},"geometry":{"type":"Point","coordinates":[76.60634,17.52875]}},{"type":"Feature","properties":{"state":"Karnataka","district":4,"district_n":"GULBARGA","pc":7,"pc_name":"Bidar","ac":46,"ac_name":"Aland","booth":4,"booth_name":"Govt Higher Primary School"},"geometry":{"type":"Point","coordinates":[76.53478,17.75486]}},{"type":"Feature","properties":{"state":"Karnataka","district":4,"district_n":"GULBARGA","pc":7,"pc_name":"Bidar","ac":46,"ac_name":"Aland","booth":24,"booth_name":"Govt Higher Primary School"},"geometry":{"type":"Point","coordinates":[76.70475,17.7009449]}},{"type":"Feature","properties":{"state":"Karnataka","district":4,"district_n":"GULBARGA","pc":7,"pc_name":"Bidar","ac":46,"ac_name":"Aland","booth":27,"booth_name":"Govt Higher Primary School (south Wing)"},"geometry":{"type":"Point","coordinates":[76.63771,17.3213234]}},{"type":"Feature","properties":{"state":"Karnataka","district":4,"district_n":"GULBARGA","pc":7,"pc_name":"Bidar","ac":46,"ac_name":"Aland","booth":36,"booth_name":"Govt Higher Primary School"},"geometry":{"type":"Point","coordinates":[76.54425,17.6432533]}},{"type":"Feature","properties":{"state":"Karnataka","district":4,"district_n":"GULBARGA","pc":7,"pc_name":"Bidar","ac":46,"ac_name":"Aland","booth":39,"booth_name":"Govt Higher Primary School (right Wing)"},"geometry":{"type":"Point","coordinates":[76.61528,17.6186714]}},{"type":"Feature","properties":{"state":"Karnataka","district":4,"district_n":"GULBARGA","pc":7,"pc_name":"Bidar","ac":46,"ac_name":"Aland","booth":67,"booth_name":"Govt Lower Primary School"},"geometry":{"type":"Point","coordinates":[76.563736,17.59492]}},{"type":"Feature","properties":{"state":"Karnataka","district":4,"district_n":"GULBARGA","pc":7,"pc_name":"Bidar","ac":46,"ac_name":"Aland","booth":70,"booth_name":"Govt Higher Primary School School Sultanpur Galli"},"geometry":{"type":"Point","coordinates":[76.5667953,17.5675716]}},{"type":"Feature","properties":{"state":"Karnataka","district":4,"district_n":"GULBARGA","pc":7,"pc_name":"Bidar","ac":46,"ac_name":"Aland","booth":76,"booth_name":"Om Sai D Ed College (marathi) (right Wing) Wing) Sharana Nagar"},"geometry":{"type":"Point","coordinates":[76.56825,17.5577316]}},{"type":"Feature","properties":{"state":"Karnataka","district":4,"district_n":"GULBARGA","pc":7,"pc_name":"Bidar","ac":46,"ac_name":"Aland","booth":79,"booth_name":"Govt Junior College (right Wing) Aland (gulbarga Road)"},"geometry":{"type":"Point","coordinates":[76.56486,17.5615864]}},{"type":"Feature","properties":{"state":"Karnataka","district":4,"district_n":"GULBARGA","pc":7,"pc_name":"Bidar","ac":46,"ac_name":"Aland","booth":87,"booth_name":"Meeting Hall Taluka Panchayat"},"geometry":{"type":"Point","coordinates":[76.56722,17.5709438]}},{"type":"Feature","properties":{"state":"Karnataka","district":4,"district_n":"GULBARGA","pc":7,"pc_name":"Bidar","ac":46,"ac_name":"Aland","booth":93,"booth_name":"Gurubhavan Building, Near B E O O Office"},"geometry":{"type":"Point","coordinates":[76.56681,17.56964]}},{"type":"Feature","properties":{"state":"Karnataka","district":4,"district_n":"GULBARGA","pc":7,"pc_name":"Bidar","ac":46,"ac_name":"Aland","booth":99,"booth_name":"Panchayat Office Building"},"geometry":{"type":"Point","coordinates":[76.66043,17.57989]}},{"type":"Feature","properties":{"state":"Karnataka","district":4,"district_n":"GULBARGA","pc":7,"pc_name":"Bidar","ac":46,"ac_name":"Aland","booth":90,"booth_name":"Govt Model Higher Primary School (right Wing)"},"geometry":{"type":"Point","coordinates":[76.5665741,17.5688648]}},{"type":"Feature","properties":{"state":"Karnataka","district":4,"district_n":"GULBARGA","pc":7,"pc_name":"Bidar","ac":46,"ac_name":"Aland","booth":96,"booth_name":"Govt Higher Primary School"},"geometry":{"type":"Point","coordinates":[76.59944,17.5694618]}},{"type":"Feature","properties":{"state":"Karnataka","district":4,"district_n":"GULBARGA","pc":7,"pc_name":"Bidar","ac":46,"ac_name":"Aland","booth":200,"booth_name":"Govt Higher Primary School (right Wing)"},"geometry":{"type":"Point","coordinates":[76.58034,17.3932972]}},{"type":"Feature","properties":{"state":"Karnataka","district":4,"district_n":"GULBARGA","pc":7,"pc_name":"Bidar","ac":46,"ac_name":"Aland","booth":190,"booth_name":"Pashu Chikitsalay Hospital"},"geometry":{"type":"Point","coordinates":[76.48533,17.3896942]}},{"type":"Feature","properties":{"state":"Karnataka","district":4,"district_n":"GULBARGA","pc":7,"pc_name":"Bidar","ac":46,"ac_name":"Aland","booth":196,"booth_name":"Govt Higher Primary School"},"geometry":{"type":"Point","coordinates":[76.58034,17.3932972]}},{"type":"Feature","properties":{"state":"Karnataka","district":4,"district_n":"GULBARGA","pc":7,"pc_name":"Bidar","ac":46,"ac_name":"Aland","booth":199,"booth_name":"Govt Higher Primary School"},"geometry":{"type":"Point","coordinates":[76.58034,17.3932972]}},{"type":"Feature","properties":{"state":"Karnataka","district":4,"district_n":"GULBARGA","pc":7,"pc_name":"Bidar","ac":46,"ac_name":"Aland","booth":202,"booth_name":"New Panchayat Building"},"geometry":{"type":"Point","coordinates":[76.58034,17.3932972]}}]}