{"type":"FeatureCollection","features":[{"type":"Feature","properties":{"state":"Karnataka","district":5,"district_n":"BIDAR","pc":7,"pc_name":"Bidar","ac":50,"ac_name":"Bidar","booth":160,"booth_name":"Rani Kittur Chinnamma Chinnamma Higher Primary School Bidar (mailore Road Right Side)"},"geometry":{"type":"Point","coordinates":[77.51532,17.9029827]}},{"type":"Feature","properties":{"state":"Karnataka","district":5,"district_n":"BIDAR","pc":7,"pc_name":"Bidar","ac":50,"ac_name":"Bidar","booth":162,"booth_name":"C M C C Mini Function Function Hall Ambedkar Colony"},"geometry":{"type":"Point","coordinates":[77.51807,17.9073162]}},{"type":"Feature","properties":{"state":"Karnataka","district":5,"district_n":"BIDAR","pc":7,"pc_name":"Bidar","ac":50,"ac_name":"Bidar","booth":163,"booth_name":"Vidya P U College Science College ( Right Side )"},"geometry":{"type":"Point","coordinates":[77.5194855,17.9056168]}},{"type":"Feature","properties":{"state":"Karnataka","district":5,"district_n":"BIDAR","pc":7,"pc_name":"Bidar","ac":50,"ac_name":"Bidar","booth":165,"booth_name":"Old Gram Panchayat Office Building"},"geometry":{"type":"Point","coordinates":[77.50478,17.8885841]}},{"type":"Feature","properties":{"state":"Karnataka","district":5,"district_n":"BIDAR","pc":7,"pc_name":"Bidar","ac":50,"ac_name":"Bidar","booth":166,"booth_name":"Govt Govt Higher Primary School Building (east Side)"},"geometry":{"type":"Point","coordinates":[77.50587,17.8902168]}},{"type":"Feature","properties":{"state":"Karnataka","district":5,"district_n":"BIDAR","pc":7,"pc_name":"Bidar","ac":50,"ac_name":"Bidar","booth":168,"booth_name":"Govt Govt Higher Primary School Building (south Side)"},"geometry":{"type":"Point","coordinates":[77.50584,17.8900661]}},{"type":"Feature","properties":{"state":"Karnataka","district":5,"district_n":"BIDAR","pc":7,"pc_name":"Bidar","ac":50,"ac_name":"Bidar","booth":169,"booth_name":"State Ware House House Corporation building"},"geometry":{"type":"Point","coordinates":[77.50515,17.8900661]}},{"type":"Feature","properties":{"state":"Karnataka","district":5,"district_n":"BIDAR","pc":7,"pc_name":"Bidar","ac":50,"ac_name":"Bidar","booth":171,"booth_name":"Dy Director Of Land Army Office Building (left Wing)"},"geometry":{"type":"Point","coordinates":[77.50587,17.891634]}},{"type":"Feature","properties":{"state":"Karnataka","district":5,"district_n":"BIDAR","pc":7,"pc_name":"Bidar","ac":50,"ac_name":"Bidar","booth":174,"booth_name":"Deputy Director Director Of Land Army Office Office Building (right Wing)"},"geometry":{"type":"Point","coordinates":[77.5059357,17.8916]}},{"type":"Feature","properties":{"state":"Karnataka","district":5,"district_n":"BIDAR","pc":7,"pc_name":"Bidar","ac":50,"ac_name":"Bidar","booth":177,"booth_name":"Govt Govt Higher Primary School Building (right Side)"},"geometry":{"type":"Point","coordinates":[77.52541,17.8920326]}},{"type":"Feature","properties":{"state":"Karnataka","district":5,"district_n":"BIDAR","pc":7,"pc_name":"Bidar","ac":50,"ac_name":"Bidar","booth":180,"booth_name":"Srimati Chikkamani D Devaraj Urs High School & Srimati Srimati Ittamma Public Higher Primery School Left Si"},"geometry":{"type":"Point","coordinates":[77.52213,17.8923664]}},{"type":"Feature","properties":{"state":"Karnataka","district":5,"district_n":"BIDAR","pc":7,"pc_name":"Bidar","ac":50,"ac_name":"Bidar","booth":182,"booth_name":"Bilal Womens B Ed College College Building Shahapur Gate (east Wing)"},"geometry":{"type":"Point","coordinates":[77.54093,17.8878841]}},{"type":"Feature","properties":{"state":"Karnataka","district":5,"district_n":"BIDAR","pc":7,"pc_name":"Bidar","ac":50,"ac_name":"Bidar","booth":183,"booth_name":"Bilal Womens B Ed College College Building Shahapur Gate (west Wing)"},"geometry":{"type":"Point","coordinates":[77.5409851,17.8878174]}},{"type":"Feature","properties":{"state":"Karnataka","district":5,"district_n":"BIDAR","pc":7,"pc_name":"Bidar","ac":50,"ac_name":"Bidar","booth":185,"booth_name":"Kanyaka Parmeshwari Nursury English Public School Fateh Darwaza Building (left Wing)"},"geometry":{"type":"Point","coordinates":[77.5283,17.9042664]}},{"type":"Feature","properties":{"state":"Karnataka","district":5,"district_n":"BIDAR","pc":7,"pc_name":"Bidar","ac":50,"ac_name":"Bidar","booth":186,"booth_name":"Kanyaka parmeshwari Nursury English Public School Fateh Darwaza Building (right Wing)"},"geometry":{"type":"Point","coordinates":[77.52832,17.90425]}},{"type":"Feature","properties":{"state":"Karnataka","district":5,"district_n":"BIDAR","pc":7,"pc_name":"Bidar","ac":50,"ac_name":"Bidar","booth":188,"booth_name":"Govt Higher Primary School Urdu Building, Lalwadi (left Wing )"},"geometry":{"type":"Point","coordinates":[77.53043,17.9021339]}},{"type":"Feature","properties":{"state":"Karnataka","district":5,"district_n":"BIDAR","pc":7,"pc_name":"Bidar","ac":50,"ac_name":"Bidar","booth":189,"booth_name":"Govt Higher Primary School Building, Haladkeri (k)ladgeri (left Wing)"},"geometry":{"type":"Point","coordinates":[77.53042,17.9034176]}},{"type":"Feature","properties":{"state":"Karnataka","district":5,"district_n":"BIDAR","pc":7,"pc_name":"Bidar","ac":50,"ac_name":"Bidar","booth":2,"booth_name":"Govt Higher Primary School Building"},"geometry":{"type":"Point","coordinates":[77.4198151,18.038908]}},{"type":"Feature","properties":{"state":"Karnataka","district":5,"district_n":"BIDAR","pc":7,"pc_name":"Bidar","ac":50,"ac_name":"Bidar","booth":3,"booth_name":"Govt Higher Primary school Building"},"geometry":{"type":"Point","coordinates":[77.43178,18.0470142]}},{"type":"Feature","properties":{"state":"Karnataka","district":5,"district_n":"BIDAR","pc":7,"pc_name":"Bidar","ac":50,"ac_name":"Bidar","booth":5,"booth_name":"Govt Higher Primary School Building"},"geometry":{"type":"Point","coordinates":[77.50742,18.0322971]}},{"type":"Feature","properties":{"state":"Karnataka","district":5,"district_n":"BIDAR","pc":7,"pc_name":"Bidar","ac":50,"ac_name":"Bidar","booth":8,"booth_name":"Govt Higher Primary School Building (left (left Wing)"},"geometry":{"type":"Point","coordinates":[77.51855,18.0273037]}},{"type":"Feature","properties":{"state":"Karnataka","district":5,"district_n":"BIDAR","pc":7,"pc_name":"Bidar","ac":50,"ac_name":"Bidar","booth":11,"booth_name":"Anganawadi Building"},"geometry":{"type":"Point","coordinates":[77.57632,18.02766]}},{"type":"Feature","properties":{"state":"Karnataka","district":5,"district_n":"BIDAR","pc":7,"pc_name":"Bidar","ac":50,"ac_name":"Bidar","booth":14,"booth_name":"Govt Higher Primary School Building"},"geometry":{"type":"Point","coordinates":[77.4132,18.0359764]}},{"type":"Feature","properties":{"state":"Karnataka","district":5,"district_n":"BIDAR","pc":7,"pc_name":"Bidar","ac":50,"ac_name":"Bidar","booth":16,"booth_name":"Grama Panchayati Building"},"geometry":{"type":"Point","coordinates":[77.43564,18.0039158]}},{"type":"Feature","properties":{"state":"Karnataka","district":5,"district_n":"BIDAR","pc":7,"pc_name":"Bidar","ac":50,"ac_name":"Bidar","booth":17,"booth_name":"Govt Higher Primary School Building (right wing)"},"geometry":{"type":"Point","coordinates":[77.43234,18.00373]}},{"type":"Feature","properties":{"state":"Karnataka","district":5,"district_n":"BIDAR","pc":7,"pc_name":"Bidar","ac":50,"ac_name":"Bidar","booth":19,"booth_name":"Govt Lower Primary School Building"},"geometry":{"type":"Point","coordinates":[77.46398,18.0095348]}},{"type":"Feature","properties":{"state":"Karnataka","district":5,"district_n":"BIDAR","pc":7,"pc_name":"Bidar","ac":50,"ac_name":"Bidar","booth":20,"booth_name":"Grama Panchayat Bilding (right wing)"},"geometry":{"type":"Point","coordinates":[77.4761353,18.0027637]}},{"type":"Feature","properties":{"state":"Karnataka","district":5,"district_n":"BIDAR","pc":7,"pc_name":"Bidar","ac":50,"ac_name":"Bidar","booth":22,"booth_name":"Govt Higher Primary School Building (right wing)"},"geometry":{"type":"Point","coordinates":[77.45028,18.0011215]}},{"type":"Feature","properties":{"state":"Karnataka","district":5,"district_n":"BIDAR","pc":7,"pc_name":"Bidar","ac":50,"ac_name":"Bidar","booth":23,"booth_name":"Govt Higher Primary School Building (left wing)"},"geometry":{"type":"Point","coordinates":[77.61481,18.0009766]}},{"type":"Feature","properties":{"state":"Karnataka","district":5,"district_n":"BIDAR","pc":7,"pc_name":"Bidar","ac":50,"ac_name":"Bidar","booth":25,"booth_name":"Govt Higher Primary School Building (right wing)"},"geometry":{"type":"Point","coordinates":[77.61481,18.0009766]}},{"type":"Feature","properties":{"state":"Karnataka","district":5,"district_n":"BIDAR","pc":7,"pc_name":"Bidar","ac":50,"ac_name":"Bidar","booth":28,"booth_name":"Govt Lower Primary School Building Kangati"},"geometry":{"type":"Point","coordinates":[77.55585,18.0003834]}},{"type":"Feature","properties":{"state":"Karnataka","district":5,"district_n":"BIDAR","pc":7,"pc_name":"Bidar","ac":50,"ac_name":"Bidar","booth":31,"booth_name":"Govt Lower Primary School Building"},"geometry":{"type":"Point","coordinates":[77.47666,18.00136]}},{"type":"Feature","properties":{"state":"Karnataka","district":5,"district_n":"BIDAR","pc":7,"pc_name":"Bidar","ac":50,"ac_name":"Bidar","booth":34,"booth_name":"Govt High School Building (left wing)"},"geometry":{"type":"Point","coordinates":[77.51051,17.9952]}},{"type":"Feature","properties":{"state":"Karnataka","district":5,"district_n":"BIDAR","pc":7,"pc_name":"Bidar","ac":50,"ac_name":"Bidar","booth":36,"booth_name":"Govt Lower Primary School Building"},"geometry":{"type":"Point","coordinates":[77.45673,17.9813881]}},{"type":"Feature","properties":{"state":"Karnataka","district":5,"district_n":"BIDAR","pc":7,"pc_name":"Bidar","ac":50,"ac_name":"Bidar","booth":37,"booth_name":"Govt Lower Primary School Building"},"geometry":{"type":"Point","coordinates":[77.3934555,17.99099]}},{"type":"Feature","properties":{"state":"Karnataka","district":5,"district_n":"BIDAR","pc":7,"pc_name":"Bidar","ac":50,"ac_name":"Bidar","booth":39,"booth_name":"Govt Higher Primary School Building"},"geometry":{"type":"Point","coordinates":[77.59437,17.97945]}},{"type":"Feature","properties":{"state":"Karnataka","district":5,"district_n":"BIDAR","pc":7,"pc_name":"Bidar","ac":50,"ac_name":"Bidar","booth":40,"booth_name":"Govt Govt Higher Primary School (udru Medium Building)"},"geometry":{"type":"Point","coordinates":[77.6218,17.9952]}},{"type":"Feature","properties":{"state":"Karnataka","district":5,"district_n":"BIDAR","pc":7,"pc_name":"Bidar","ac":50,"ac_name":"Bidar","booth":125,"booth_name":"Old Gram Panchayat Building (right Wing )"},"geometry":{"type":"Point","coordinates":[77.47377,17.9345169]}},{"type":"Feature","properties":{"state":"Karnataka","district":5,"district_n":"BIDAR","pc":7,"pc_name":"Bidar","ac":50,"ac_name":"Bidar","booth":126,"booth_name":"Old Gram Panchayat Panchayat Building (left Wing)"},"geometry":{"type":"Point","coordinates":[77.4737,17.9345341]}},{"type":"Feature","properties":{"state":"Karnataka","district":5,"district_n":"BIDAR","pc":7,"pc_name":"Bidar","ac":50,"ac_name":"Bidar","booth":128,"booth_name":"Govt Model Primary School Building (right Wing) Noubad Bidar"},"geometry":{"type":"Point","coordinates":[77.47362,17.9346161]}},{"type":"Feature","properties":{"state":"Karnataka","district":5,"district_n":"BIDAR","pc":7,"pc_name":"Bidar","ac":50,"ac_name":"Bidar","booth":131,"booth_name":"Govt Govt Model Primary School Building (middle Wing )"},"geometry":{"type":"Point","coordinates":[77.47355,17.9345169]}},{"type":"Feature","properties":{"state":"Karnataka","district":5,"district_n":"BIDAR","pc":7,"pc_name":"Bidar","ac":50,"ac_name":"Bidar","booth":139,"booth_name":"District District District Horticulture Office Building"},"geometry":{"type":"Point","coordinates":[77.51833,17.9146328]}},{"type":"Feature","properties":{"state":"Karnataka","district":5,"district_n":"BIDAR","pc":7,"pc_name":"Bidar","ac":50,"ac_name":"Bidar","booth":140,"booth_name":"Nagreshwar Higher Primary School Building Behind Dcc Bank Shaha gunj(left Wing)"},"geometry":{"type":"Point","coordinates":[77.52203,17.913866]}},{"type":"Feature","properties":{"state":"Karnataka","district":5,"district_n":"BIDAR","pc":7,"pc_name":"Bidar","ac":50,"ac_name":"Bidar","booth":42,"booth_name":"S T Samudaya Bhavan Building"},"geometry":{"type":"Point","coordinates":[77.6050644,17.9784164]}},{"type":"Feature","properties":{"state":"Karnataka","district":5,"district_n":"BIDAR","pc":7,"pc_name":"Bidar","ac":50,"ac_name":"Bidar","booth":43,"booth_name":"Govt Lower Primary School Building"},"geometry":{"type":"Point","coordinates":[77.6406,17.96665]}},{"type":"Feature","properties":{"state":"Karnataka","district":5,"district_n":"BIDAR","pc":7,"pc_name":"Bidar","ac":50,"ac_name":"Bidar","booth":45,"booth_name":"Govt Higher Primary School Building"},"geometry":{"type":"Point","coordinates":[77.61678,17.9475]}},{"type":"Feature","properties":{"state":"Karnataka","district":5,"district_n":"BIDAR","pc":7,"pc_name":"Bidar","ac":50,"ac_name":"Bidar","booth":48,"booth_name":"Govt Lower Primary School Building"},"geometry":{"type":"Point","coordinates":[77.58463,17.9723339]}},{"type":"Feature","properties":{"state":"Karnataka","district":5,"district_n":"BIDAR","pc":7,"pc_name":"Bidar","ac":50,"ac_name":"Bidar","booth":54,"booth_name":"Govt Higher Primary School Building"},"geometry":{"type":"Point","coordinates":[77.47933,17.9467659]}},{"type":"Feature","properties":{"state":"Karnataka","district":5,"district_n":"BIDAR","pc":7,"pc_name":"Bidar","ac":50,"ac_name":"Bidar","booth":59,"booth_name":"Govt Govt Lower Primary School Building"},"geometry":{"type":"Point","coordinates":[77.55272,17.9283829]}},{"type":"Feature","properties":{"state":"Karnataka","district":5,"district_n":"BIDAR","pc":7,"pc_name":"Bidar","ac":50,"ac_name":"Bidar","booth":142,"booth_name":"Nagreshwar Higher Primary School (right Wing)"},"geometry":{"type":"Point","coordinates":[77.5213852,17.9136333]}},{"type":"Feature","properties":{"state":"Karnataka","district":5,"district_n":"BIDAR","pc":7,"pc_name":"Bidar","ac":50,"ac_name":"Bidar","booth":143,"booth_name":"Nagreshwar Higher Primary School (left Wing)"},"geometry":{"type":"Point","coordinates":[77.521286,17.91325]}},{"type":"Feature","properties":{"state":"Karnataka","district":5,"district_n":"BIDAR","pc":7,"pc_name":"Bidar","ac":50,"ac_name":"Bidar","booth":145,"booth_name":"Rait Bhavan Bhavan Building, Gandhi Gunj Room No 5 (left Side)"},"geometry":{"type":"Point","coordinates":[77.51455,17.9083328]}},{"type":"Feature","properties":{"state":"Karnataka","district":5,"district_n":"BIDAR","pc":7,"pc_name":"Bidar","ac":50,"ac_name":"Bidar","booth":146,"booth_name":"A P M C C Building, Gandhi Gunj Gunj (right Wing)"},"geometry":{"type":"Point","coordinates":[77.51503,17.9085159]}},{"type":"Feature","properties":{"state":"Karnataka","district":5,"district_n":"BIDAR","pc":7,"pc_name":"Bidar","ac":50,"ac_name":"Bidar","booth":148,"booth_name":"T A P M C C Building, Gandhi Gunj Gunj (right Side)"},"geometry":{"type":"Point","coordinates":[77.51687,17.9081669]}},{"type":"Feature","properties":{"state":"Karnataka","district":5,"district_n":"BIDAR","pc":7,"pc_name":"Bidar","ac":50,"ac_name":"Bidar","booth":149,"booth_name":"Srimati laxmibai kamathane composite p u college (girls)"},"geometry":{"type":"Point","coordinates":[77.51552,17.9059]}},{"type":"Feature","properties":{"state":"Karnataka","district":5,"district_n":"BIDAR","pc":7,"pc_name":"Bidar","ac":50,"ac_name":"Bidar","booth":151,"booth_name":"Govt Govt Higher Primary School Building, Building, (east Side)"},"geometry":{"type":"Point","coordinates":[77.49313,17.90745]}},{"type":"Feature","properties":{"state":"Karnataka","district":5,"district_n":"BIDAR","pc":7,"pc_name":"Bidar","ac":50,"ac_name":"Bidar","booth":154,"booth_name":"Jainbiya Self Banu urdu H R P S Building, Hussaini Colony Chidri Bidar (right wing)"},"geometry":{"type":"Point","coordinates":[77.50927,17.9094334]}},{"type":"Feature","properties":{"state":"Karnataka","district":5,"district_n":"BIDAR","pc":7,"pc_name":"Bidar","ac":50,"ac_name":"Bidar","booth":157,"booth_name":"Janata Co Education Higher Primary Primary School, Chidri Road Haq Colony Colony (left Side) Room No 3"},"geometry":{"type":"Point","coordinates":[77.5064,17.9029675]}},{"type":"Feature","properties":{"state":"Karnataka","district":5,"district_n":"BIDAR","pc":7,"pc_name":"Bidar","ac":50,"ac_name":"Bidar","booth":60,"booth_name":"Govt Higher Primary School Building"},"geometry":{"type":"Point","coordinates":[77.5778351,17.9391174]}},{"type":"Feature","properties":{"state":"Karnataka","district":5,"district_n":"BIDAR","pc":7,"pc_name":"Bidar","ac":50,"ac_name":"Bidar","booth":62,"booth_name":"Govt Govt Higher Primary School Building"},"geometry":{"type":"Point","coordinates":[77.6041,17.9125]}},{"type":"Feature","properties":{"state":"Karnataka","district":5,"district_n":"BIDAR","pc":7,"pc_name":"Bidar","ac":50,"ac_name":"Bidar","booth":63,"booth_name":"Govt Govt Higher Primary School Building"},"geometry":{"type":"Point","coordinates":[77.53927,17.9176826]}},{"type":"Feature","properties":{"state":"Karnataka","district":5,"district_n":"BIDAR","pc":7,"pc_name":"Bidar","ac":50,"ac_name":"Bidar","booth":65,"booth_name":"7th Day Day Adventise English Pry School Building Rao Taleem"},"geometry":{"type":"Point","coordinates":[77.52372,17.9146671]}},{"type":"Feature","properties":{"state":"Karnataka","district":5,"district_n":"BIDAR","pc":7,"pc_name":"Bidar","ac":50,"ac_name":"Bidar","booth":66,"booth_name":"Govt Govt P U College (boys) Siddi talim (western Wing South Room)"},"geometry":{"type":"Point","coordinates":[77.5255356,17.92955]}},{"type":"Feature","properties":{"state":"Karnataka","district":5,"district_n":"BIDAR","pc":7,"pc_name":"Bidar","ac":50,"ac_name":"Bidar","booth":68,"booth_name":"Govt Govt Jr College (girls) Building, Cement Road"},"geometry":{"type":"Point","coordinates":[77.5261,17.9141827]}},{"type":"Feature","properties":{"state":"Karnataka","district":5,"district_n":"BIDAR","pc":7,"pc_name":"Bidar","ac":50,"ac_name":"Bidar","booth":71,"booth_name":"A I M S S College Campus Ambadas Galli Singar Bagah Bagah East Wing (south Room)"},"geometry":{"type":"Point","coordinates":[77.53004,17.9130325]}},{"type":"Feature","properties":{"state":"Karnataka","district":5,"district_n":"BIDAR","pc":7,"pc_name":"Bidar","ac":50,"ac_name":"Bidar","booth":74,"booth_name":"Wisdom English Medium School Building Building Siddi talim mustaidapur (south Side)"},"geometry":{"type":"Point","coordinates":[77.5262146,17.9124]}},{"type":"Feature","properties":{"state":"Karnataka","district":5,"district_n":"BIDAR","pc":7,"pc_name":"Bidar","ac":50,"ac_name":"Bidar","booth":77,"booth_name":"Little Angels English Higher Primary School Building"},"geometry":{"type":"Point","coordinates":[77.52805,17.9093342]}},{"type":"Feature","properties":{"state":"Karnataka","district":5,"district_n":"BIDAR","pc":7,"pc_name":"Bidar","ac":50,"ac_name":"Bidar","booth":79,"booth_name":"Govt Govt Govt C R S S Urdu Higher Primary School Tamasikarigalli pan sal talim (south wing)"},"geometry":{"type":"Point","coordinates":[77.53008,17.9087658]}},{"type":"Feature","properties":{"state":"Karnataka","district":5,"district_n":"BIDAR","pc":7,"pc_name":"Bidar","ac":50,"ac_name":"Bidar","booth":80,"booth_name":"Govt Govt M P S Building Kannada Choubara Brahmanwadi (left Side)"},"geometry":{"type":"Point","coordinates":[77.5312,17.9103336]}},{"type":"Feature","properties":{"state":"Karnataka","district":5,"district_n":"BIDAR","pc":7,"pc_name":"Bidar","ac":50,"ac_name":"Bidar","booth":82,"booth_name":"Muncipal Higher Primary School Building Building near Mangalpet gate (eastern side right wing)"},"geometry":{"type":"Point","coordinates":[77.53384,17.9109]}},{"type":"Feature","properties":{"state":"Karnataka","district":5,"district_n":"BIDAR","pc":7,"pc_name":"Bidar","ac":50,"ac_name":"Bidar","booth":83,"booth_name":"Muncipal Higher Primary School Building Building near near Mangalpet gate (east Side Left Wing)"},"geometry":{"type":"Point","coordinates":[77.53384,17.9109]}},{"type":"Feature","properties":{"state":"Karnataka","district":5,"district_n":"BIDAR","pc":7,"pc_name":"Bidar","ac":50,"ac_name":"Bidar","booth":85,"booth_name":"Govt Govt Model Primary School Building Noorkhan Taleem Taleem near Khankha Khankha (north Side)"},"geometry":{"type":"Point","coordinates":[77.5318,17.9115162]}},{"type":"Feature","properties":{"state":"Karnataka","district":5,"district_n":"BIDAR","pc":7,"pc_name":"Bidar","ac":50,"ac_name":"Bidar","booth":86,"booth_name":"Govt Govt Model Primary School Building Noorkhan Taleem near Khankha Khankha (west Side)"},"geometry":{"type":"Point","coordinates":[77.5318,17.9115162]}},{"type":"Feature","properties":{"state":"Karnataka","district":5,"district_n":"BIDAR","pc":7,"pc_name":"Bidar","ac":50,"ac_name":"Bidar","booth":127,"booth_name":"Govt Govt Model Primary School Building (right Wing)"},"geometry":{"type":"Point","coordinates":[77.4733353,17.93455]}},{"type":"Feature","properties":{"state":"Karnataka","district":5,"district_n":"BIDAR","pc":7,"pc_name":"Bidar","ac":50,"ac_name":"Bidar","booth":136,"booth_name":"National Composite P U College Opp Sabbal Barid Bidar (left Wing)"},"geometry":{"type":"Point","coordinates":[77.5172,17.62]}},{"type":"Feature","properties":{"state":"Karnataka","district":5,"district_n":"BIDAR","pc":7,"pc_name":"Bidar","ac":50,"ac_name":"Bidar","booth":147,"booth_name":"A P M C C Building, Gandhi Gunj (left Side)"},"geometry":{"type":"Point","coordinates":[77.51517,17.908783]}},{"type":"Feature","properties":{"state":"Karnataka","district":5,"district_n":"BIDAR","pc":7,"pc_name":"Bidar","ac":50,"ac_name":"Bidar","booth":1,"booth_name":"Govt Govt Lower Primary School Building"},"geometry":{"type":"Point","coordinates":[77.43315,18.0712185]}},{"type":"Feature","properties":{"state":"Karnataka","district":5,"district_n":"BIDAR","pc":7,"pc_name":"Bidar","ac":50,"ac_name":"Bidar","booth":64,"booth_name":"Govt Govt Lower Primary School Building"},"geometry":{"type":"Point","coordinates":[77.5382156,17.9212837]}},{"type":"Feature","properties":{"state":"Karnataka","district":5,"district_n":"BIDAR","pc":7,"pc_name":"Bidar","ac":50,"ac_name":"Bidar","booth":4,"booth_name":"Grama Panchayt Old Building"},"geometry":{"type":"Point","coordinates":[77.43432,18.0459652]}},{"type":"Feature","properties":{"state":"Karnataka","district":5,"district_n":"BIDAR","pc":7,"pc_name":"Bidar","ac":50,"ac_name":"Bidar","booth":7,"booth_name":"Govt Higher Primary School Building (left Wing)"},"geometry":{"type":"Point","coordinates":[77.51855,18.0273037]}},{"type":"Feature","properties":{"state":"Karnataka","district":5,"district_n":"BIDAR","pc":7,"pc_name":"Bidar","ac":50,"ac_name":"Bidar","booth":10,"booth_name":"Govt Higher Higher Primary School Building"},"geometry":{"type":"Point","coordinates":[77.55432,18.030344]}},{"type":"Feature","properties":{"state":"Karnataka","district":5,"district_n":"BIDAR","pc":7,"pc_name":"Bidar","ac":50,"ac_name":"Bidar","booth":21,"booth_name":"Nad kacheri Buildind"},"geometry":{"type":"Point","coordinates":[77.47544,18.002285]}},{"type":"Feature","properties":{"state":"Karnataka","district":5,"district_n":"BIDAR","pc":7,"pc_name":"Bidar","ac":50,"ac_name":"Bidar","booth":24,"booth_name":"Govt Higher Primary School Building (left wing)"},"geometry":{"type":"Point","coordinates":[77.61481,18.0009766]}},{"type":"Feature","properties":{"state":"Karnataka","district":5,"district_n":"BIDAR","pc":7,"pc_name":"Bidar","ac":50,"ac_name":"Bidar","booth":27,"booth_name":"Govt Higher Primary School Building"},"geometry":{"type":"Point","coordinates":[77.59275,18.0041161]}},{"type":"Feature","properties":{"state":"Karnataka","district":5,"district_n":"BIDAR","pc":7,"pc_name":"Bidar","ac":50,"ac_name":"Bidar","booth":41,"booth_name":"Govt Higher Primary School Building"},"geometry":{"type":"Point","coordinates":[77.6217651,17.9951172]}},{"type":"Feature","properties":{"state":"Karnataka","district":5,"district_n":"BIDAR","pc":7,"pc_name":"Bidar","ac":50,"ac_name":"Bidar","booth":47,"booth_name":"Govt Higher Primary School Building"},"geometry":{"type":"Point","coordinates":[77.6047,17.94385]}},{"type":"Feature","properties":{"state":"Karnataka","district":5,"district_n":"BIDAR","pc":7,"pc_name":"Bidar","ac":50,"ac_name":"Bidar","booth":61,"booth_name":"Our Village Govt Govt Lower Primary School Building"},"geometry":{"type":"Point","coordinates":[77.61042,17.92685]}},{"type":"Feature","properties":{"state":"Karnataka","district":5,"district_n":"BIDAR","pc":7,"pc_name":"Bidar","ac":50,"ac_name":"Bidar","booth":67,"booth_name":"Govt Govt P U college (boys) Siddi talim (central Wing)"},"geometry":{"type":"Point","coordinates":[77.5258,17.9134674]}},{"type":"Feature","properties":{"state":"Karnataka","district":5,"district_n":"BIDAR","pc":7,"pc_name":"Bidar","ac":50,"ac_name":"Bidar","booth":70,"booth_name":"A I M S S College Campus Ambadas Galli Galli Singar Bagah (north Building Building Western Wing)"},"geometry":{"type":"Point","coordinates":[77.53004,17.9130325]}},{"type":"Feature","properties":{"state":"Karnataka","district":5,"district_n":"BIDAR","pc":7,"pc_name":"Bidar","ac":50,"ac_name":"Bidar","booth":73,"booth_name":"Al Hameed memorial Urdu Higher Primary School Siddi talim"},"geometry":{"type":"Point","coordinates":[77.5250854,17.9122162]}},{"type":"Feature","properties":{"state":"Karnataka","district":5,"district_n":"BIDAR","pc":7,"pc_name":"Bidar","ac":50,"ac_name":"Bidar","booth":76,"booth_name":"Gandhi Education Institution (r) gurayya bachha High High School And Gandhi Nursary Nursary H R P S S Kabir Road"},"geometry":{"type":"Point","coordinates":[77.52808,17.9116325]}},{"type":"Feature","properties":{"state":"Karnataka","district":5,"district_n":"BIDAR","pc":7,"pc_name":"Bidar","ac":50,"ac_name":"Bidar","booth":13,"booth_name":"Govt Lower Primary School Building"},"geometry":{"type":"Point","coordinates":[77.45432,18.0376549]}},{"type":"Feature","properties":{"state":"Karnataka","district":5,"district_n":"BIDAR","pc":7,"pc_name":"Bidar","ac":50,"ac_name":"Bidar","booth":30,"booth_name":"Govt Lower Primary School Building"},"geometry":{"type":"Point","coordinates":[77.52036,17.9877319]}},{"type":"Feature","properties":{"state":"Karnataka","district":5,"district_n":"BIDAR","pc":7,"pc_name":"Bidar","ac":50,"ac_name":"Bidar","booth":33,"booth_name":"Govt Higher Primary School Building (left wing)"},"geometry":{"type":"Point","coordinates":[77.49844,17.96615]}},{"type":"Feature","properties":{"state":"Karnataka","district":5,"district_n":"BIDAR","pc":7,"pc_name":"Bidar","ac":50,"ac_name":"Bidar","booth":44,"booth_name":"Govt Lower Primary School Building"},"geometry":{"type":"Point","coordinates":[77.62368,17.9508171]}},{"type":"Feature","properties":{"state":"Karnataka","district":5,"district_n":"BIDAR","pc":7,"pc_name":"Bidar","ac":50,"ac_name":"Bidar","booth":191,"booth_name":"Faiz Urdu Urdu Higher Primary School Building (left Side), Faizapur"},"geometry":{"type":"Point","coordinates":[77.53952,17.9022827]}},{"type":"Feature","properties":{"state":"Karnataka","district":5,"district_n":"BIDAR","pc":7,"pc_name":"Bidar","ac":50,"ac_name":"Bidar","booth":194,"booth_name":"Executive Engineer Office ,p W D D Division Office, Mangalpet (east Side)"},"geometry":{"type":"Point","coordinates":[77.53375,17.90775]}},{"type":"Feature","properties":{"state":"Karnataka","district":5,"district_n":"BIDAR","pc":7,"pc_name":"Bidar","ac":50,"ac_name":"Bidar","booth":197,"booth_name":"Asst Asst Executive Engineer , P W D Sub Division, Mangal Peth Peth (south Block)"},"geometry":{"type":"Point","coordinates":[77.53295,17.9077]}},{"type":"Feature","properties":{"state":"Karnataka","district":5,"district_n":"BIDAR","pc":7,"pc_name":"Bidar","ac":50,"ac_name":"Bidar","booth":200,"booth_name":"Norma Fendrich High School cum Junior College (beside Arts College Block), Mangalpet(right Wing) Bidar"},"geometry":{"type":"Point","coordinates":[77.53838,17.9136]}},{"type":"Feature","properties":{"state":"Karnataka","district":5,"district_n":"BIDAR","pc":7,"pc_name":"Bidar","ac":50,"ac_name":"Bidar","booth":187,"booth_name":"Govt Higher Primary School Urdu Building Lalwadi (right Wing )"},"geometry":{"type":"Point","coordinates":[77.5289841,17.9021168]}},{"type":"Feature","properties":{"state":"Karnataka","district":5,"district_n":"BIDAR","pc":7,"pc_name":"Bidar","ac":50,"ac_name":"Bidar","booth":190,"booth_name":"Govt Higher Primary School Building, Haladkeri (k)ladgeri(right Wing)"},"geometry":{"type":"Point","coordinates":[77.53042,17.9034176]}},{"type":"Feature","properties":{"state":"Karnataka","district":5,"district_n":"BIDAR","pc":7,"pc_name":"Bidar","ac":50,"ac_name":"Bidar","booth":193,"booth_name":"Faiz Urdu Higher Primary School Building, Faizapur (right Wing)"},"geometry":{"type":"Point","coordinates":[77.53952,17.9022827]}},{"type":"Feature","properties":{"state":"Karnataka","district":5,"district_n":"BIDAR","pc":7,"pc_name":"Bidar","ac":50,"ac_name":"Bidar","booth":196,"booth_name":"Asst Asst Executive Engineer , P W D Sub Division, Mangal Peth Peth (east Block)"},"geometry":{"type":"Point","coordinates":[77.53297,17.9076824]}},{"type":"Feature","properties":{"state":"Karnataka","district":5,"district_n":"BIDAR","pc":7,"pc_name":"Bidar","ac":50,"ac_name":"Bidar","booth":150,"booth_name":"Old Gram Panchayat Panchayat Building"},"geometry":{"type":"Point","coordinates":[77.4953,17.9068]}},{"type":"Feature","properties":{"state":"Karnataka","district":5,"district_n":"BIDAR","pc":7,"pc_name":"Bidar","ac":50,"ac_name":"Bidar","booth":153,"booth_name":"Samudaya Bhavana Building, Building, Harijana Wada, Rama Nagar"},"geometry":{"type":"Point","coordinates":[77.4942856,17.9084167]}},{"type":"Feature","properties":{"state":"Karnataka","district":5,"district_n":"BIDAR","pc":7,"pc_name":"Bidar","ac":50,"ac_name":"Bidar","booth":156,"booth_name":"Janata Co Education Higher Primary Primary School, Chidri Road Haq Colony Colony (right Side) Room No 2"},"geometry":{"type":"Point","coordinates":[77.512886,17.903]}},{"type":"Feature","properties":{"state":"Karnataka","district":5,"district_n":"BIDAR","pc":7,"pc_name":"Bidar","ac":50,"ac_name":"Bidar","booth":130,"booth_name":"Govt Govt Model Primary School Building (right Wing) Noubad Bidar"},"geometry":{"type":"Point","coordinates":[77.47345,17.9345341]}},{"type":"Feature","properties":{"state":"Karnataka","district":5,"district_n":"BIDAR","pc":7,"pc_name":"Bidar","ac":50,"ac_name":"Bidar","booth":129,"booth_name":"Govt Govt Model Primary School Building (left Wing) Backside"},"geometry":{"type":"Point","coordinates":[77.4738,17.934967]}},{"type":"Feature","properties":{"state":"Karnataka","district":5,"district_n":"BIDAR","pc":7,"pc_name":"Bidar","ac":50,"ac_name":"Bidar","booth":132,"booth_name":"Govt Govt Diet College Class Room"},"geometry":{"type":"Point","coordinates":[77.47407,17.9346676]}},{"type":"Feature","properties":{"state":"Karnataka","district":5,"district_n":"BIDAR","pc":7,"pc_name":"Bidar","ac":50,"ac_name":"Bidar","booth":135,"booth_name":"National Composite P U College Opp Sabbal Barid Bidar (right Wing)"},"geometry":{"type":"Point","coordinates":[77.51972,17.92]}},{"type":"Feature","properties":{"state":"Karnataka","district":5,"district_n":"BIDAR","pc":7,"pc_name":"Bidar","ac":50,"ac_name":"Bidar","booth":141,"booth_name":"Nagreshwar Higher Primary School Building Behind Dcc Bank Shaha gunj(right Wing)"},"geometry":{"type":"Point","coordinates":[77.52203,17.913866]}},{"type":"Feature","properties":{"state":"Karnataka","district":5,"district_n":"BIDAR","pc":7,"pc_name":"Bidar","ac":50,"ac_name":"Bidar","booth":144,"booth_name":"Rait Bhavan Bhavan Building, Gandhi Gunj Room No 4 (right Side)"},"geometry":{"type":"Point","coordinates":[77.51458,17.9083]}},{"type":"Feature","properties":{"state":"Karnataka","district":5,"district_n":"BIDAR","pc":7,"pc_name":"Bidar","ac":50,"ac_name":"Bidar","booth":138,"booth_name":"Deputy Director of public Instruction Ddpi Office"},"geometry":{"type":"Point","coordinates":[77.51628,17.913084]}},{"type":"Feature","properties":{"state":"Karnataka","district":5,"district_n":"BIDAR","pc":7,"pc_name":"Bidar","ac":50,"ac_name":"Bidar","booth":152,"booth_name":"Govt Govt Govt Higher Primary School Building, (west Side)"},"geometry":{"type":"Point","coordinates":[77.4929352,17.9075165]}},{"type":"Feature","properties":{"state":"Karnataka","district":5,"district_n":"BIDAR","pc":7,"pc_name":"Bidar","ac":50,"ac_name":"Bidar","booth":155,"booth_name":"Jainbiya Self Banu urdu H R P S S Building, Hussaini Colony Chidri Bidar (left wing)"},"geometry":{"type":"Point","coordinates":[77.50935,17.9095]}},{"type":"Feature","properties":{"state":"Karnataka","district":5,"district_n":"BIDAR","pc":7,"pc_name":"Bidar","ac":50,"ac_name":"Bidar","booth":158,"booth_name":"Janata Co Education Higher Primary School, Chidri Road Haq Colony Colony (left Side) Room No 5"},"geometry":{"type":"Point","coordinates":[77.50629,17.9030342]}},{"type":"Feature","properties":{"state":"Karnataka","district":5,"district_n":"BIDAR","pc":7,"pc_name":"Bidar","ac":50,"ac_name":"Bidar","booth":167,"booth_name":"Govt Govt Higher Primary School Building (north Side)"},"geometry":{"type":"Point","coordinates":[77.5093,17.8905]}},{"type":"Feature","properties":{"state":"Karnataka","district":5,"district_n":"BIDAR","pc":7,"pc_name":"Bidar","ac":50,"ac_name":"Bidar","booth":170,"booth_name":"Govt Govt Higher Primary School Building (north Side)"},"geometry":{"type":"Point","coordinates":[77.50575,17.89025]}},{"type":"Feature","properties":{"state":"Karnataka","district":5,"district_n":"BIDAR","pc":7,"pc_name":"Bidar","ac":50,"ac_name":"Bidar","booth":159,"booth_name":"Janata Co Education Higher Primary School, Chidri Road Haq Colony Colony (right Side) Room No 4"},"geometry":{"type":"Point","coordinates":[77.50626,17.9029827]}},{"type":"Feature","properties":{"state":"Karnataka","district":5,"district_n":"BIDAR","pc":7,"pc_name":"Bidar","ac":50,"ac_name":"Bidar","booth":173,"booth_name":"Govt Govt I T I Building Room No 7 Manhalli Road Mailur (north Wing)"},"geometry":{"type":"Point","coordinates":[77.51365,17.8942165]}},{"type":"Feature","properties":{"state":"Karnataka","district":5,"district_n":"BIDAR","pc":7,"pc_name":"Bidar","ac":50,"ac_name":"Bidar","booth":176,"booth_name":"Nammur Lower Primery School (west Wing) Allam Prabhu Nagar"},"geometry":{"type":"Point","coordinates":[77.5186844,17.8842335]}},{"type":"Feature","properties":{"state":"Karnataka","district":5,"district_n":"BIDAR","pc":7,"pc_name":"Bidar","ac":50,"ac_name":"Bidar","booth":179,"booth_name":"Srimati Chikkamani D Devaraj Urs High School & Srimati Ittamma Public Higher Primery School Building"},"geometry":{"type":"Point","coordinates":[77.52216,17.8924332]}},{"type":"Feature","properties":{"state":"Karnataka","district":5,"district_n":"BIDAR","pc":7,"pc_name":"Bidar","ac":50,"ac_name":"Bidar","booth":199,"booth_name":"Norma Fendrich High School cum Junior College (beside Arts College Block), Mangalpet(left Wing) Bidar"},"geometry":{"type":"Point","coordinates":[77.53833,17.913784]}},{"type":"Feature","properties":{"state":"Karnataka","district":5,"district_n":"BIDAR","pc":7,"pc_name":"Bidar","ac":50,"ac_name":"Bidar","booth":192,"booth_name":"Disney Public English School Building, Near Abdul Faiz Darga, Faizapur"},"geometry":{"type":"Point","coordinates":[77.53751,17.9032669]}},{"type":"Feature","properties":{"state":"Karnataka","district":5,"district_n":"BIDAR","pc":7,"pc_name":"Bidar","ac":50,"ac_name":"Bidar","booth":195,"booth_name":"Executive Engineer Office ,p W D D Division Office, Mangalpet (west Wing)"},"geometry":{"type":"Point","coordinates":[77.53342,17.9077339]}},{"type":"Feature","properties":{"state":"Karnataka","district":5,"district_n":"BIDAR","pc":7,"pc_name":"Bidar","ac":50,"ac_name":"Bidar","booth":161,"booth_name":"Rani Kittur Chinnamma Higher Primary School Vidya Nagar Colony Colony (south Side)"},"geometry":{"type":"Point","coordinates":[77.51528,17.9029675]}},{"type":"Feature","properties":{"state":"Karnataka","district":5,"district_n":"BIDAR","pc":7,"pc_name":"Bidar","ac":50,"ac_name":"Bidar","booth":164,"booth_name":"Govt Govt Lower Primary School School Building, Harurgeri Jungle Koi"},"geometry":{"type":"Point","coordinates":[77.52126,17.9063663]}},{"type":"Feature","properties":{"state":"Karnataka","district":5,"district_n":"BIDAR","pc":7,"pc_name":"Bidar","ac":50,"ac_name":"Bidar","booth":172,"booth_name":"Govt Govt I T I I Building Room (right wing) Mailur road mannalli"},"geometry":{"type":"Point","coordinates":[77.5138855,17.894]}},{"type":"Feature","properties":{"state":"Karnataka","district":5,"district_n":"BIDAR","pc":7,"pc_name":"Bidar","ac":50,"ac_name":"Bidar","booth":175,"booth_name":"Nammur Lower Primery School (eat Wing) Allam Prabhu Nagar"},"geometry":{"type":"Point","coordinates":[77.51878,17.8842659]}},{"type":"Feature","properties":{"state":"Karnataka","district":5,"district_n":"BIDAR","pc":7,"pc_name":"Bidar","ac":50,"ac_name":"Bidar","booth":178,"booth_name":"Govt Govt Higher Primary School Building (west Side) Newly Constructed Class Room"},"geometry":{"type":"Point","coordinates":[77.52533,17.892]}},{"type":"Feature","properties":{"state":"Karnataka","district":5,"district_n":"BIDAR","pc":7,"pc_name":"Bidar","ac":50,"ac_name":"Bidar","booth":181,"booth_name":"Govt Govt Higher Primary School Building"},"geometry":{"type":"Point","coordinates":[77.53015,17.8968]}},{"type":"Feature","properties":{"state":"Karnataka","district":5,"district_n":"BIDAR","pc":7,"pc_name":"Bidar","ac":50,"ac_name":"Bidar","booth":184,"booth_name":"Old Gram Panchayat Office Building"},"geometry":{"type":"Point","coordinates":[77.52869,17.89875]}},{"type":"Feature","properties":{"state":"Karnataka","district":5,"district_n":"BIDAR","pc":7,"pc_name":"Bidar","ac":50,"ac_name":"Bidar","booth":198,"booth_name":"Govt Govt Model Primary School Building, Near Mangal Peth Peth Near, Madiwalappa Mandir"},"geometry":{"type":"Point","coordinates":[77.53692,17.9107]}},{"type":"Feature","properties":{"state":"Karnataka","district":5,"district_n":"BIDAR","pc":7,"pc_name":"Bidar","ac":50,"ac_name":"Bidar","booth":84,"booth_name":"Muncipal Higher Primary School Building Building near near Mangalpet gate (western Wing)"},"geometry":{"type":"Point","coordinates":[77.53384,17.9109]}},{"type":"Feature","properties":{"state":"Karnataka","district":5,"district_n":"BIDAR","pc":7,"pc_name":"Bidar","ac":50,"ac_name":"Bidar","booth":6,"booth_name":"Govt Higher Primary School Building (right Side)"},"geometry":{"type":"Point","coordinates":[77.51855,18.0273037]}},{"type":"Feature","properties":{"state":"Karnataka","district":5,"district_n":"BIDAR","pc":7,"pc_name":"Bidar","ac":50,"ac_name":"Bidar","booth":58,"booth_name":"Govt Govt Higher Primary School Building"},"geometry":{"type":"Point","coordinates":[77.5393143,17.9269829]}},{"type":"Feature","properties":{"state":"Karnataka","district":5,"district_n":"BIDAR","pc":7,"pc_name":"Bidar","ac":50,"ac_name":"Bidar","booth":9,"booth_name":"Govt Lower Primary School Building"},"geometry":{"type":"Point","coordinates":[77.54565,18.0153]}},{"type":"Feature","properties":{"state":"Karnataka","district":5,"district_n":"BIDAR","pc":7,"pc_name":"Bidar","ac":50,"ac_name":"Bidar","booth":18,"booth_name":"Govt Higher Primary School Building (left (left wing)"},"geometry":{"type":"Point","coordinates":[77.43236,18.0036049]}},{"type":"Feature","properties":{"state":"Karnataka","district":5,"district_n":"BIDAR","pc":7,"pc_name":"Bidar","ac":50,"ac_name":"Bidar","booth":26,"booth_name":"Gram Panchayat Building"},"geometry":{"type":"Point","coordinates":[77.59045,17.9999676]}},{"type":"Feature","properties":{"state":"Karnataka","district":5,"district_n":"BIDAR","pc":7,"pc_name":"Bidar","ac":50,"ac_name":"Bidar","booth":29,"booth_name":"Govt Lower Primary School Building"},"geometry":{"type":"Point","coordinates":[77.53592,17.9938564]}},{"type":"Feature","properties":{"state":"Karnataka","district":5,"district_n":"BIDAR","pc":7,"pc_name":"Bidar","ac":50,"ac_name":"Bidar","booth":38,"booth_name":"Govt H R P S Building"},"geometry":{"type":"Point","coordinates":[77.5512161,17.9789162]}},{"type":"Feature","properties":{"state":"Karnataka","district":5,"district_n":"BIDAR","pc":7,"pc_name":"Bidar","ac":50,"ac_name":"Bidar","booth":49,"booth_name":"Govt Lower Primary School Building"},"geometry":{"type":"Point","coordinates":[77.56437,17.9702168]}},{"type":"Feature","properties":{"state":"Karnataka","district":5,"district_n":"BIDAR","pc":7,"pc_name":"Bidar","ac":50,"ac_name":"Bidar","booth":69,"booth_name":"A I M S S College Campus Ambadas Galli Singar Bagah (north Room East wing)"},"geometry":{"type":"Point","coordinates":[77.53004,17.9130325]}},{"type":"Feature","properties":{"state":"Karnataka","district":5,"district_n":"BIDAR","pc":7,"pc_name":"Bidar","ac":50,"ac_name":"Bidar","booth":72,"booth_name":"Sharada primary and Intigreted P U College (central Wing)"},"geometry":{"type":"Point","coordinates":[77.52261,17.9126835]}},{"type":"Feature","properties":{"state":"Karnataka","district":5,"district_n":"BIDAR","pc":7,"pc_name":"Bidar","ac":50,"ac_name":"Bidar","booth":75,"booth_name":"Govt Govt Govt Jr Jr College (boys) Teachers Staff Room"},"geometry":{"type":"Point","coordinates":[77.52578,17.91295]}},{"type":"Feature","properties":{"state":"Karnataka","district":5,"district_n":"BIDAR","pc":7,"pc_name":"Bidar","ac":50,"ac_name":"Bidar","booth":78,"booth_name":"Govt Govt Govt C R S S Urdu Higher Primary School tamasikari galli pansal talim (north Side)"},"geometry":{"type":"Point","coordinates":[77.53008,17.9087658]}},{"type":"Feature","properties":{"state":"Karnataka","district":5,"district_n":"BIDAR","pc":7,"pc_name":"Bidar","ac":50,"ac_name":"Bidar","booth":12,"booth_name":"Samudaya Bhavana"},"geometry":{"type":"Point","coordinates":[77.56827,18.0093689]}},{"type":"Feature","properties":{"state":"Karnataka","district":5,"district_n":"BIDAR","pc":7,"pc_name":"Bidar","ac":50,"ac_name":"Bidar","booth":15,"booth_name":"Govt Lower Primary School Building"},"geometry":{"type":"Point","coordinates":[77.40466,18.00735]}},{"type":"Feature","properties":{"state":"Karnataka","district":5,"district_n":"BIDAR","pc":7,"pc_name":"Bidar","ac":50,"ac_name":"Bidar","booth":32,"booth_name":"Govt Higher Primary School Building (right wing)"},"geometry":{"type":"Point","coordinates":[77.49833,17.96612]}},{"type":"Feature","properties":{"state":"Karnataka","district":5,"district_n":"BIDAR","pc":7,"pc_name":"Bidar","ac":50,"ac_name":"Bidar","booth":35,"booth_name":"Govt Highe School Building (right wing)"},"geometry":{"type":"Point","coordinates":[77.49384,17.97323]}},{"type":"Feature","properties":{"state":"Karnataka","district":5,"district_n":"BIDAR","pc":7,"pc_name":"Bidar","ac":50,"ac_name":"Bidar","booth":46,"booth_name":"Grama Panchayat Office (new) Building"},"geometry":{"type":"Point","coordinates":[77.58465,17.94505]}},{"type":"Feature","properties":{"state":"Karnataka","district":5,"district_n":"BIDAR","pc":7,"pc_name":"Bidar","ac":50,"ac_name":"Bidar","booth":81,"booth_name":"Govt Govt Model Model Girls Girls Primary School Building (kannada) Choubara brahmanwadi (right Side)"},"geometry":{"type":"Point","coordinates":[77.5312,17.9103336]}}]}