{"type":"FeatureCollection","features":[{"type":"Feature","properties":{"state":"Karnataka","district":6,"district_n":"RAICHUR","pc":6,"pc_name":"Raichur","ac":53,"ac_name":"Raichur Rural","booth":3,"booth_name":"Govt Higher Primary School ( L W ) Kadloor"},"geometry":{"type":"Point","coordinates":[77.28976,16.3926849]}},{"type":"Feature","properties":{"state":"Karnataka","district":6,"district_n":"RAICHUR","pc":6,"pc_name":"Raichur","ac":53,"ac_name":"Raichur Rural","booth":9,"booth_name":"Rtps Rtps High School School School School School ( Rw ) ) Shakthinagar"},"geometry":{"type":"Point","coordinates":[77.35682,16.3696022]}},{"type":"Feature","properties":{"state":"Karnataka","district":6,"district_n":"RAICHUR","pc":6,"pc_name":"Raichur","ac":53,"ac_name":"Raichur Rural","booth":17,"booth_name":"Rtps Rtps Hps School School School School School School School School School School School School School School School School School School School School School School School School School School School School School School School School School School Sc"},"geometry":{"type":"Point","coordinates":[77.35726,16.3661938]}},{"type":"Feature","properties":{"state":"Karnataka","district":6,"district_n":"RAICHUR","pc":6,"pc_name":"Raichur","ac":53,"ac_name":"Raichur Rural","booth":18,"booth_name":"Gram panchyat Building Deosugur"},"geometry":{"type":"Point","coordinates":[77.3626251,16.37017]}},{"type":"Feature","properties":{"state":"Karnataka","district":6,"district_n":"RAICHUR","pc":6,"pc_name":"Raichur","ac":53,"ac_name":"Raichur Rural","booth":20,"booth_name":"Ghps School Building Building Building ( Left Wing Wing ) ) Deosugur"},"geometry":{"type":"Point","coordinates":[77.36218,16.36975]}},{"type":"Feature","properties":{"state":"Karnataka","district":6,"district_n":"RAICHUR","pc":6,"pc_name":"Raichur","ac":53,"ac_name":"Raichur Rural","booth":23,"booth_name":"Govt Higher Primary School School Building, Korthakunda"},"geometry":{"type":"Point","coordinates":[77.45699,16.3668766]}},{"type":"Feature","properties":{"state":"Karnataka","district":6,"district_n":"RAICHUR","pc":6,"pc_name":"Raichur","ac":53,"ac_name":"Raichur Rural","booth":26,"booth_name":"Govt Higher Primary School School Building ,korvakala"},"geometry":{"type":"Point","coordinates":[77.53914,16.35437]}},{"type":"Feature","properties":{"state":"Karnataka","district":6,"district_n":"RAICHUR","pc":6,"pc_name":"Raichur","ac":53,"ac_name":"Raichur Rural","booth":32,"booth_name":"Govt Higher Primary School Building, ( Rw ) Yedalapur"},"geometry":{"type":"Point","coordinates":[77.35477,16.3589859]}},{"type":"Feature","properties":{"state":"Karnataka","district":6,"district_n":"RAICHUR","pc":6,"pc_name":"Raichur","ac":53,"ac_name":"Raichur Rural","booth":34,"booth_name":"Govt Higher Primary School Building, Wadloor"},"geometry":{"type":"Point","coordinates":[77.37471,16.3175945]}},{"type":"Feature","properties":{"state":"Karnataka","district":6,"district_n":"RAICHUR","pc":6,"pc_name":"Raichur","ac":53,"ac_name":"Raichur Rural","booth":37,"booth_name":"Govt Higher Primary School School School Building Athkur"},"geometry":{"type":"Point","coordinates":[77.54022,16.33221]}},{"type":"Feature","properties":{"state":"Karnataka","district":6,"district_n":"RAICHUR","pc":6,"pc_name":"Raichur","ac":53,"ac_name":"Raichur Rural","booth":38,"booth_name":"Govt Higher Primary School Building Yeragunta"},"geometry":{"type":"Point","coordinates":[77.45722,16.32271]}},{"type":"Feature","properties":{"state":"Karnataka","district":6,"district_n":"RAICHUR","pc":6,"pc_name":"Raichur","ac":53,"ac_name":"Raichur Rural","booth":46,"booth_name":"Govt Lower Primary School School Building, ( New Building ) Sarjapur"},"geometry":{"type":"Point","coordinates":[77.55513,16.3177834]}},{"type":"Feature","properties":{"state":"Karnataka","district":6,"district_n":"RAICHUR","pc":6,"pc_name":"Raichur","ac":53,"ac_name":"Raichur Rural","booth":55,"booth_name":"Govt Govt Lower Primary School School Building,, Building,, Appandoddi"},"geometry":{"type":"Point","coordinates":[77.4755859,16.2902679]}},{"type":"Feature","properties":{"state":"Karnataka","district":6,"district_n":"RAICHUR","pc":6,"pc_name":"Raichur","ac":53,"ac_name":"Raichur Rural","booth":57,"booth_name":"Govt Govt Modle Higher Higher Primary School School Building, Building, Building, (east Wing ) New Building Yapaldinni"},"geometry":{"type":"Point","coordinates":[77.52252,16.29371]}},{"type":"Feature","properties":{"state":"Karnataka","district":6,"district_n":"RAICHUR","pc":6,"pc_name":"Raichur","ac":53,"ac_name":"Raichur Rural","booth":61,"booth_name":"Govt Govt Higher Higher Primary School School Building, Building, Building, Building, Building, Building, Building, Building, Building, Building, Building, Building, Building, Building, Building, Building, Building, Building, Building, Building, Building"},"geometry":{"type":"Point","coordinates":[77.30007,16.2891617]}},{"type":"Feature","properties":{"state":"Karnataka","district":6,"district_n":"RAICHUR","pc":6,"pc_name":"Raichur","ac":53,"ac_name":"Raichur Rural","booth":6,"booth_name":"Rtps Rtps Rtps Nursery School Building Building ( English Medium ) Shakthinagar"},"geometry":{"type":"Point","coordinates":[77.35728,16.3662319]}},{"type":"Feature","properties":{"state":"Karnataka","district":6,"district_n":"RAICHUR","pc":6,"pc_name":"Raichur","ac":53,"ac_name":"Raichur Rural","booth":11,"booth_name":"Rtps Hps School School School School School School School School School School School School School School School School School School School School School School School School School School School School School School School School School School School"},"geometry":{"type":"Point","coordinates":[77.35731,16.36607]}},{"type":"Feature","properties":{"state":"Karnataka","district":6,"district_n":"RAICHUR","pc":6,"pc_name":"Raichur","ac":53,"ac_name":"Raichur Rural","booth":12,"booth_name":"Rtps Rtps Hps School School School School School School School School School School School School School School School School School School School School School School School School School School School School School School School School School School Sc"},"geometry":{"type":"Point","coordinates":[77.357254,16.3660812]}},{"type":"Feature","properties":{"state":"Karnataka","district":6,"district_n":"RAICHUR","pc":6,"pc_name":"Raichur","ac":53,"ac_name":"Raichur Rural","booth":14,"booth_name":"Rtps Rtps Hps School School School School School School School School School School School School School School School School School School School School School School School School School School School School School School School School School School Sc"},"geometry":{"type":"Point","coordinates":[77.35728,16.3660851]}},{"type":"Feature","properties":{"state":"Karnataka","district":6,"district_n":"RAICHUR","pc":6,"pc_name":"Raichur","ac":53,"ac_name":"Raichur Rural","booth":15,"booth_name":"Rtps Hps School School School School School School School School School School School School School School School School School School School School School School School School School School School School School School School School School School School"},"geometry":{"type":"Point","coordinates":[77.3573151,16.3660259]}},{"type":"Feature","properties":{"state":"Karnataka","district":6,"district_n":"RAICHUR","pc":6,"pc_name":"Raichur","ac":53,"ac_name":"Raichur Rural","booth":35,"booth_name":"Govt Lower Primary School Building, Hanumandoddi"},"geometry":{"type":"Point","coordinates":[77.39224,16.3362446]}},{"type":"Feature","properties":{"state":"Karnataka","district":6,"district_n":"RAICHUR","pc":6,"pc_name":"Raichur","ac":53,"ac_name":"Raichur Rural","booth":40,"booth_name":"Govt Higher Primary School Building Building Bevinbenchi"},"geometry":{"type":"Point","coordinates":[77.2973557,16.3431931]}},{"type":"Feature","properties":{"state":"Karnataka","district":6,"district_n":"RAICHUR","pc":6,"pc_name":"Raichur","ac":53,"ac_name":"Raichur Rural","booth":43,"booth_name":"Govt Higher Primary School School Building, Sagamkunta"},"geometry":{"type":"Point","coordinates":[77.43387,16.2999058]}},{"type":"Feature","properties":{"state":"Karnataka","district":6,"district_n":"RAICHUR","pc":6,"pc_name":"Raichur","ac":53,"ac_name":"Raichur Rural","booth":49,"booth_name":"Govt Lower Primary School School Building, Building Building Mallapur (kalmala Circle)"},"geometry":{"type":"Point","coordinates":[77.28023,16.3139687]}},{"type":"Feature","properties":{"state":"Karnataka","district":6,"district_n":"RAICHUR","pc":6,"pc_name":"Raichur","ac":53,"ac_name":"Raichur Rural","booth":52,"booth_name":"Govt Govt Higher Higher Primary School School Building, ( West Wing ) Chikkasugur"},"geometry":{"type":"Point","coordinates":[77.3424759,16.309967]}},{"type":"Feature","properties":{"state":"Karnataka","district":6,"district_n":"RAICHUR","pc":6,"pc_name":"Raichur","ac":53,"ac_name":"Raichur Rural","booth":54,"booth_name":"Govt Govt Lower Lower Primary School School Building,, Building,, Raladoddi"},"geometry":{"type":"Point","coordinates":[77.46628,16.2901745]}},{"type":"Feature","properties":{"state":"Karnataka","district":6,"district_n":"RAICHUR","pc":6,"pc_name":"Raichur","ac":53,"ac_name":"Raichur Rural","booth":58,"booth_name":"Govt Govt Higher Higher Primary School School Building,gajaral"},"geometry":{"type":"Point","coordinates":[77.53557,16.2994]}},{"type":"Feature","properties":{"state":"Karnataka","district":6,"district_n":"RAICHUR","pc":6,"pc_name":"Raichur","ac":53,"ac_name":"Raichur Rural","booth":60,"booth_name":"Govt Govt Higher Higher Primary School School Building, Building, Building, Building, Building, Building, Building, Building, Building, Building, Building, Building, Building, Building, Building, Building, Building, Building, Building, Building, Building"},"geometry":{"type":"Point","coordinates":[77.30011,16.2891064]}},{"type":"Feature","properties":{"state":"Karnataka","district":6,"district_n":"RAICHUR","pc":6,"pc_name":"Raichur","ac":53,"ac_name":"Raichur Rural","booth":5,"booth_name":"Govt Lower Primary School School Karekal"},"geometry":{"type":"Point","coordinates":[77.3596649,16.2699337]}},{"type":"Feature","properties":{"state":"Karnataka","district":6,"district_n":"RAICHUR","pc":6,"pc_name":"Raichur","ac":53,"ac_name":"Raichur Rural","booth":19,"booth_name":"Ghps School Building Building ( ( Rw ) Deosugur"},"geometry":{"type":"Point","coordinates":[77.36218,16.3698711]}},{"type":"Feature","properties":{"state":"Karnataka","district":6,"district_n":"RAICHUR","pc":6,"pc_name":"Raichur","ac":53,"ac_name":"Raichur Rural","booth":22,"booth_name":"Govt Lower Primary School Building Korvihal"},"geometry":{"type":"Point","coordinates":[77.43338,16.35618]}},{"type":"Feature","properties":{"state":"Karnataka","district":6,"district_n":"RAICHUR","pc":6,"pc_name":"Raichur","ac":53,"ac_name":"Raichur Rural","booth":36,"booth_name":"Govt Higher Primary School Building, Mamadadoddi"},"geometry":{"type":"Point","coordinates":[77.46716,16.35377]}},{"type":"Feature","properties":{"state":"Karnataka","district":6,"district_n":"RAICHUR","pc":6,"pc_name":"Raichur","ac":53,"ac_name":"Raichur Rural","booth":39,"booth_name":"Govt Lower Primary School School Building G G Thimmapur"},"geometry":{"type":"Point","coordinates":[77.21939,16.3456974]}},{"type":"Feature","properties":{"state":"Karnataka","district":6,"district_n":"RAICHUR","pc":6,"pc_name":"Raichur","ac":53,"ac_name":"Raichur Rural","booth":45,"booth_name":"Govt Lower Primary School School Building, Kalavaldoddi"},"geometry":{"type":"Point","coordinates":[77.5227051,16.3133965]}},{"type":"Feature","properties":{"state":"Karnataka","district":6,"district_n":"RAICHUR","pc":6,"pc_name":"Raichur","ac":53,"ac_name":"Raichur Rural","booth":48,"booth_name":"Govt Lower Primary School School Building, Building, Building , G Hanumapur"},"geometry":{"type":"Point","coordinates":[77.22553,16.32249]}},{"type":"Feature","properties":{"state":"Karnataka","district":6,"district_n":"RAICHUR","pc":6,"pc_name":"Raichur","ac":53,"ac_name":"Raichur Rural","booth":51,"booth_name":"Govt Moddle Higher Higher Primary School School Building, Building, Building, Building, Building, Building, Building, Building, Building, Building, Building, Building, Building, Building, Building, Building, Building, Building, Building, Building, Buildi"},"geometry":{"type":"Point","coordinates":[77.28565,16.30744]}},{"type":"Feature","properties":{"state":"Karnataka","district":6,"district_n":"RAICHUR","pc":6,"pc_name":"Raichur","ac":53,"ac_name":"Raichur Rural","booth":8,"booth_name":"Rtps Rtps Rtps Rtps High School School School School ( L W ) ) Shakthinagar"},"geometry":{"type":"Point","coordinates":[77.3565445,16.369482]}},{"type":"Feature","properties":{"state":"Karnataka","district":6,"district_n":"RAICHUR","pc":6,"pc_name":"Raichur","ac":53,"ac_name":"Raichur Rural","booth":16,"booth_name":"Rtps Hps School Building 3 3 ( English Medium ) ) ) ) ) ) ) ) ) ) ) ) ) ) ) ) ) ) ) ) ) ) ) ) ) ) ) ) ) ) ) ) ) ) ) ) ) ) ) ) ) ) ) ) ) ) ) ) ) ) ) ) ) ) ) ) ) ) ) ) ) ) ) ) ) ) ) ) ) ) ) ) ) ) ) ) ) ) ) ) ) ) ) ) ) ) ) ) ) ) ) ) ) ) ( North Wing ) ) ) S"},"geometry":{"type":"Point","coordinates":[77.35721,16.3660946]}},{"type":"Feature","properties":{"state":"Karnataka","district":6,"district_n":"RAICHUR","pc":6,"pc_name":"Raichur","ac":53,"ac_name":"Raichur Rural","booth":25,"booth_name":"Govt Lower Primary Primary School Building ,korvakurdha"},"geometry":{"type":"Point","coordinates":[77.51393,16.359314]}},{"type":"Feature","properties":{"state":"Karnataka","district":6,"district_n":"RAICHUR","pc":6,"pc_name":"Raichur","ac":53,"ac_name":"Raichur Rural","booth":42,"booth_name":"Govtlower Primary School Building Building Ibrahimdoddi"},"geometry":{"type":"Point","coordinates":[77.42075,16.3228588]}},{"type":"Feature","properties":{"state":"Karnataka","district":6,"district_n":"RAICHUR","pc":6,"pc_name":"Raichur","ac":53,"ac_name":"Raichur Rural","booth":59,"booth_name":"Govt Govt Lower Primary School School Building,aralappanhuda"},"geometry":{"type":"Point","coordinates":[77.2206039,16.29537]}},{"type":"Feature","properties":{"state":"Karnataka","district":6,"district_n":"RAICHUR","pc":6,"pc_name":"Raichur","ac":53,"ac_name":"Raichur Rural","booth":2,"booth_name":"Govt Lower Primary School Gurjapur"},"geometry":{"type":"Point","coordinates":[77.25615,16.395998]}},{"type":"Feature","properties":{"state":"Karnataka","district":6,"district_n":"RAICHUR","pc":6,"pc_name":"Raichur","ac":53,"ac_name":"Raichur Rural","booth":10,"booth_name":"Rtps Hps School School School School School School School School School School School School School School School School School School School School School School School School School School School School School School School School School School School"},"geometry":{"type":"Point","coordinates":[77.35735,16.3659916]}},{"type":"Feature","properties":{"state":"Karnataka","district":6,"district_n":"RAICHUR","pc":6,"pc_name":"Raichur","ac":53,"ac_name":"Raichur Rural","booth":24,"booth_name":"Govt Higher Primary School School School Building, Dongarampur [l W]"},"geometry":{"type":"Point","coordinates":[77.5022659,16.3464222]}},{"type":"Feature","properties":{"state":"Karnataka","district":6,"district_n":"RAICHUR","pc":6,"pc_name":"Raichur","ac":53,"ac_name":"Raichur Rural","booth":27,"booth_name":"Govtlwer Primary School School Building, Hala Thimmapur"},"geometry":{"type":"Point","coordinates":[77.26779,16.3742485]}},{"type":"Feature","properties":{"state":"Karnataka","district":6,"district_n":"RAICHUR","pc":6,"pc_name":"Raichur","ac":53,"ac_name":"Raichur Rural","booth":44,"booth_name":"Govt Lower Primary School Building, Waddepalli"},"geometry":{"type":"Point","coordinates":[77.47879,16.3162785]}},{"type":"Feature","properties":{"state":"Karnataka","district":6,"district_n":"RAICHUR","pc":6,"pc_name":"Raichur","ac":53,"ac_name":"Raichur Rural","booth":1,"booth_name":"Govt Higher Primary School School Arshinagi"},"geometry":{"type":"Point","coordinates":[77.23089,16.41082]}},{"type":"Feature","properties":{"state":"Karnataka","district":6,"district_n":"RAICHUR","pc":6,"pc_name":"Raichur","ac":53,"ac_name":"Raichur Rural","booth":4,"booth_name":"Govt Higher Primary School ( R W ) Kadloor"},"geometry":{"type":"Point","coordinates":[77.28976,16.3926849]}},{"type":"Feature","properties":{"state":"Karnataka","district":6,"district_n":"RAICHUR","pc":6,"pc_name":"Raichur","ac":53,"ac_name":"Raichur Rural","booth":7,"booth_name":"Rtps Rtps Hps School School School School School School School School School School School School School School School School School School School School School School School School School School School School School School School School School School Sc"},"geometry":{"type":"Point","coordinates":[77.35705,16.3661213]}},{"type":"Feature","properties":{"state":"Karnataka","district":6,"district_n":"RAICHUR","pc":6,"pc_name":"Raichur","ac":53,"ac_name":"Raichur Rural","booth":13,"booth_name":"Rtps Hps School School School School School School School School School School School School School School School School School School School School School School School School School School School School School School School School School School School"},"geometry":{"type":"Point","coordinates":[77.35733,16.3660011]}},{"type":"Feature","properties":{"state":"Karnataka","district":6,"district_n":"RAICHUR","pc":6,"pc_name":"Raichur","ac":53,"ac_name":"Raichur Rural","booth":21,"booth_name":"Govt Higher Primary School School Ganjahalli"},"geometry":{"type":"Point","coordinates":[77.40911,16.3485622]}},{"type":"Feature","properties":{"state":"Karnataka","district":6,"district_n":"RAICHUR","pc":6,"pc_name":"Raichur","ac":53,"ac_name":"Raichur Rural","booth":33,"booth_name":"Govt Higher Primary School School Building, Heggasanhalli"},"geometry":{"type":"Point","coordinates":[77.347435,16.3229313]}},{"type":"Feature","properties":{"state":"Karnataka","district":6,"district_n":"RAICHUR","pc":6,"pc_name":"Raichur","ac":53,"ac_name":"Raichur Rural","booth":41,"booth_name":"Govt Higher Primary School Building Building Kudloor"},"geometry":{"type":"Point","coordinates":[77.39611,16.2996655]}},{"type":"Feature","properties":{"state":"Karnataka","district":6,"district_n":"RAICHUR","pc":6,"pc_name":"Raichur","ac":53,"ac_name":"Raichur Rural","booth":47,"booth_name":"Ggovt Lower Primary School School Building, Building, Building, Burdipada"},"geometry":{"type":"Point","coordinates":[77.587944,16.3269939]}},{"type":"Feature","properties":{"state":"Karnataka","district":6,"district_n":"RAICHUR","pc":6,"pc_name":"Raichur","ac":53,"ac_name":"Raichur Rural","booth":56,"booth_name":"Govt Govt Moddle Higher Higher Primary School School Building, Building, Building, Building, (north Wing ) Yapaldinni"},"geometry":{"type":"Point","coordinates":[77.52267,16.293766]}},{"type":"Feature","properties":{"state":"Karnataka","district":6,"district_n":"RAICHUR","pc":6,"pc_name":"Raichur","ac":53,"ac_name":"Raichur Rural","booth":50,"booth_name":"Govt Moddle Higher Higher Primary School School Building, Building, Building Building Building Building (north Wing ) Jegarkal"},"geometry":{"type":"Point","coordinates":[77.2859344,16.3073444]}},{"type":"Feature","properties":{"state":"Karnataka","district":6,"district_n":"RAICHUR","pc":6,"pc_name":"Raichur","ac":53,"ac_name":"Raichur Rural","booth":53,"booth_name":"Govt Govt Higher Higher Primary School School Building, Building, Building, Building, Building, Building, Building, Building, Building, Building, Building, Building, Building, Building, Building, Building, Building, Building, Building, Building, Building"},"geometry":{"type":"Point","coordinates":[77.34242,16.3098774]}},{"type":"Feature","properties":{"state":"Karnataka","district":6,"district_n":"RAICHUR","pc":6,"pc_name":"Raichur","ac":53,"ac_name":"Raichur Rural","booth":29,"booth_name":"Govt Lower Primary School School Building, Meerapur"},"geometry":{"type":"Point","coordinates":[77.24596,16.3709946]}},{"type":"Feature","properties":{"state":"Karnataka","district":6,"district_n":"RAICHUR","pc":6,"pc_name":"Raichur","ac":53,"ac_name":"Raichur Rural","booth":31,"booth_name":"Govt Higher Primary School Building,( Lw ) Yedalapur"},"geometry":{"type":"Point","coordinates":[77.3546143,16.3586845]}},{"type":"Feature","properties":{"state":"Karnataka","district":6,"district_n":"RAICHUR","pc":6,"pc_name":"Raichur","ac":53,"ac_name":"Raichur Rural","booth":28,"booth_name":"Govt Higher Primary School School Building, Hembaral"},"geometry":{"type":"Point","coordinates":[77.23568,16.35163]}},{"type":"Feature","properties":{"state":"Karnataka","district":6,"district_n":"RAICHUR","pc":6,"pc_name":"Raichur","ac":53,"ac_name":"Raichur Rural","booth":30,"booth_name":"Govt Lower Primary School School Building, Rangapur"},"geometry":{"type":"Point","coordinates":[77.307045,16.3658733]}}]}