{"type":"FeatureCollection","features":[{"type":"Feature","properties":{"state":"Karnataka","district":6,"district_n":"RAICHUR","pc":8,"pc_name":"Koppal","ac":58,"ac_name":"Sindhanur","booth":1,"booth_name":"Govt Higher Primary School Building (east Wing) Diddigi"},"geometry":{"type":"Point","coordinates":[76.82578,15.9310722]}},{"type":"Feature","properties":{"state":"Karnataka","district":6,"district_n":"RAICHUR","pc":8,"pc_name":"Koppal","ac":58,"ac_name":"Sindhanur","booth":99,"booth_name":"Govt Lower Primary School Building (north Wing) Indra Nagar Sidhanur"},"geometry":{"type":"Point","coordinates":[76.74609,15.7726021]}},{"type":"Feature","properties":{"state":"Karnataka","district":6,"district_n":"RAICHUR","pc":8,"pc_name":"Koppal","ac":58,"ac_name":"Sindhanur","booth":102,"booth_name":"Govt Lower Primary School Building (north Wing) Fort Area Sidhanur"},"geometry":{"type":"Point","coordinates":[76.75963,15.7750092]}},{"type":"Feature","properties":{"state":"Karnataka","district":6,"district_n":"RAICHUR","pc":8,"pc_name":"Koppal","ac":58,"ac_name":"Sindhanur","booth":113,"booth_name":"Ananda Hegade Memorial Higher Primary School Building(south Wing) Sindhanur"},"geometry":{"type":"Point","coordinates":[76.75232,15.7696714]}},{"type":"Feature","properties":{"state":"Karnataka","district":6,"district_n":"RAICHUR","pc":8,"pc_name":"Koppal","ac":58,"ac_name":"Sindhanur","booth":119,"booth_name":"Apmc Office(west Wing) Sindhanur"},"geometry":{"type":"Point","coordinates":[76.7464447,15.768918]}},{"type":"Feature","properties":{"state":"Karnataka","district":6,"district_n":"RAICHUR","pc":8,"pc_name":"Koppal","ac":58,"ac_name":"Sindhanur","booth":122,"booth_name":"T A P C M S Sindhanur"},"geometry":{"type":"Point","coordinates":[76.76167,15.7713537]}},{"type":"Feature","properties":{"state":"Karnataka","district":6,"district_n":"RAICHUR","pc":8,"pc_name":"Koppal","ac":58,"ac_name":"Sindhanur","booth":125,"booth_name":"Govt Higher Primary School Building Sukalapeta Sindhanur"},"geometry":{"type":"Point","coordinates":[76.76131,15.7711086]}},{"type":"Feature","properties":{"state":"Karnataka","district":6,"district_n":"RAICHUR","pc":8,"pc_name":"Koppal","ac":58,"ac_name":"Sindhanur","booth":27,"booth_name":"Govt Govt Higher Primary School Building Central State Farm"},"geometry":{"type":"Point","coordinates":[76.89073,15.8478889]}},{"type":"Feature","properties":{"state":"Karnataka","district":6,"district_n":"RAICHUR","pc":8,"pc_name":"Koppal","ac":58,"ac_name":"Sindhanur","booth":30,"booth_name":"Govt Govt Lower Primary School Building (right Wing) Kunnatagi"},"geometry":{"type":"Point","coordinates":[76.75178,15.8040829]}},{"type":"Feature","properties":{"state":"Karnataka","district":6,"district_n":"RAICHUR","pc":8,"pc_name":"Koppal","ac":58,"ac_name":"Sindhanur","booth":36,"booth_name":"Govt Govt Higher Primary School Building Pagadaddini"},"geometry":{"type":"Point","coordinates":[76.75178,15.8040829]}},{"type":"Feature","properties":{"state":"Karnataka","district":6,"district_n":"RAICHUR","pc":8,"pc_name":"Koppal","ac":58,"ac_name":"Sindhanur","booth":42,"booth_name":"Govt Govt Higher Primary School Building (east Wing) Yeddaladoddi"},"geometry":{"type":"Point","coordinates":[76.90941,15.8079376]}},{"type":"Feature","properties":{"state":"Karnataka","district":6,"district_n":"RAICHUR","pc":8,"pc_name":"Koppal","ac":58,"ac_name":"Sindhanur","booth":50,"booth_name":"Samudaya Bhavan Building Raitanagara Camp"},"geometry":{"type":"Point","coordinates":[76.77433,15.8275166]}},{"type":"Feature","properties":{"state":"Karnataka","district":6,"district_n":"RAICHUR","pc":8,"pc_name":"Koppal","ac":58,"ac_name":"Sindhanur","booth":53,"booth_name":"Govt Govt Lower Primary School Building Ramanagara Camp"},"geometry":{"type":"Point","coordinates":[76.826,15.8508806]}},{"type":"Feature","properties":{"state":"Karnataka","district":6,"district_n":"RAICHUR","pc":8,"pc_name":"Koppal","ac":58,"ac_name":"Sindhanur","booth":90,"booth_name":"Vssn Building Sindhanur"},"geometry":{"type":"Point","coordinates":[76.75646,15.77229]}},{"type":"Feature","properties":{"state":"Karnataka","district":6,"district_n":"RAICHUR","pc":8,"pc_name":"Koppal","ac":58,"ac_name":"Sindhanur","booth":116,"booth_name":"M Mallappa Memorial Sarvodaya Higher Primary School Building Sindhanur"},"geometry":{"type":"Point","coordinates":[76.7495956,15.7657852]}},{"type":"Feature","properties":{"state":"Karnataka","district":6,"district_n":"RAICHUR","pc":8,"pc_name":"Koppal","ac":58,"ac_name":"Sindhanur","booth":10,"booth_name":"Govt Govt Higher Primary School Building (east Wing) Ragalparvi"},"geometry":{"type":"Point","coordinates":[76.91382,15.8844271]}},{"type":"Feature","properties":{"state":"Karnataka","district":6,"district_n":"RAICHUR","pc":8,"pc_name":"Koppal","ac":58,"ac_name":"Sindhanur","booth":13,"booth_name":"Govt Govt Lower Primary School Building (wast Wing) Dhumti"},"geometry":{"type":"Point","coordinates":[76.94496,15.8692265]}},{"type":"Feature","properties":{"state":"Karnataka","district":6,"district_n":"RAICHUR","pc":8,"pc_name":"Koppal","ac":58,"ac_name":"Sindhanur","booth":16,"booth_name":"Govt Govt Higher Primary School Building (west Wing) Gonvar"},"geometry":{"type":"Point","coordinates":[76.969635,15.8683805]}},{"type":"Feature","properties":{"state":"Karnataka","district":6,"district_n":"RAICHUR","pc":8,"pc_name":"Koppal","ac":58,"ac_name":"Sindhanur","booth":114,"booth_name":"Venkateshwar High School Building(east Wing) Adrsha Colony Sindhanurvenkateshwar High School Building(east Wing) Adrsha Colony Sindhanur"},"geometry":{"type":"Point","coordinates":[76.75219,15.7656584]}},{"type":"Feature","properties":{"state":"Karnataka","district":6,"district_n":"RAICHUR","pc":8,"pc_name":"Koppal","ac":58,"ac_name":"Sindhanur","booth":2,"booth_name":"Govt Govt Higher Primary School Building (west Wing) Diddigi"},"geometry":{"type":"Point","coordinates":[76.82589,15.9310627]}},{"type":"Feature","properties":{"state":"Karnataka","district":6,"district_n":"RAICHUR","pc":8,"pc_name":"Koppal","ac":58,"ac_name":"Sindhanur","booth":120,"booth_name":"Apmc Office(east Wing) Sindhanur"},"geometry":{"type":"Point","coordinates":[76.7463,15.7688408]}},{"type":"Feature","properties":{"state":"Karnataka","district":6,"district_n":"RAICHUR","pc":8,"pc_name":"Koppal","ac":58,"ac_name":"Sindhanur","booth":131,"booth_name":"Govt Higher Primary School Building Gomarsi"},"geometry":{"type":"Point","coordinates":[76.80645,15.754056]}},{"type":"Feature","properties":{"state":"Karnataka","district":6,"district_n":"RAICHUR","pc":8,"pc_name":"Koppal","ac":58,"ac_name":"Sindhanur","booth":7,"booth_name":"Govt Govt Higher Primary School Building Yapalaparvi"},"geometry":{"type":"Point","coordinates":[76.8932343,15.9097433]}},{"type":"Feature","properties":{"state":"Karnataka","district":6,"district_n":"RAICHUR","pc":8,"pc_name":"Koppal","ac":58,"ac_name":"Sindhanur","booth":19,"booth_name":"Govt Govt Lower Primary School Building Turkatti (d)"},"geometry":{"type":"Point","coordinates":[76.84105,15.8562555]}},{"type":"Feature","properties":{"state":"Karnataka","district":6,"district_n":"RAICHUR","pc":8,"pc_name":"Koppal","ac":58,"ac_name":"Sindhanur","booth":33,"booth_name":"Govt Govt Higher Primary School Building Harapur"},"geometry":{"type":"Point","coordinates":[76.69022,15.8644924]}},{"type":"Feature","properties":{"state":"Karnataka","district":6,"district_n":"RAICHUR","pc":8,"pc_name":"Koppal","ac":58,"ac_name":"Sindhanur","booth":39,"booth_name":"Govt Govt Lower Primary School Building Mullur (ej)"},"geometry":{"type":"Point","coordinates":[76.76025,15.7878876]}},{"type":"Feature","properties":{"state":"Karnataka","district":6,"district_n":"RAICHUR","pc":8,"pc_name":"Koppal","ac":58,"ac_name":"Sindhanur","booth":56,"booth_name":"Govt Govt Lower Primary School Building (east Wing) Rh Camp 2 1"},"geometry":{"type":"Point","coordinates":[76.84795,15.8027458]}},{"type":"Feature","properties":{"state":"Karnataka","district":6,"district_n":"RAICHUR","pc":8,"pc_name":"Koppal","ac":58,"ac_name":"Sindhanur","booth":59,"booth_name":"Govt Govt Lower Primary School Building (east Wing) Araginamara Camp"},"geometry":{"type":"Point","coordinates":[76.79545,15.8331776]}},{"type":"Feature","properties":{"state":"Karnataka","district":6,"district_n":"RAICHUR","pc":8,"pc_name":"Koppal","ac":58,"ac_name":"Sindhanur","booth":62,"booth_name":"Govt Govt Higher Upgraded Primary School Building (east Wing) Rh Camp 4"},"geometry":{"type":"Point","coordinates":[76.8499146,15.8168535]}},{"type":"Feature","properties":{"state":"Karnataka","district":6,"district_n":"RAICHUR","pc":8,"pc_name":"Koppal","ac":58,"ac_name":"Sindhanur","booth":70,"booth_name":"Govt Govt Higher Primary School Building Badarli"},"geometry":{"type":"Point","coordinates":[76.9038849,15.77328]}},{"type":"Feature","properties":{"state":"Karnataka","district":6,"district_n":"RAICHUR","pc":8,"pc_name":"Koppal","ac":58,"ac_name":"Sindhanur","booth":73,"booth_name":"Govt Govt Lower Primary School Building (west Wing) Ginivar"},"geometry":{"type":"Point","coordinates":[76.9241257,15.7671614]}},{"type":"Feature","properties":{"state":"Karnataka","district":6,"district_n":"RAICHUR","pc":8,"pc_name":"Koppal","ac":58,"ac_name":"Sindhanur","booth":76,"booth_name":"Govt Govt Lower Primary School Building Devicamp"},"geometry":{"type":"Point","coordinates":[76.75597,15.7721519]}},{"type":"Feature","properties":{"state":"Karnataka","district":6,"district_n":"RAICHUR","pc":8,"pc_name":"Koppal","ac":58,"ac_name":"Sindhanur","booth":79,"booth_name":"Govt Govt Higher Primary School Building Bommanala (ej)"},"geometry":{"type":"Point","coordinates":[76.71166,15.7983456]}},{"type":"Feature","properties":{"state":"Karnataka","district":6,"district_n":"RAICHUR","pc":8,"pc_name":"Koppal","ac":58,"ac_name":"Sindhanur","booth":82,"booth_name":"City Munciple Council Samudaya Bhavan Building Sindhanur"},"geometry":{"type":"Point","coordinates":[76.75968,15.7754831]}},{"type":"Feature","properties":{"state":"Karnataka","district":6,"district_n":"RAICHUR","pc":8,"pc_name":"Koppal","ac":58,"ac_name":"Sindhanur","booth":93,"booth_name":"Govt Higher Primary School Building(west Wing) Sindhanur"},"geometry":{"type":"Point","coordinates":[76.7556,15.7740812]}},{"type":"Feature","properties":{"state":"Karnataka","district":6,"district_n":"RAICHUR","pc":8,"pc_name":"Koppal","ac":58,"ac_name":"Sindhanur","booth":96,"booth_name":"Shankar Trust College Building(south Wing) Nataraj Colony Sindhanur"},"geometry":{"type":"Point","coordinates":[76.75134,15.7728624]}},{"type":"Feature","properties":{"state":"Karnataka","district":6,"district_n":"RAICHUR","pc":8,"pc_name":"Koppal","ac":58,"ac_name":"Sindhanur","booth":126,"booth_name":"Govt Model Higher Primary School Building Tbp Camp Sindhanur"},"geometry":{"type":"Point","coordinates":[76.7665558,15.7866278]}},{"type":"Feature","properties":{"state":"Karnataka","district":6,"district_n":"RAICHUR","pc":8,"pc_name":"Koppal","ac":58,"ac_name":"Sindhanur","booth":127,"booth_name":"Karnataka Electricity Board Office(north Wing)sindhanur"},"geometry":{"type":"Point","coordinates":[76.7689,15.785162]}},{"type":"Feature","properties":{"state":"Karnataka","district":6,"district_n":"RAICHUR","pc":8,"pc_name":"Koppal","ac":58,"ac_name":"Sindhanur","booth":129,"booth_name":"Govt Model Higher Primary School Building Tbp Camp(south Wing) Sindhanur"},"geometry":{"type":"Point","coordinates":[76.76674,15.7864037]}},{"type":"Feature","properties":{"state":"Karnataka","district":6,"district_n":"RAICHUR","pc":8,"pc_name":"Koppal","ac":58,"ac_name":"Sindhanur","booth":130,"booth_name":"Govt Lower Primary School Building Maski Road Pwd Camp Sindhanur"},"geometry":{"type":"Point","coordinates":[76.76883,15.7880678]}},{"type":"Feature","properties":{"state":"Karnataka","district":6,"district_n":"RAICHUR","pc":8,"pc_name":"Koppal","ac":58,"ac_name":"Sindhanur","booth":132,"booth_name":"Govt Higher Primary School Building Udbal(j)"},"geometry":{"type":"Point","coordinates":[76.79665,15.7582083]}},{"type":"Feature","properties":{"state":"Karnataka","district":6,"district_n":"RAICHUR","pc":8,"pc_name":"Koppal","ac":58,"ac_name":"Sindhanur","booth":28,"booth_name":"Govt Govt Higher Primary School Building Chitrali"},"geometry":{"type":"Point","coordinates":[76.99602,15.8189936]}},{"type":"Feature","properties":{"state":"Karnataka","district":6,"district_n":"RAICHUR","pc":8,"pc_name":"Koppal","ac":58,"ac_name":"Sindhanur","booth":31,"booth_name":"Govt Govt Lower Primary School Building (north Wing) Kunnatag Camp"},"geometry":{"type":"Point","coordinates":[76.7258148,15.8409672]}},{"type":"Feature","properties":{"state":"Karnataka","district":6,"district_n":"RAICHUR","pc":8,"pc_name":"Koppal","ac":58,"ac_name":"Sindhanur","booth":37,"booth_name":"Govt Govt Higher Primary School Building (south Wing) Pagadaddini Camp"},"geometry":{"type":"Point","coordinates":[76.7258148,15.8409672]}},{"type":"Feature","properties":{"state":"Karnataka","district":6,"district_n":"RAICHUR","pc":8,"pc_name":"Koppal","ac":58,"ac_name":"Sindhanur","booth":51,"booth_name":"Laibrary Building Raitanagara Camp"},"geometry":{"type":"Point","coordinates":[76.77433,15.8275166]}},{"type":"Feature","properties":{"state":"Karnataka","district":6,"district_n":"RAICHUR","pc":8,"pc_name":"Koppal","ac":58,"ac_name":"Sindhanur","booth":54,"booth_name":"Govt Govt Lower Primary School Building R H Camp"},"geometry":{"type":"Point","coordinates":[76.80936,15.8225269]}},{"type":"Feature","properties":{"state":"Karnataka","district":6,"district_n":"RAICHUR","pc":8,"pc_name":"Koppal","ac":58,"ac_name":"Sindhanur","booth":65,"booth_name":"Govt Govt Lower Primary School Building Bangali Camp"},"geometry":{"type":"Point","coordinates":[76.88044,15.8006]}},{"type":"Feature","properties":{"state":"Karnataka","district":6,"district_n":"RAICHUR","pc":8,"pc_name":"Koppal","ac":58,"ac_name":"Sindhanur","booth":91,"booth_name":"Govt Urdu Higher Primary School Building(near Masjid) Sndhanur"},"geometry":{"type":"Point","coordinates":[76.75339,15.77415]}},{"type":"Feature","properties":{"state":"Karnataka","district":6,"district_n":"RAICHUR","pc":8,"pc_name":"Koppal","ac":58,"ac_name":"Sindhanur","booth":94,"booth_name":"Primary Co Operative Agriculture & Rural Land Dev Bank Ltd ( West Wing) Sindhanur"},"geometry":{"type":"Point","coordinates":[76.75651,15.772028]}},{"type":"Feature","properties":{"state":"Karnataka","district":6,"district_n":"RAICHUR","pc":8,"pc_name":"Koppal","ac":58,"ac_name":"Sindhanur","booth":117,"booth_name":"Govt Urdu And Kannada Lower Primary School Building Khadiriya Colony (north Wing) Sindhanur"},"geometry":{"type":"Point","coordinates":[76.74797,15.7677431]}},{"type":"Feature","properties":{"state":"Karnataka","district":6,"district_n":"RAICHUR","pc":8,"pc_name":"Koppal","ac":58,"ac_name":"Sindhanur","booth":128,"booth_name":"Karnataka Electricity Board Office Gta Division (south Wing)sindhanur"},"geometry":{"type":"Point","coordinates":[76.7689,15.784996]}},{"type":"Feature","properties":{"state":"Karnataka","district":6,"district_n":"RAICHUR","pc":8,"pc_name":"Koppal","ac":58,"ac_name":"Sindhanur","booth":11,"booth_name":"Govt Govt Higher Primary School Building (east Wing) Puladinni"},"geometry":{"type":"Point","coordinates":[76.93221,15.8797169]}},{"type":"Feature","properties":{"state":"Karnataka","district":6,"district_n":"RAICHUR","pc":8,"pc_name":"Koppal","ac":58,"ac_name":"Sindhanur","booth":14,"booth_name":"Govt Govt Lower Primary School Building Hulagunchi"},"geometry":{"type":"Point","coordinates":[76.9930649,15.8645134]}},{"type":"Feature","properties":{"state":"Karnataka","district":6,"district_n":"RAICHUR","pc":8,"pc_name":"Koppal","ac":58,"ac_name":"Sindhanur","booth":68,"booth_name":"Govt Govt Higher Primary School Building (west Wing) Alabanur"},"geometry":{"type":"Point","coordinates":[76.869606,15.7656336]}},{"type":"Feature","properties":{"state":"Karnataka","district":6,"district_n":"RAICHUR","pc":8,"pc_name":"Koppal","ac":58,"ac_name":"Sindhanur","booth":5,"booth_name":"Govt Govt Higher Primary School Building (north Wing) Ramatnal"},"geometry":{"type":"Point","coordinates":[76.85801,15.9251738]}},{"type":"Feature","properties":{"state":"Karnataka","district":6,"district_n":"RAICHUR","pc":8,"pc_name":"Koppal","ac":58,"ac_name":"Sindhanur","booth":8,"booth_name":"Govt Govt Higher Primary School Building Walkamdinni"},"geometry":{"type":"Point","coordinates":[76.90018,15.9034042]}},{"type":"Feature","properties":{"state":"Karnataka","district":6,"district_n":"RAICHUR","pc":8,"pc_name":"Koppal","ac":58,"ac_name":"Sindhanur","booth":22,"booth_name":"Govt Govt Model Higher Primary School (west Wing) Javalager"},"geometry":{"type":"Point","coordinates":[76.81623,15.8644161]}},{"type":"Feature","properties":{"state":"Karnataka","district":6,"district_n":"RAICHUR","pc":8,"pc_name":"Koppal","ac":58,"ac_name":"Sindhanur","booth":25,"booth_name":"Govt Govt Higher Primary School Building Srinivas Camp"},"geometry":{"type":"Point","coordinates":[76.76365,15.8672028]}},{"type":"Feature","properties":{"state":"Karnataka","district":6,"district_n":"RAICHUR","pc":8,"pc_name":"Koppal","ac":58,"ac_name":"Sindhanur","booth":34,"booth_name":"Govt Govt Lower Primary School Building Yelekudligi Camp"},"geometry":{"type":"Point","coordinates":[76.6875,15.8709364]}},{"type":"Feature","properties":{"state":"Karnataka","district":6,"district_n":"RAICHUR","pc":8,"pc_name":"Koppal","ac":58,"ac_name":"Sindhanur","booth":45,"booth_name":"Govt Govt Higher Primary School Building (west Wing ) Hediginal"},"geometry":{"type":"Point","coordinates":[76.9729843,15.80529]}},{"type":"Feature","properties":{"state":"Karnataka","district":6,"district_n":"RAICHUR","pc":8,"pc_name":"Koppal","ac":58,"ac_name":"Sindhanur","booth":48,"booth_name":"Govt Govt Lower Primary School Building Ramreddy Camp"},"geometry":{"type":"Point","coordinates":[76.7743454,15.8275261]}},{"type":"Feature","properties":{"state":"Karnataka","district":6,"district_n":"RAICHUR","pc":8,"pc_name":"Koppal","ac":58,"ac_name":"Sindhanur","booth":57,"booth_name":"Govt Govt Lower Primary School Building (east Wing) Rh Camp 2 2"},"geometry":{"type":"Point","coordinates":[76.8480759,15.8029833]}},{"type":"Feature","properties":{"state":"Karnataka","district":6,"district_n":"RAICHUR","pc":8,"pc_name":"Koppal","ac":58,"ac_name":"Sindhanur","booth":71,"booth_name":"Govt Govt Higher Primary School Building Valabellary"},"geometry":{"type":"Point","coordinates":[76.94282,15.7675943]}},{"type":"Feature","properties":{"state":"Karnataka","district":6,"district_n":"RAICHUR","pc":8,"pc_name":"Koppal","ac":58,"ac_name":"Sindhanur","booth":74,"booth_name":"Govt Govt Higher Primary School Building Chirtnal"},"geometry":{"type":"Point","coordinates":[76.6926346,15.7761688]}},{"type":"Feature","properties":{"state":"Karnataka","district":6,"district_n":"RAICHUR","pc":8,"pc_name":"Koppal","ac":58,"ac_name":"Sindhanur","booth":77,"booth_name":"Samudaya Bhavana Building Geetha Camp"},"geometry":{"type":"Point","coordinates":[76.7630539,15.8157921]}},{"type":"Feature","properties":{"state":"Karnataka","district":6,"district_n":"RAICHUR","pc":8,"pc_name":"Koppal","ac":58,"ac_name":"Sindhanur","booth":85,"booth_name":"Urdu High School Building (east Wing) Badi Bes Sindhanur"},"geometry":{"type":"Point","coordinates":[76.75422,15.7739983]}},{"type":"Feature","properties":{"state":"Karnataka","district":6,"district_n":"RAICHUR","pc":8,"pc_name":"Koppal","ac":58,"ac_name":"Sindhanur","booth":88,"booth_name":"Primary Co Operative Agriculture & Rural Land Dev Bank Ltd ( East Wing) Sindhanur"},"geometry":{"type":"Point","coordinates":[76.75631,15.7719526]}},{"type":"Feature","properties":{"state":"Karnataka","district":6,"district_n":"RAICHUR","pc":8,"pc_name":"Koppal","ac":58,"ac_name":"Sindhanur","booth":97,"booth_name":"Glory School Building(middle Wing) Nataraj Colony Sindhanur"},"geometry":{"type":"Point","coordinates":[76.74968,15.7726765]}},{"type":"Feature","properties":{"state":"Karnataka","district":6,"district_n":"RAICHUR","pc":8,"pc_name":"Koppal","ac":58,"ac_name":"Sindhanur","booth":105,"booth_name":"Govt Central Lower Primary School Building (east Wing 2) Sindhanur"},"geometry":{"type":"Point","coordinates":[76.75833,15.77211]}},{"type":"Feature","properties":{"state":"Karnataka","district":6,"district_n":"RAICHUR","pc":8,"pc_name":"Koppal","ac":58,"ac_name":"Sindhanur","booth":108,"booth_name":"Seva Bharathi Kannada Higher Primary School Building(north Wing) Sindhanur"},"geometry":{"type":"Point","coordinates":[76.7581558,15.7664948]}},{"type":"Feature","properties":{"state":"Karnataka","district":6,"district_n":"RAICHUR","pc":8,"pc_name":"Koppal","ac":58,"ac_name":"Sindhanur","booth":111,"booth_name":"Girija Mahila College Building (west Wing) Maheboob Colony Sindhanur"},"geometry":{"type":"Point","coordinates":[76.76126,15.7692652]}},{"type":"Feature","properties":{"state":"Karnataka","district":6,"district_n":"RAICHUR","pc":8,"pc_name":"Koppal","ac":58,"ac_name":"Sindhanur","booth":3,"booth_name":"Govt Govt Higher Primary School Building Banniganur"},"geometry":{"type":"Point","coordinates":[76.87539,15.9222736]}},{"type":"Feature","properties":{"state":"Karnataka","district":6,"district_n":"RAICHUR","pc":8,"pc_name":"Koppal","ac":58,"ac_name":"Sindhanur","booth":4,"booth_name":"Samudaya Bhaven Building Banniganuru"},"geometry":{"type":"Point","coordinates":[76.86039,15.8676214]}},{"type":"Feature","properties":{"state":"Karnataka","district":6,"district_n":"RAICHUR","pc":8,"pc_name":"Koppal","ac":58,"ac_name":"Sindhanur","booth":6,"booth_name":"Govt Govt Higher Primary School Building (south Wing) Ramatnal"},"geometry":{"type":"Point","coordinates":[76.8579941,15.9251709]}},{"type":"Feature","properties":{"state":"Karnataka","district":6,"district_n":"RAICHUR","pc":8,"pc_name":"Koppal","ac":58,"ac_name":"Sindhanur","booth":9,"booth_name":"Govt Govt Higher Primary School Building (north Wing) Ragalaparvi"},"geometry":{"type":"Point","coordinates":[76.91381,15.8844471]}},{"type":"Feature","properties":{"state":"Karnataka","district":6,"district_n":"RAICHUR","pc":8,"pc_name":"Koppal","ac":58,"ac_name":"Sindhanur","booth":12,"booth_name":"Govt Govt Lower Primary School Building (east Wing) Dhumti"},"geometry":{"type":"Point","coordinates":[76.9449539,15.8692284]}},{"type":"Feature","properties":{"state":"Karnataka","district":6,"district_n":"RAICHUR","pc":8,"pc_name":"Koppal","ac":58,"ac_name":"Sindhanur","booth":15,"booth_name":"Govt Govt Higher Primary School Building (east Wing) Gonvar"},"geometry":{"type":"Point","coordinates":[76.96962,15.8683872]}},{"type":"Feature","properties":{"state":"Karnataka","district":6,"district_n":"RAICHUR","pc":8,"pc_name":"Koppal","ac":58,"ac_name":"Sindhanur","booth":17,"booth_name":"Govt Govt Lower Primary School Building Ayanur"},"geometry":{"type":"Point","coordinates":[77.01515,15.8416014]}},{"type":"Feature","properties":{"state":"Karnataka","district":6,"district_n":"RAICHUR","pc":8,"pc_name":"Koppal","ac":58,"ac_name":"Sindhanur","booth":18,"booth_name":"Govt Govt Higher Primary School Building Jangamar Hatti"},"geometry":{"type":"Point","coordinates":[76.7928162,15.8712006]}},{"type":"Feature","properties":{"state":"Karnataka","district":6,"district_n":"RAICHUR","pc":8,"pc_name":"Koppal","ac":58,"ac_name":"Sindhanur","booth":20,"booth_name":"Govt Govt Model Higher Primary School (west Wing) Javalager"},"geometry":{"type":"Point","coordinates":[76.81662,15.8655787]}},{"type":"Feature","properties":{"state":"Karnataka","district":6,"district_n":"RAICHUR","pc":8,"pc_name":"Koppal","ac":58,"ac_name":"Sindhanur","booth":21,"booth_name":"Govt Govt Model Higher Primary School (east Wing) Javalager"},"geometry":{"type":"Point","coordinates":[76.81645,15.865344]}},{"type":"Feature","properties":{"state":"Karnataka","district":6,"district_n":"RAICHUR","pc":8,"pc_name":"Koppal","ac":58,"ac_name":"Sindhanur","booth":23,"booth_name":"Govt Govt High School Building (wast Wing) Javalager"},"geometry":{"type":"Point","coordinates":[76.8163,15.8641491]}},{"type":"Feature","properties":{"state":"Karnataka","district":6,"district_n":"RAICHUR","pc":8,"pc_name":"Koppal","ac":58,"ac_name":"Sindhanur","booth":24,"booth_name":"Govt Govt Pu College New Building Javalager"},"geometry":{"type":"Point","coordinates":[76.8164139,15.8640862]}},{"type":"Feature","properties":{"state":"Karnataka","district":6,"district_n":"RAICHUR","pc":8,"pc_name":"Koppal","ac":58,"ac_name":"Sindhanur","booth":26,"booth_name":"Govt Govt Higher Primary School Building Timmapur"},"geometry":{"type":"Point","coordinates":[76.87726,15.8259821]}},{"type":"Feature","properties":{"state":"Karnataka","district":6,"district_n":"RAICHUR","pc":8,"pc_name":"Koppal","ac":58,"ac_name":"Sindhanur","booth":29,"booth_name":"Govt Govt Lower Primary School Building Chintamanadoddi"},"geometry":{"type":"Point","coordinates":[77.00366,15.8361416]}},{"type":"Feature","properties":{"state":"Karnataka","district":6,"district_n":"RAICHUR","pc":8,"pc_name":"Koppal","ac":58,"ac_name":"Sindhanur","booth":32,"booth_name":"Govt Govt Lower Primary School Building Bassapur (ej)"},"geometry":{"type":"Point","coordinates":[76.6926346,15.7761688]}},{"type":"Feature","properties":{"state":"Karnataka","district":6,"district_n":"RAICHUR","pc":8,"pc_name":"Koppal","ac":58,"ac_name":"Sindhanur","booth":35,"booth_name":"Govt Govt Higher Primary School Building Yelekudligi"},"geometry":{"type":"Point","coordinates":[76.6926346,15.7761688]}},{"type":"Feature","properties":{"state":"Karnataka","district":6,"district_n":"RAICHUR","pc":8,"pc_name":"Koppal","ac":58,"ac_name":"Sindhanur","booth":38,"booth_name":"Govt Govt Lower Primary School Building Tippanahatti"},"geometry":{"type":"Point","coordinates":[76.743515,15.8746538]}},{"type":"Feature","properties":{"state":"Karnataka","district":6,"district_n":"RAICHUR","pc":8,"pc_name":"Koppal","ac":58,"ac_name":"Sindhanur","booth":40,"booth_name":"Shambulingeshwara Lower Primary School Building Mullur (ej) Camp"},"geometry":{"type":"Point","coordinates":[76.77433,15.8275166]}},{"type":"Feature","properties":{"state":"Karnataka","district":6,"district_n":"RAICHUR","pc":8,"pc_name":"Koppal","ac":58,"ac_name":"Sindhanur","booth":41,"booth_name":"Govt Govt Higher Primary School Building Sultanpur"},"geometry":{"type":"Point","coordinates":[76.79334,15.8683033]}},{"type":"Feature","properties":{"state":"Karnataka","district":6,"district_n":"RAICHUR","pc":8,"pc_name":"Koppal","ac":58,"ac_name":"Sindhanur","booth":43,"booth_name":"Govt Govt Higher Primary School Building (west Wing) Yeddaladoddi"},"geometry":{"type":"Point","coordinates":[76.90993,15.8080158]}},{"type":"Feature","properties":{"state":"Karnataka","district":6,"district_n":"RAICHUR","pc":8,"pc_name":"Koppal","ac":58,"ac_name":"Sindhanur","booth":44,"booth_name":"Govt Govt Higher Primary School Building (east Wing ) Hediginal"},"geometry":{"type":"Point","coordinates":[76.9732742,15.8054123]}},{"type":"Feature","properties":{"state":"Karnataka","district":6,"district_n":"RAICHUR","pc":8,"pc_name":"Koppal","ac":58,"ac_name":"Sindhanur","booth":46,"booth_name":"Anganawadi Building Kallur Camp"},"geometry":{"type":"Point","coordinates":[76.7743454,15.8275261]}},{"type":"Feature","properties":{"state":"Karnataka","district":6,"district_n":"RAICHUR","pc":8,"pc_name":"Koppal","ac":58,"ac_name":"Sindhanur","booth":47,"booth_name":"Govt Govt Lower Primary School Building Kallur"},"geometry":{"type":"Point","coordinates":[76.75178,15.8040829]}},{"type":"Feature","properties":{"state":"Karnataka","district":6,"district_n":"RAICHUR","pc":8,"pc_name":"Koppal","ac":58,"ac_name":"Sindhanur","booth":49,"booth_name":"Govt Govt Lower Primary School Building Butaladinni"},"geometry":{"type":"Point","coordinates":[76.76025,15.7878876]}},{"type":"Feature","properties":{"state":"Karnataka","district":6,"district_n":"RAICHUR","pc":8,"pc_name":"Koppal","ac":58,"ac_name":"Sindhanur","booth":52,"booth_name":"Govt Govt Lower Primary School Building Venkataramanagara Camp"},"geometry":{"type":"Point","coordinates":[76.8001556,15.8473835]}},{"type":"Feature","properties":{"state":"Karnataka","district":6,"district_n":"RAICHUR","pc":8,"pc_name":"Koppal","ac":58,"ac_name":"Sindhanur","booth":55,"booth_name":"Govt Govt Lower Primary School Building Eranna Camp"},"geometry":{"type":"Point","coordinates":[76.825,15.82114]}},{"type":"Feature","properties":{"state":"Karnataka","district":6,"district_n":"RAICHUR","pc":8,"pc_name":"Koppal","ac":58,"ac_name":"Sindhanur","booth":58,"booth_name":"Govt Govt Lower Primary School Building (west Wing) Rh Camp 2 3"},"geometry":{"type":"Point","coordinates":[76.84815,15.80288]}},{"type":"Feature","properties":{"state":"Karnataka","district":6,"district_n":"RAICHUR","pc":8,"pc_name":"Koppal","ac":58,"ac_name":"Sindhanur","booth":60,"booth_name":"Govt Govt Lower Primary School Building (east Wing) Rh Camp 3"},"geometry":{"type":"Point","coordinates":[76.81011,15.80395]}},{"type":"Feature","properties":{"state":"Karnataka","district":6,"district_n":"RAICHUR","pc":8,"pc_name":"Koppal","ac":58,"ac_name":"Sindhanur","booth":61,"booth_name":"Govt Govt Lower Primary School Building (west Wing) Rh Camp 3"},"geometry":{"type":"Point","coordinates":[76.81013,15.8040113]}},{"type":"Feature","properties":{"state":"Karnataka","district":6,"district_n":"RAICHUR","pc":8,"pc_name":"Koppal","ac":58,"ac_name":"Sindhanur","booth":63,"booth_name":"Govt Govt Higher Upgraded Primary School Building (west Wing) Rh Camp 4"},"geometry":{"type":"Point","coordinates":[76.8499146,15.8166914]}},{"type":"Feature","properties":{"state":"Karnataka","district":6,"district_n":"RAICHUR","pc":8,"pc_name":"Koppal","ac":58,"ac_name":"Sindhanur","booth":64,"booth_name":"Govt Govt Lower Primary School Building (south Wing) Belagurki"},"geometry":{"type":"Point","coordinates":[76.8536,15.752]}},{"type":"Feature","properties":{"state":"Karnataka","district":6,"district_n":"RAICHUR","pc":8,"pc_name":"Koppal","ac":58,"ac_name":"Sindhanur","booth":66,"booth_name":"Govt Govt Lower Primary School Building Basava Rajeshwari Camp"},"geometry":{"type":"Point","coordinates":[76.85253,15.8016253]}},{"type":"Feature","properties":{"state":"Karnataka","district":6,"district_n":"RAICHUR","pc":8,"pc_name":"Koppal","ac":58,"ac_name":"Sindhanur","booth":67,"booth_name":"Govt Govt Higher Primary School Building (east Wing) Alabanur"},"geometry":{"type":"Point","coordinates":[76.86948,15.765728]}},{"type":"Feature","properties":{"state":"Karnataka","district":6,"district_n":"RAICHUR","pc":8,"pc_name":"Koppal","ac":58,"ac_name":"Sindhanur","booth":69,"booth_name":"Govt Govt Lower Primary School Building Haretnur"},"geometry":{"type":"Point","coordinates":[76.6926346,15.7761688]}},{"type":"Feature","properties":{"state":"Karnataka","district":6,"district_n":"RAICHUR","pc":8,"pc_name":"Koppal","ac":58,"ac_name":"Sindhanur","booth":72,"booth_name":"Govt Govt Lower Primary School Building (east Wing) Ginivar"},"geometry":{"type":"Point","coordinates":[76.9245148,15.7669325]}},{"type":"Feature","properties":{"state":"Karnataka","district":6,"district_n":"RAICHUR","pc":8,"pc_name":"Koppal","ac":58,"ac_name":"Sindhanur","booth":75,"booth_name":"Govt Govt Lower Primary School New Building Devaragudi"},"geometry":{"type":"Point","coordinates":[76.75178,15.8040829]}},{"type":"Feature","properties":{"state":"Karnataka","district":6,"district_n":"RAICHUR","pc":8,"pc_name":"Koppal","ac":58,"ac_name":"Sindhanur","booth":78,"booth_name":"Govt Govt Higher Primary School Building Mallapur"},"geometry":{"type":"Point","coordinates":[76.75597,15.7721519]}},{"type":"Feature","properties":{"state":"Karnataka","district":6,"district_n":"RAICHUR","pc":8,"pc_name":"Koppal","ac":58,"ac_name":"Sindhanur","booth":80,"booth_name":"Govt Govt Higher Primary School Building Katugara Oni Sindhanur"},"geometry":{"type":"Point","coordinates":[76.75883,15.7761889]}},{"type":"Feature","properties":{"state":"Karnataka","district":6,"district_n":"RAICHUR","pc":8,"pc_name":"Koppal","ac":58,"ac_name":"Sindhanur","booth":81,"booth_name":"City Munciple Council Samudaya Bhavan Building (west Wing) Sindhanur"},"geometry":{"type":"Point","coordinates":[76.75964,15.7753534]}},{"type":"Feature","properties":{"state":"Karnataka","district":6,"district_n":"RAICHUR","pc":8,"pc_name":"Koppal","ac":58,"ac_name":"Sindhanur","booth":83,"booth_name":"Govt Govt Higher Primary School Building (east Wing) Upparwadi Sindhanur"},"geometry":{"type":"Point","coordinates":[76.75536,15.7749424]}},{"type":"Feature","properties":{"state":"Karnataka","district":6,"district_n":"RAICHUR","pc":8,"pc_name":"Koppal","ac":58,"ac_name":"Sindhanur","booth":84,"booth_name":"Govt Govt Higher Primary School Building (west Wing) Upparawadi Sindhanur"},"geometry":{"type":"Point","coordinates":[76.75545,15.7748337]}},{"type":"Feature","properties":{"state":"Karnataka","district":6,"district_n":"RAICHUR","pc":8,"pc_name":"Koppal","ac":58,"ac_name":"Sindhanur","booth":86,"booth_name":"Urdu High School Building (west Wing) Badi Bes Sindhanur"},"geometry":{"type":"Point","coordinates":[76.7541656,15.7740574]}},{"type":"Feature","properties":{"state":"Karnataka","district":6,"district_n":"RAICHUR","pc":8,"pc_name":"Koppal","ac":58,"ac_name":"Sindhanur","booth":87,"booth_name":"Govt Govt Higher Primary School Building (north Wing) Upparawadi Sindhanur"},"geometry":{"type":"Point","coordinates":[76.7554,15.7748547]}},{"type":"Feature","properties":{"state":"Karnataka","district":6,"district_n":"RAICHUR","pc":8,"pc_name":"Koppal","ac":58,"ac_name":"Sindhanur","booth":89,"booth_name":"Primary Co Operative Agriculture & Rural Land Dev Bank Meeting Hall Sindhanur"},"geometry":{"type":"Point","coordinates":[76.7563553,15.7719364]}},{"type":"Feature","properties":{"state":"Karnataka","district":6,"district_n":"RAICHUR","pc":8,"pc_name":"Koppal","ac":58,"ac_name":"Sindhanur","booth":92,"booth_name":"Govt Higher Primary School Building(east Wing) Sindhanur"},"geometry":{"type":"Point","coordinates":[76.75381,15.7743006]}},{"type":"Feature","properties":{"state":"Karnataka","district":6,"district_n":"RAICHUR","pc":8,"pc_name":"Koppal","ac":58,"ac_name":"Sindhanur","booth":95,"booth_name":"Shankar Trust College Building(north Wing) Nataraj Colony Sindhanur"},"geometry":{"type":"Point","coordinates":[76.75131,15.772954]}},{"type":"Feature","properties":{"state":"Karnataka","district":6,"district_n":"RAICHUR","pc":8,"pc_name":"Koppal","ac":58,"ac_name":"Sindhanur","booth":98,"booth_name":"Glory School Building Nataraj Colony Sindhanur"},"geometry":{"type":"Point","coordinates":[76.74974,15.772686]}},{"type":"Feature","properties":{"state":"Karnataka","district":6,"district_n":"RAICHUR","pc":8,"pc_name":"Koppal","ac":58,"ac_name":"Sindhanur","booth":100,"booth_name":"Govt Lower Primary School Building (south Wing) Indra Nagar Sidhanur"},"geometry":{"type":"Point","coordinates":[76.74614,15.7725029]}},{"type":"Feature","properties":{"state":"Karnataka","district":6,"district_n":"RAICHUR","pc":8,"pc_name":"Koppal","ac":58,"ac_name":"Sindhanur","booth":101,"booth_name":"Govt Lower Primary School Building (south Wing) Fort Area Sidhanur"},"geometry":{"type":"Point","coordinates":[76.7596741,15.7750664]}},{"type":"Feature","properties":{"state":"Karnataka","district":6,"district_n":"RAICHUR","pc":8,"pc_name":"Koppal","ac":58,"ac_name":"Sindhanur","booth":103,"booth_name":"Asst Director Of Animal Husbandry Office Sindhanur"},"geometry":{"type":"Point","coordinates":[76.76103,15.77178]}},{"type":"Feature","properties":{"state":"Karnataka","district":6,"district_n":"RAICHUR","pc":8,"pc_name":"Koppal","ac":58,"ac_name":"Sindhanur","booth":104,"booth_name":"Govt Girls College Building(north Wing) Sindhanur"},"geometry":{"type":"Point","coordinates":[76.75832,15.7727041]}},{"type":"Feature","properties":{"state":"Karnataka","district":6,"district_n":"RAICHUR","pc":8,"pc_name":"Koppal","ac":58,"ac_name":"Sindhanur","booth":106,"booth_name":"Govt Lower Primary School Building (south Wing)basaveshvar Colony Sindhanur"},"geometry":{"type":"Point","coordinates":[76.7573,15.76414]}},{"type":"Feature","properties":{"state":"Karnataka","district":6,"district_n":"RAICHUR","pc":8,"pc_name":"Koppal","ac":58,"ac_name":"Sindhanur","booth":107,"booth_name":"Govt Lower Primary School Building (north Wing) Basaveshvar Colony Sindhanur"},"geometry":{"type":"Point","coordinates":[76.75743,15.7641888]}},{"type":"Feature","properties":{"state":"Karnataka","district":6,"district_n":"RAICHUR","pc":8,"pc_name":"Koppal","ac":58,"ac_name":"Sindhanur","booth":109,"booth_name":"Seva Bharathi Kannada Higher Primary School Building(south Wing) Sindhanu"},"geometry":{"type":"Point","coordinates":[76.758194,15.7664709]}},{"type":"Feature","properties":{"state":"Karnataka","district":6,"district_n":"RAICHUR","pc":8,"pc_name":"Koppal","ac":58,"ac_name":"Sindhanur","booth":110,"booth_name":"Girija Mahila College Building (east Wing) Maheboob Colony Sindhanur"},"geometry":{"type":"Point","coordinates":[76.76125,15.769186]}},{"type":"Feature","properties":{"state":"Karnataka","district":6,"district_n":"RAICHUR","pc":8,"pc_name":"Koppal","ac":58,"ac_name":"Sindhanur","booth":112,"booth_name":"Ananda Hegade Memorial Higher Primary School Building(north Wing) Sindhanur"},"geometry":{"type":"Point","coordinates":[76.75218,15.7696457]}},{"type":"Feature","properties":{"state":"Karnataka","district":6,"district_n":"RAICHUR","pc":8,"pc_name":"Koppal","ac":58,"ac_name":"Sindhanur","booth":115,"booth_name":"Venkateshwar High School Building(west Wing) Adarsha Colony Sindhanur"},"geometry":{"type":"Point","coordinates":[76.75207,15.7656746]}},{"type":"Feature","properties":{"state":"Karnataka","district":6,"district_n":"RAICHUR","pc":8,"pc_name":"Koppal","ac":58,"ac_name":"Sindhanur","booth":118,"booth_name":"Govt Urdu And Kannada Lower Primary School Building Khadiriya Colony (south Wing) Sindhanur"},"geometry":{"type":"Point","coordinates":[76.74796,15.76781]}},{"type":"Feature","properties":{"state":"Karnataka","district":6,"district_n":"RAICHUR","pc":8,"pc_name":"Koppal","ac":58,"ac_name":"Sindhanur","booth":121,"booth_name":"Govt Lower Primary School Building Ak Gopal Nagar Sindhanur"},"geometry":{"type":"Point","coordinates":[76.75174,15.752614]}},{"type":"Feature","properties":{"state":"Karnataka","district":6,"district_n":"RAICHUR","pc":8,"pc_name":"Koppal","ac":58,"ac_name":"Sindhanur","booth":123,"booth_name":"Women's Welfare Center Sukalapet Sindhanur"},"geometry":{"type":"Point","coordinates":[76.76406,15.7702446]}},{"type":"Feature","properties":{"state":"Karnataka","district":6,"district_n":"RAICHUR","pc":8,"pc_name":"Koppal","ac":58,"ac_name":"Sindhanur","booth":124,"booth_name":"Dr Br Ambedkar Bhavan Sukalapeta Sindhanur"},"geometry":{"type":"Point","coordinates":[76.7640152,15.7705526]}}]}