{"type":"FeatureCollection","features":[{"type":"Feature","properties":{"state":"Karnataka","district":7,"district_n":"KOPPAL","pc":8,"pc_name":"Koppal","ac":60,"ac_name":"Kushtagi","booth":151,"booth_name":"Ghp School"},"geometry":{"type":"Point","coordinates":[76.33047,15.7714815]}},{"type":"Feature","properties":{"state":"Karnataka","district":7,"district_n":"KOPPAL","pc":8,"pc_name":"Koppal","ac":60,"ac_name":"Kushtagi","booth":153,"booth_name":"Glp School"},"geometry":{"type":"Point","coordinates":[76.32182,15.7745285]}},{"type":"Feature","properties":{"state":"Karnataka","district":7,"district_n":"KOPPAL","pc":8,"pc_name":"Koppal","ac":60,"ac_name":"Kushtagi","booth":155,"booth_name":"Gmhp School (east Wing)"},"geometry":{"type":"Point","coordinates":[76.27825,15.7660236]}},{"type":"Feature","properties":{"state":"Karnataka","district":7,"district_n":"KOPPAL","pc":8,"pc_name":"Koppal","ac":60,"ac_name":"Kushtagi","booth":157,"booth_name":"Grama Panchayat Office"},"geometry":{"type":"Point","coordinates":[76.2773361,15.7660437]}},{"type":"Feature","properties":{"state":"Karnataka","district":7,"district_n":"KOPPAL","pc":8,"pc_name":"Koppal","ac":60,"ac_name":"Kushtagi","booth":158,"booth_name":"Shri G S Pu College New Building (south Wing)"},"geometry":{"type":"Point","coordinates":[76.27568,15.7660913]}},{"type":"Feature","properties":{"state":"Karnataka","district":7,"district_n":"KOPPAL","pc":8,"pc_name":"Koppal","ac":60,"ac_name":"Kushtagi","booth":154,"booth_name":"Ghp School"},"geometry":{"type":"Point","coordinates":[76.28386,15.8114853]}},{"type":"Feature","properties":{"state":"Karnataka","district":7,"district_n":"KOPPAL","pc":8,"pc_name":"Koppal","ac":60,"ac_name":"Kushtagi","booth":161,"booth_name":"Gbhp School Krishnagiri Colony Right Wing"},"geometry":{"type":"Point","coordinates":[76.1974,15.7505713]}},{"type":"Feature","properties":{"state":"Karnataka","district":7,"district_n":"KOPPAL","pc":8,"pc_name":"Koppal","ac":60,"ac_name":"Kushtagi","booth":162,"booth_name":"Gbp School Krishnagiri Colony Left Wing"},"geometry":{"type":"Point","coordinates":[76.1975,15.7506952]}},{"type":"Feature","properties":{"state":"Karnataka","district":7,"district_n":"KOPPAL","pc":8,"pc_name":"Koppal","ac":60,"ac_name":"Kushtagi","booth":163,"booth_name":"T A P C M S S Office East Wing"},"geometry":{"type":"Point","coordinates":[76.1916962,15.7535954]}},{"type":"Feature","properties":{"state":"Karnataka","district":7,"district_n":"KOPPAL","pc":8,"pc_name":"Koppal","ac":60,"ac_name":"Kushtagi","booth":165,"booth_name":"Gbhp School School Building Branch School"},"geometry":{"type":"Point","coordinates":[76.19219,15.752902]}},{"type":"Feature","properties":{"state":"Karnataka","district":7,"district_n":"KOPPAL","pc":8,"pc_name":"Koppal","ac":60,"ac_name":"Kushtagi","booth":167,"booth_name":"Gbhp School Building (branch School)"},"geometry":{"type":"Point","coordinates":[76.19214,15.7528553]}},{"type":"Feature","properties":{"state":"Karnataka","district":7,"district_n":"KOPPAL","pc":8,"pc_name":"Koppal","ac":60,"ac_name":"Kushtagi","booth":164,"booth_name":"T A P C M S S Office West Wing"},"geometry":{"type":"Point","coordinates":[76.1916,15.75338]}},{"type":"Feature","properties":{"state":"Karnataka","district":7,"district_n":"KOPPAL","pc":8,"pc_name":"Koppal","ac":60,"ac_name":"Kushtagi","booth":170,"booth_name":"Corporation Office Staff Room (west Wing)"},"geometry":{"type":"Point","coordinates":[76.18882,15.7544384]}},{"type":"Feature","properties":{"state":"Karnataka","district":7,"district_n":"KOPPAL","pc":8,"pc_name":"Koppal","ac":60,"ac_name":"Kushtagi","booth":172,"booth_name":"G U H P P School New Building (south wing)"},"geometry":{"type":"Point","coordinates":[76.1866455,15.75856]}},{"type":"Feature","properties":{"state":"Karnataka","district":7,"district_n":"KOPPAL","pc":8,"pc_name":"Koppal","ac":60,"ac_name":"Kushtagi","booth":175,"booth_name":"Gbhp School East Wing"},"geometry":{"type":"Point","coordinates":[76.19037,15.7616749]}},{"type":"Feature","properties":{"state":"Karnataka","district":7,"district_n":"KOPPAL","pc":8,"pc_name":"Koppal","ac":60,"ac_name":"Kushtagi","booth":177,"booth_name":"Gghp School School Main Building,"},"geometry":{"type":"Point","coordinates":[76.192215,15.7589531]}},{"type":"Feature","properties":{"state":"Karnataka","district":7,"district_n":"KOPPAL","pc":8,"pc_name":"Koppal","ac":60,"ac_name":"Kushtagi","booth":178,"booth_name":"Agricultural Devalopment Market Office Building"},"geometry":{"type":"Point","coordinates":[76.19511,15.7570829]}},{"type":"Feature","properties":{"state":"Karnataka","district":7,"district_n":"KOPPAL","pc":8,"pc_name":"Koppal","ac":60,"ac_name":"Kushtagi","booth":179,"booth_name":"Taluk Panchayat Office"},"geometry":{"type":"Point","coordinates":[76.1923752,15.7537432]}},{"type":"Feature","properties":{"state":"Karnataka","district":7,"district_n":"KOPPAL","pc":8,"pc_name":"Koppal","ac":60,"ac_name":"Kushtagi","booth":176,"booth_name":"Gbhp School (west Wing)"},"geometry":{"type":"Point","coordinates":[76.1906357,15.7614965]}},{"type":"Feature","properties":{"state":"Karnataka","district":7,"district_n":"KOPPAL","pc":8,"pc_name":"Koppal","ac":60,"ac_name":"Kushtagi","booth":180,"booth_name":"S K N N A A K"},"geometry":{"type":"Point","coordinates":[76.19265,15.7542982]}},{"type":"Feature","properties":{"state":"Karnataka","district":7,"district_n":"KOPPAL","pc":8,"pc_name":"Koppal","ac":60,"ac_name":"Kushtagi","booth":182,"booth_name":"Glp School School Building"},"geometry":{"type":"Point","coordinates":[76.19627,15.7952337]}},{"type":"Feature","properties":{"state":"Karnataka","district":7,"district_n":"KOPPAL","pc":8,"pc_name":"Koppal","ac":60,"ac_name":"Kushtagi","booth":184,"booth_name":"Ghp School (east Wing)"},"geometry":{"type":"Point","coordinates":[76.17636,15.8004236]}},{"type":"Feature","properties":{"state":"Karnataka","district":7,"district_n":"KOPPAL","pc":8,"pc_name":"Koppal","ac":60,"ac_name":"Kushtagi","booth":188,"booth_name":"Ghp School"},"geometry":{"type":"Point","coordinates":[76.12465,15.7609987]}},{"type":"Feature","properties":{"state":"Karnataka","district":7,"district_n":"KOPPAL","pc":8,"pc_name":"Koppal","ac":60,"ac_name":"Kushtagi","booth":189,"booth_name":"Ghp School"},"geometry":{"type":"Point","coordinates":[76.08426,15.7724752]}},{"type":"Feature","properties":{"state":"Karnataka","district":7,"district_n":"KOPPAL","pc":8,"pc_name":"Koppal","ac":60,"ac_name":"Kushtagi","booth":191,"booth_name":"Glp School"},"geometry":{"type":"Point","coordinates":[76.08186,15.77434]}},{"type":"Feature","properties":{"state":"Karnataka","district":7,"district_n":"KOPPAL","pc":8,"pc_name":"Koppal","ac":60,"ac_name":"Kushtagi","booth":193,"booth_name":"Ghp School East Wing"},"geometry":{"type":"Point","coordinates":[76.0700455,15.79412]}},{"type":"Feature","properties":{"state":"Karnataka","district":7,"district_n":"KOPPAL","pc":8,"pc_name":"Koppal","ac":60,"ac_name":"Kushtagi","booth":195,"booth_name":"Glp School"},"geometry":{"type":"Point","coordinates":[76.07659,15.83101]}},{"type":"Feature","properties":{"state":"Karnataka","district":7,"district_n":"KOPPAL","pc":8,"pc_name":"Koppal","ac":60,"ac_name":"Kushtagi","booth":200,"booth_name":"Ghp Ghp School"},"geometry":{"type":"Point","coordinates":[75.96088,15.8279581]}},{"type":"Feature","properties":{"state":"Karnataka","district":7,"district_n":"KOPPAL","pc":8,"pc_name":"Koppal","ac":60,"ac_name":"Kushtagi","booth":203,"booth_name":"Ghp Ghp School"},"geometry":{"type":"Point","coordinates":[75.92007,15.8223686]}},{"type":"Feature","properties":{"state":"Karnataka","district":7,"district_n":"KOPPAL","pc":8,"pc_name":"Koppal","ac":60,"ac_name":"Kushtagi","booth":204,"booth_name":"Ghp Ghp School"},"geometry":{"type":"Point","coordinates":[75.89958,15.8439064]}},{"type":"Feature","properties":{"state":"Karnataka","district":7,"district_n":"KOPPAL","pc":8,"pc_name":"Koppal","ac":60,"ac_name":"Kushtagi","booth":5,"booth_name":"Glp School"},"geometry":{"type":"Point","coordinates":[76.01579,15.9845266]}},{"type":"Feature","properties":{"state":"Karnataka","district":7,"district_n":"KOPPAL","pc":8,"pc_name":"Koppal","ac":60,"ac_name":"Kushtagi","booth":6,"booth_name":"Gmhp School (west Left Wing)"},"geometry":{"type":"Point","coordinates":[76.05383,15.9528017]}},{"type":"Feature","properties":{"state":"Karnataka","district":7,"district_n":"KOPPAL","pc":8,"pc_name":"Koppal","ac":60,"ac_name":"Kushtagi","booth":8,"booth_name":"Gram panchayiti kacheri"},"geometry":{"type":"Point","coordinates":[76.05769,15.9554081]}},{"type":"Feature","properties":{"state":"Karnataka","district":7,"district_n":"KOPPAL","pc":8,"pc_name":"Koppal","ac":60,"ac_name":"Kushtagi","booth":14,"booth_name":"Ghp School (east Wing)"},"geometry":{"type":"Point","coordinates":[75.98093,15.9506388]}},{"type":"Feature","properties":{"state":"Karnataka","district":7,"district_n":"KOPPAL","pc":8,"pc_name":"Koppal","ac":60,"ac_name":"Kushtagi","booth":15,"booth_name":"Ghp School New building ( South Wing)"},"geometry":{"type":"Point","coordinates":[75.98075,15.9506617]}},{"type":"Feature","properties":{"state":"Karnataka","district":7,"district_n":"KOPPAL","pc":8,"pc_name":"Koppal","ac":60,"ac_name":"Kushtagi","booth":16,"booth_name":"Ghp School (east Wing)"},"geometry":{"type":"Point","coordinates":[75.99686,15.92182]}},{"type":"Feature","properties":{"state":"Karnataka","district":7,"district_n":"KOPPAL","pc":8,"pc_name":"Koppal","ac":60,"ac_name":"Kushtagi","booth":23,"booth_name":"Glp School"},"geometry":{"type":"Point","coordinates":[76.0719452,15.8913612]}},{"type":"Feature","properties":{"state":"Karnataka","district":7,"district_n":"KOPPAL","pc":8,"pc_name":"Koppal","ac":60,"ac_name":"Kushtagi","booth":24,"booth_name":"Ghp School"},"geometry":{"type":"Point","coordinates":[76.10404,15.8657017]}},{"type":"Feature","properties":{"state":"Karnataka","district":7,"district_n":"KOPPAL","pc":8,"pc_name":"Koppal","ac":60,"ac_name":"Kushtagi","booth":28,"booth_name":"Glp School"},"geometry":{"type":"Point","coordinates":[76.19824,15.9092913]}},{"type":"Feature","properties":{"state":"Karnataka","district":7,"district_n":"KOPPAL","pc":8,"pc_name":"Koppal","ac":60,"ac_name":"Kushtagi","booth":29,"booth_name":"G H P P School School (east Wing)"},"geometry":{"type":"Point","coordinates":[76.2054,15.9233112]}},{"type":"Feature","properties":{"state":"Karnataka","district":7,"district_n":"KOPPAL","pc":8,"pc_name":"Koppal","ac":60,"ac_name":"Kushtagi","booth":30,"booth_name":"Ghp School South Wing"},"geometry":{"type":"Point","coordinates":[76.2051239,15.9233418]}},{"type":"Feature","properties":{"state":"Karnataka","district":7,"district_n":"KOPPAL","pc":8,"pc_name":"Koppal","ac":60,"ac_name":"Kushtagi","booth":35,"booth_name":"Government Model Higher Primery School (north Wing)"},"geometry":{"type":"Point","coordinates":[76.29537,15.8883152]}},{"type":"Feature","properties":{"state":"Karnataka","district":7,"district_n":"KOPPAL","pc":8,"pc_name":"Koppal","ac":60,"ac_name":"Kushtagi","booth":36,"booth_name":"Gmhp School (west Wing)"},"geometry":{"type":"Point","coordinates":[76.28608,15.8860779]}},{"type":"Feature","properties":{"state":"Karnataka","district":7,"district_n":"KOPPAL","pc":8,"pc_name":"Koppal","ac":60,"ac_name":"Kushtagi","booth":37,"booth_name":"Ghp School School Bilding"},"geometry":{"type":"Point","coordinates":[76.333786,15.9009047]}},{"type":"Feature","properties":{"state":"Karnataka","district":7,"district_n":"KOPPAL","pc":8,"pc_name":"Koppal","ac":60,"ac_name":"Kushtagi","booth":38,"booth_name":"Ghp School School Bilding"},"geometry":{"type":"Point","coordinates":[76.3457947,15.8506718]}},{"type":"Feature","properties":{"state":"Karnataka","district":7,"district_n":"KOPPAL","pc":8,"pc_name":"Koppal","ac":60,"ac_name":"Kushtagi","booth":39,"booth_name":"Glp School, buildiung"},"geometry":{"type":"Point","coordinates":[76.36878,15.8548069]}},{"type":"Feature","properties":{"state":"Karnataka","district":7,"district_n":"KOPPAL","pc":8,"pc_name":"Koppal","ac":60,"ac_name":"Kushtagi","booth":40,"booth_name":"Glp School"},"geometry":{"type":"Point","coordinates":[76.38592,15.86992]}},{"type":"Feature","properties":{"state":"Karnataka","district":7,"district_n":"KOPPAL","pc":8,"pc_name":"Koppal","ac":60,"ac_name":"Kushtagi","booth":41,"booth_name":"Ghp School Bilding"},"geometry":{"type":"Point","coordinates":[76.3639145,15.908947]}},{"type":"Feature","properties":{"state":"Karnataka","district":7,"district_n":"KOPPAL","pc":8,"pc_name":"Koppal","ac":60,"ac_name":"Kushtagi","booth":42,"booth_name":"Ghp School Bilding Bilding Right Right Wing"},"geometry":{"type":"Point","coordinates":[76.39807,15.8960266]}},{"type":"Feature","properties":{"state":"Karnataka","district":7,"district_n":"KOPPAL","pc":8,"pc_name":"Koppal","ac":60,"ac_name":"Kushtagi","booth":43,"booth_name":"Ghp School"},"geometry":{"type":"Point","coordinates":[76.40366,15.8684855]}},{"type":"Feature","properties":{"state":"Karnataka","district":7,"district_n":"KOPPAL","pc":8,"pc_name":"Koppal","ac":60,"ac_name":"Kushtagi","booth":45,"booth_name":"Ghp School building"},"geometry":{"type":"Point","coordinates":[76.43616,15.841568]}},{"type":"Feature","properties":{"state":"Karnataka","district":7,"district_n":"KOPPAL","pc":8,"pc_name":"Koppal","ac":60,"ac_name":"Kushtagi","booth":206,"booth_name":"Gmhp Gmhp School (east Wing )"},"geometry":{"type":"Point","coordinates":[75.90145,15.8176651]}},{"type":"Feature","properties":{"state":"Karnataka","district":7,"district_n":"KOPPAL","pc":8,"pc_name":"Koppal","ac":60,"ac_name":"Kushtagi","booth":208,"booth_name":"Glp Glp school"},"geometry":{"type":"Point","coordinates":[75.93188,15.8006086]}},{"type":"Feature","properties":{"state":"Karnataka","district":7,"district_n":"KOPPAL","pc":8,"pc_name":"Koppal","ac":60,"ac_name":"Kushtagi","booth":210,"booth_name":"Ghp School(east Wing )"},"geometry":{"type":"Point","coordinates":[75.95336,15.8113937]}},{"type":"Feature","properties":{"state":"Karnataka","district":7,"district_n":"KOPPAL","pc":8,"pc_name":"Koppal","ac":60,"ac_name":"Kushtagi","booth":213,"booth_name":"Ghp Ghp Ghp School(north Wing)"},"geometry":{"type":"Point","coordinates":[75.99301,15.7991571]}},{"type":"Feature","properties":{"state":"Karnataka","district":7,"district_n":"KOPPAL","pc":8,"pc_name":"Koppal","ac":60,"ac_name":"Kushtagi","booth":215,"booth_name":"Ghp Ghp School (south Wing)"},"geometry":{"type":"Point","coordinates":[76.02857,15.7940168]}},{"type":"Feature","properties":{"state":"Karnataka","district":7,"district_n":"KOPPAL","pc":8,"pc_name":"Koppal","ac":60,"ac_name":"Kushtagi","booth":217,"booth_name":"Ghp Ghp Ghp Ghp School"},"geometry":{"type":"Point","coordinates":[76.06703,15.7562714]}},{"type":"Feature","properties":{"state":"Karnataka","district":7,"district_n":"KOPPAL","pc":8,"pc_name":"Koppal","ac":60,"ac_name":"Kushtagi","booth":218,"booth_name":"Glp Glp School"},"geometry":{"type":"Point","coordinates":[76.0551147,15.7601738]}},{"type":"Feature","properties":{"state":"Karnataka","district":7,"district_n":"KOPPAL","pc":8,"pc_name":"Koppal","ac":60,"ac_name":"Kushtagi","booth":221,"booth_name":"Ghp Ghp School"},"geometry":{"type":"Point","coordinates":[76.12661,15.7338753]}},{"type":"Feature","properties":{"state":"Karnataka","district":7,"district_n":"KOPPAL","pc":8,"pc_name":"Koppal","ac":60,"ac_name":"Kushtagi","booth":222,"booth_name":"Glp Glp School"},"geometry":{"type":"Point","coordinates":[76.11498,15.7443962]}},{"type":"Feature","properties":{"state":"Karnataka","district":7,"district_n":"KOPPAL","pc":8,"pc_name":"Koppal","ac":60,"ac_name":"Kushtagi","booth":224,"booth_name":"Glp Glp Glp School"},"geometry":{"type":"Point","coordinates":[76.16044,15.7545137]}},{"type":"Feature","properties":{"state":"Karnataka","district":7,"district_n":"KOPPAL","pc":8,"pc_name":"Koppal","ac":60,"ac_name":"Kushtagi","booth":227,"booth_name":"Ghp Ghp School"},"geometry":{"type":"Point","coordinates":[76.15342,15.72115]}},{"type":"Feature","properties":{"state":"Karnataka","district":7,"district_n":"KOPPAL","pc":8,"pc_name":"Koppal","ac":60,"ac_name":"Kushtagi","booth":46,"booth_name":"Ghp School building,"},"geometry":{"type":"Point","coordinates":[76.40563,15.8262882]}},{"type":"Feature","properties":{"state":"Karnataka","district":7,"district_n":"KOPPAL","pc":8,"pc_name":"Koppal","ac":60,"ac_name":"Kushtagi","booth":51,"booth_name":"Ghp School"},"geometry":{"type":"Point","coordinates":[76.27583,15.8502064]}},{"type":"Feature","properties":{"state":"Karnataka","district":7,"district_n":"KOPPAL","pc":8,"pc_name":"Koppal","ac":60,"ac_name":"Kushtagi","booth":52,"booth_name":"Ghp School (east Wing)"},"geometry":{"type":"Point","coordinates":[76.26095,15.8734512]}},{"type":"Feature","properties":{"state":"Karnataka","district":7,"district_n":"KOPPAL","pc":8,"pc_name":"Koppal","ac":60,"ac_name":"Kushtagi","booth":54,"booth_name":"Ghp School"},"geometry":{"type":"Point","coordinates":[76.23687,15.8616714]}},{"type":"Feature","properties":{"state":"Karnataka","district":7,"district_n":"KOPPAL","pc":8,"pc_name":"Koppal","ac":60,"ac_name":"Kushtagi","booth":59,"booth_name":"Ghp School East Wing"},"geometry":{"type":"Point","coordinates":[76.20392,15.8636217]}},{"type":"Feature","properties":{"state":"Karnataka","district":7,"district_n":"KOPPAL","pc":8,"pc_name":"Koppal","ac":60,"ac_name":"Kushtagi","booth":60,"booth_name":"Ghp School (west Wing)"},"geometry":{"type":"Point","coordinates":[76.20383,15.8634815]}},{"type":"Feature","properties":{"state":"Karnataka","district":7,"district_n":"KOPPAL","pc":8,"pc_name":"Koppal","ac":60,"ac_name":"Kushtagi","booth":63,"booth_name":"Ghp School"},"geometry":{"type":"Point","coordinates":[76.1204453,15.8471813]}},{"type":"Feature","properties":{"state":"Karnataka","district":7,"district_n":"KOPPAL","pc":8,"pc_name":"Koppal","ac":60,"ac_name":"Kushtagi","booth":65,"booth_name":"Ghp School (west Wing) Old building"},"geometry":{"type":"Point","coordinates":[76.08579,15.8466263]}},{"type":"Feature","properties":{"state":"Karnataka","district":7,"district_n":"KOPPAL","pc":8,"pc_name":"Koppal","ac":60,"ac_name":"Kushtagi","booth":66,"booth_name":"Ghp School School East Wing New building"},"geometry":{"type":"Point","coordinates":[76.08606,15.8470116]}},{"type":"Feature","properties":{"state":"Karnataka","district":7,"district_n":"KOPPAL","pc":8,"pc_name":"Koppal","ac":60,"ac_name":"Kushtagi","booth":71,"booth_name":"Gghp School (south Wing)"},"geometry":{"type":"Point","coordinates":[76.0441055,15.871562]}},{"type":"Feature","properties":{"state":"Karnataka","district":7,"district_n":"KOPPAL","pc":8,"pc_name":"Koppal","ac":60,"ac_name":"Kushtagi","booth":73,"booth_name":"Grama Panchayat Building Miting Hal"},"geometry":{"type":"Point","coordinates":[76.0459,15.8719664]}},{"type":"Feature","properties":{"state":"Karnataka","district":7,"district_n":"KOPPAL","pc":8,"pc_name":"Koppal","ac":60,"ac_name":"Kushtagi","booth":77,"booth_name":"Gpu Gpu Collage (east Wing) Old Building,"},"geometry":{"type":"Point","coordinates":[76.0501556,15.8722515]}},{"type":"Feature","properties":{"state":"Karnataka","district":7,"district_n":"KOPPAL","pc":8,"pc_name":"Koppal","ac":60,"ac_name":"Kushtagi","booth":80,"booth_name":"G Sanyukta G P S Left Wing"},"geometry":{"type":"Point","coordinates":[76.0494156,15.8720217]}},{"type":"Feature","properties":{"state":"Karnataka","district":7,"district_n":"KOPPAL","pc":8,"pc_name":"Koppal","ac":60,"ac_name":"Kushtagi","booth":81,"booth_name":"Ghp School"},"geometry":{"type":"Point","coordinates":[76.02212,15.8719568]}},{"type":"Feature","properties":{"state":"Karnataka","district":7,"district_n":"KOPPAL","pc":8,"pc_name":"Koppal","ac":60,"ac_name":"Kushtagi","booth":85,"booth_name":"Glp School"},"geometry":{"type":"Point","coordinates":[75.94231,15.865592]}},{"type":"Feature","properties":{"state":"Karnataka","district":7,"district_n":"KOPPAL","pc":8,"pc_name":"Koppal","ac":60,"ac_name":"Kushtagi","booth":86,"booth_name":"Glp School"},"geometry":{"type":"Point","coordinates":[75.94944,15.8638229]}},{"type":"Feature","properties":{"state":"Karnataka","district":7,"district_n":"KOPPAL","pc":8,"pc_name":"Koppal","ac":60,"ac_name":"Kushtagi","booth":90,"booth_name":"Ghp School South Wing"},"geometry":{"type":"Point","coordinates":[75.88398,15.9024382]}},{"type":"Feature","properties":{"state":"Karnataka","district":7,"district_n":"KOPPAL","pc":8,"pc_name":"Koppal","ac":60,"ac_name":"Kushtagi","booth":91,"booth_name":"Ghp School North Wing"},"geometry":{"type":"Point","coordinates":[75.883934,15.9025869]}},{"type":"Feature","properties":{"state":"Karnataka","district":7,"district_n":"KOPPAL","pc":8,"pc_name":"Koppal","ac":60,"ac_name":"Kushtagi","booth":92,"booth_name":"Ghp School"},"geometry":{"type":"Point","coordinates":[75.83178,15.9131851]}},{"type":"Feature","properties":{"state":"Karnataka","district":7,"district_n":"KOPPAL","pc":8,"pc_name":"Koppal","ac":60,"ac_name":"Kushtagi","booth":93,"booth_name":"Glp School"},"geometry":{"type":"Point","coordinates":[75.79576,15.9077263]}},{"type":"Feature","properties":{"state":"Karnataka","district":7,"district_n":"KOPPAL","pc":8,"pc_name":"Koppal","ac":60,"ac_name":"Kushtagi","booth":94,"booth_name":"Ghp School"},"geometry":{"type":"Point","coordinates":[75.83995,15.8940554]}},{"type":"Feature","properties":{"state":"Karnataka","district":7,"district_n":"KOPPAL","pc":8,"pc_name":"Koppal","ac":60,"ac_name":"Kushtagi","booth":95,"booth_name":"Glp School"},"geometry":{"type":"Point","coordinates":[75.84799,15.8910532]}},{"type":"Feature","properties":{"state":"Karnataka","district":7,"district_n":"KOPPAL","pc":8,"pc_name":"Koppal","ac":60,"ac_name":"Kushtagi","booth":96,"booth_name":"Ghp Ghp School ( south Wing)"},"geometry":{"type":"Point","coordinates":[75.86107,15.9045134]}},{"type":"Feature","properties":{"state":"Karnataka","district":7,"district_n":"KOPPAL","pc":8,"pc_name":"Koppal","ac":60,"ac_name":"Kushtagi","booth":98,"booth_name":"Ghp School (south Wing)"},"geometry":{"type":"Point","coordinates":[75.86121,15.9042921]}},{"type":"Feature","properties":{"state":"Karnataka","district":7,"district_n":"KOPPAL","pc":8,"pc_name":"Koppal","ac":60,"ac_name":"Kushtagi","booth":105,"booth_name":"Glp School"},"geometry":{"type":"Point","coordinates":[75.87694,15.8540087]}},{"type":"Feature","properties":{"state":"Karnataka","district":7,"district_n":"KOPPAL","pc":8,"pc_name":"Koppal","ac":60,"ac_name":"Kushtagi","booth":106,"booth_name":"Ghp School (north Wing)"},"geometry":{"type":"Point","coordinates":[75.8918152,15.8599367]}},{"type":"Feature","properties":{"state":"Karnataka","district":7,"district_n":"KOPPAL","pc":8,"pc_name":"Koppal","ac":60,"ac_name":"Kushtagi","booth":107,"booth_name":"Ghp School (south Wing)"},"geometry":{"type":"Point","coordinates":[75.89184,15.8605614]}},{"type":"Feature","properties":{"state":"Karnataka","district":7,"district_n":"KOPPAL","pc":8,"pc_name":"Koppal","ac":60,"ac_name":"Kushtagi","booth":108,"booth_name":"Gmhp School (south Wing)"},"geometry":{"type":"Point","coordinates":[75.89201,15.86051]}},{"type":"Feature","properties":{"state":"Karnataka","district":7,"district_n":"KOPPAL","pc":8,"pc_name":"Koppal","ac":60,"ac_name":"Kushtagi","booth":109,"booth_name":"Glp School"},"geometry":{"type":"Point","coordinates":[75.8944855,15.8774281]}},{"type":"Feature","properties":{"state":"Karnataka","district":7,"district_n":"KOPPAL","pc":8,"pc_name":"Koppal","ac":60,"ac_name":"Kushtagi","booth":112,"booth_name":"Ghp School"},"geometry":{"type":"Point","coordinates":[75.9561539,15.8393965]}},{"type":"Feature","properties":{"state":"Karnataka","district":7,"district_n":"KOPPAL","pc":8,"pc_name":"Koppal","ac":60,"ac_name":"Kushtagi","booth":113,"booth_name":"Ghp School"},"geometry":{"type":"Point","coordinates":[75.97951,15.8408365]}},{"type":"Feature","properties":{"state":"Karnataka","district":7,"district_n":"KOPPAL","pc":8,"pc_name":"Koppal","ac":60,"ac_name":"Kushtagi","booth":115,"booth_name":"Ghp School"},"geometry":{"type":"Point","coordinates":[76.0084839,15.84038]}},{"type":"Feature","properties":{"state":"Karnataka","district":7,"district_n":"KOPPAL","pc":8,"pc_name":"Koppal","ac":60,"ac_name":"Kushtagi","booth":118,"booth_name":"Ghp School"},"geometry":{"type":"Point","coordinates":[76.0400543,15.839983]}},{"type":"Feature","properties":{"state":"Karnataka","district":7,"district_n":"KOPPAL","pc":8,"pc_name":"Koppal","ac":60,"ac_name":"Kushtagi","booth":120,"booth_name":"Gmhp School School sourth wing"},"geometry":{"type":"Point","coordinates":[76.09138,15.8255835]}},{"type":"Feature","properties":{"state":"Karnataka","district":7,"district_n":"KOPPAL","pc":8,"pc_name":"Koppal","ac":60,"ac_name":"Kushtagi","booth":123,"booth_name":"Ghp School"},"geometry":{"type":"Point","coordinates":[76.1460953,15.827527]}},{"type":"Feature","properties":{"state":"Karnataka","district":7,"district_n":"KOPPAL","pc":8,"pc_name":"Koppal","ac":60,"ac_name":"Kushtagi","booth":126,"booth_name":"Glp School"},"geometry":{"type":"Point","coordinates":[76.2065,15.8427715]}},{"type":"Feature","properties":{"state":"Karnataka","district":7,"district_n":"KOPPAL","pc":8,"pc_name":"Koppal","ac":60,"ac_name":"Kushtagi","booth":128,"booth_name":"Ghp School (west Wing)"},"geometry":{"type":"Point","coordinates":[76.20567,15.8213634]}},{"type":"Feature","properties":{"state":"Karnataka","district":7,"district_n":"KOPPAL","pc":8,"pc_name":"Koppal","ac":60,"ac_name":"Kushtagi","booth":130,"booth_name":"Ghp School"},"geometry":{"type":"Point","coordinates":[76.26973,15.834898]}},{"type":"Feature","properties":{"state":"Karnataka","district":7,"district_n":"KOPPAL","pc":8,"pc_name":"Koppal","ac":60,"ac_name":"Kushtagi","booth":131,"booth_name":"Glp School"},"geometry":{"type":"Point","coordinates":[76.26484,15.8232632]}},{"type":"Feature","properties":{"state":"Karnataka","district":7,"district_n":"KOPPAL","pc":8,"pc_name":"Koppal","ac":60,"ac_name":"Kushtagi","booth":134,"booth_name":"Ghp School Building"},"geometry":{"type":"Point","coordinates":[76.33104,15.8338051]}},{"type":"Feature","properties":{"state":"Karnataka","district":7,"district_n":"KOPPAL","pc":8,"pc_name":"Koppal","ac":60,"ac_name":"Kushtagi","booth":135,"booth_name":"Glps Bilding Bilding Idlapur"},"geometry":{"type":"Point","coordinates":[76.34288,15.817955]}},{"type":"Feature","properties":{"state":"Karnataka","district":7,"district_n":"KOPPAL","pc":8,"pc_name":"Koppal","ac":60,"ac_name":"Kushtagi","booth":228,"booth_name":"Ghp Ghp School"},"geometry":{"type":"Point","coordinates":[76.17913,15.7122383]}},{"type":"Feature","properties":{"state":"Karnataka","district":7,"district_n":"KOPPAL","pc":8,"pc_name":"Koppal","ac":60,"ac_name":"Kushtagi","booth":230,"booth_name":"Ghmp Ghmp School (west wing)"},"geometry":{"type":"Point","coordinates":[76.22255,15.7255535]}},{"type":"Feature","properties":{"state":"Karnataka","district":7,"district_n":"KOPPAL","pc":8,"pc_name":"Koppal","ac":60,"ac_name":"Kushtagi","booth":235,"booth_name":"Glp Glp Glp School"},"geometry":{"type":"Point","coordinates":[76.26182,15.7585649]}},{"type":"Feature","properties":{"state":"Karnataka","district":7,"district_n":"KOPPAL","pc":8,"pc_name":"Koppal","ac":60,"ac_name":"Kushtagi","booth":237,"booth_name":"Ghp Ghp School School Bilading"},"geometry":{"type":"Point","coordinates":[76.33128,15.7310114]}},{"type":"Feature","properties":{"state":"Karnataka","district":7,"district_n":"KOPPAL","pc":8,"pc_name":"Koppal","ac":60,"ac_name":"Kushtagi","booth":245,"booth_name":"Glp Glp School"},"geometry":{"type":"Point","coordinates":[76.4445648,15.7063246]}},{"type":"Feature","properties":{"state":"Karnataka","district":7,"district_n":"KOPPAL","pc":8,"pc_name":"Koppal","ac":60,"ac_name":"Kushtagi","booth":248,"booth_name":"Ghp School Building"},"geometry":{"type":"Point","coordinates":[76.36343,15.7152367]}},{"type":"Feature","properties":{"state":"Karnataka","district":7,"district_n":"KOPPAL","pc":8,"pc_name":"Koppal","ac":60,"ac_name":"Kushtagi","booth":250,"booth_name":"Glp Glp School"},"geometry":{"type":"Point","coordinates":[76.3199158,15.7137165]}},{"type":"Feature","properties":{"state":"Karnataka","district":7,"district_n":"KOPPAL","pc":8,"pc_name":"Koppal","ac":60,"ac_name":"Kushtagi","booth":252,"booth_name":"Glp Glp School"},"geometry":{"type":"Point","coordinates":[76.3418655,15.6609354]}},{"type":"Feature","properties":{"state":"Karnataka","district":7,"district_n":"KOPPAL","pc":8,"pc_name":"Koppal","ac":60,"ac_name":"Kushtagi","booth":10,"booth_name":"Gmhp School (west Wing)"},"geometry":{"type":"Point","coordinates":[76.0578461,15.9548779]}},{"type":"Feature","properties":{"state":"Karnataka","district":7,"district_n":"KOPPAL","pc":8,"pc_name":"Koppal","ac":60,"ac_name":"Kushtagi","booth":11,"booth_name":"Gmhp School (north Wing)"},"geometry":{"type":"Point","coordinates":[76.05819,15.9546547]}},{"type":"Feature","properties":{"state":"Karnataka","district":7,"district_n":"KOPPAL","pc":8,"pc_name":"Koppal","ac":60,"ac_name":"Kushtagi","booth":67,"booth_name":"Gpu Collage Collage (west Wing) Old Building,"},"geometry":{"type":"Point","coordinates":[76.0499,15.8724184]}},{"type":"Feature","properties":{"state":"Karnataka","district":7,"district_n":"KOPPAL","pc":8,"pc_name":"Koppal","ac":60,"ac_name":"Kushtagi","booth":69,"booth_name":"Gghp School (north Wing)"},"geometry":{"type":"Point","coordinates":[76.0442,15.8715286]}},{"type":"Feature","properties":{"state":"Karnataka","district":7,"district_n":"KOPPAL","pc":8,"pc_name":"Koppal","ac":60,"ac_name":"Kushtagi","booth":78,"booth_name":"G B H P School"},"geometry":{"type":"Point","coordinates":[76.0494156,15.8723984]}},{"type":"Feature","properties":{"state":"Karnataka","district":7,"district_n":"KOPPAL","pc":8,"pc_name":"Koppal","ac":60,"ac_name":"Kushtagi","booth":79,"booth_name":"G G Sanyukta G P S Right Right Wing"},"geometry":{"type":"Point","coordinates":[76.0494843,15.87182]}},{"type":"Feature","properties":{"state":"Karnataka","district":7,"district_n":"KOPPAL","pc":8,"pc_name":"Koppal","ac":60,"ac_name":"Kushtagi","booth":82,"booth_name":"Glp School"},"geometry":{"type":"Point","coordinates":[76.00504,15.8682165]}},{"type":"Feature","properties":{"state":"Karnataka","district":7,"district_n":"KOPPAL","pc":8,"pc_name":"Koppal","ac":60,"ac_name":"Kushtagi","booth":83,"booth_name":"Glp School"},"geometry":{"type":"Point","coordinates":[75.99017,15.8736429]}},{"type":"Feature","properties":{"state":"Karnataka","district":7,"district_n":"KOPPAL","pc":8,"pc_name":"Koppal","ac":60,"ac_name":"Kushtagi","booth":84,"booth_name":"Glp School"},"geometry":{"type":"Point","coordinates":[75.97141,15.8579216]}},{"type":"Feature","properties":{"state":"Karnataka","district":7,"district_n":"KOPPAL","pc":8,"pc_name":"Koppal","ac":60,"ac_name":"Kushtagi","booth":87,"booth_name":"Gmhp School"},"geometry":{"type":"Point","coordinates":[75.92424,15.8594217]}},{"type":"Feature","properties":{"state":"Karnataka","district":7,"district_n":"KOPPAL","pc":8,"pc_name":"Koppal","ac":60,"ac_name":"Kushtagi","booth":88,"booth_name":"Ghp School (east Wing)"},"geometry":{"type":"Point","coordinates":[75.88536,15.8895454]}},{"type":"Feature","properties":{"state":"Karnataka","district":7,"district_n":"KOPPAL","pc":8,"pc_name":"Koppal","ac":60,"ac_name":"Kushtagi","booth":89,"booth_name":"Ghp School South Wing"},"geometry":{"type":"Point","coordinates":[75.88549,15.8894749]}},{"type":"Feature","properties":{"state":"Karnataka","district":7,"district_n":"KOPPAL","pc":8,"pc_name":"Koppal","ac":60,"ac_name":"Kushtagi","booth":132,"booth_name":"Glp School"},"geometry":{"type":"Point","coordinates":[76.32268,15.83133]}},{"type":"Feature","properties":{"state":"Karnataka","district":7,"district_n":"KOPPAL","pc":8,"pc_name":"Koppal","ac":60,"ac_name":"Kushtagi","booth":239,"booth_name":"Ghp Ghp School"},"geometry":{"type":"Point","coordinates":[76.3930054,15.7236052]}},{"type":"Feature","properties":{"state":"Karnataka","district":7,"district_n":"KOPPAL","pc":8,"pc_name":"Koppal","ac":60,"ac_name":"Kushtagi","booth":233,"booth_name":"Aided High School New Building East Wing"},"geometry":{"type":"Point","coordinates":[76.22234,15.7259264]}},{"type":"Feature","properties":{"state":"Karnataka","district":7,"district_n":"KOPPAL","pc":8,"pc_name":"Koppal","ac":60,"ac_name":"Kushtagi","booth":231,"booth_name":"Ghmp Ghmp School (north wing) Old Building"},"geometry":{"type":"Point","coordinates":[76.22239,15.72555]}},{"type":"Feature","properties":{"state":"Karnataka","district":7,"district_n":"KOPPAL","pc":8,"pc_name":"Koppal","ac":60,"ac_name":"Kushtagi","booth":226,"booth_name":"Ghp Ghp School (west Wing)"},"geometry":{"type":"Point","coordinates":[76.16947,15.7669134]}},{"type":"Feature","properties":{"state":"Karnataka","district":7,"district_n":"KOPPAL","pc":8,"pc_name":"Koppal","ac":60,"ac_name":"Kushtagi","booth":220,"booth_name":"Ghp School South Wing New Building"},"geometry":{"type":"Point","coordinates":[76.08998,15.7285633]}},{"type":"Feature","properties":{"state":"Karnataka","district":7,"district_n":"KOPPAL","pc":8,"pc_name":"Koppal","ac":60,"ac_name":"Kushtagi","booth":216,"booth_name":"Ghp Ghp School(north Wing)"},"geometry":{"type":"Point","coordinates":[76.02831,15.7936516]}},{"type":"Feature","properties":{"state":"Karnataka","district":7,"district_n":"KOPPAL","pc":8,"pc_name":"Koppal","ac":60,"ac_name":"Kushtagi","booth":214,"booth_name":"Ghp School(south Wing)"},"geometry":{"type":"Point","coordinates":[75.99307,15.7988415]}},{"type":"Feature","properties":{"state":"Karnataka","district":7,"district_n":"KOPPAL","pc":8,"pc_name":"Koppal","ac":60,"ac_name":"Kushtagi","booth":211,"booth_name":"Ghp School West Wing"},"geometry":{"type":"Point","coordinates":[75.9532852,15.8112564]}},{"type":"Feature","properties":{"state":"Karnataka","district":7,"district_n":"KOPPAL","pc":8,"pc_name":"Koppal","ac":60,"ac_name":"Kushtagi","booth":202,"booth_name":"Ghp Ghp School (south Wing)"},"geometry":{"type":"Point","coordinates":[75.9424,15.8200121]}},{"type":"Feature","properties":{"state":"Karnataka","district":7,"district_n":"KOPPAL","pc":8,"pc_name":"Koppal","ac":60,"ac_name":"Kushtagi","booth":199,"booth_name":"Ghp Ghp School Middle Area"},"geometry":{"type":"Point","coordinates":[76.00377,15.81573]}},{"type":"Feature","properties":{"state":"Karnataka","district":7,"district_n":"KOPPAL","pc":8,"pc_name":"Koppal","ac":60,"ac_name":"Kushtagi","booth":197,"booth_name":"Ghp School (east Wing)new Building"},"geometry":{"type":"Point","coordinates":[76.03428,15.8140354]}},{"type":"Feature","properties":{"state":"Karnataka","district":7,"district_n":"KOPPAL","pc":8,"pc_name":"Koppal","ac":60,"ac_name":"Kushtagi","booth":190,"booth_name":"Ghp School New Building"},"geometry":{"type":"Point","coordinates":[76.08424,15.77258]}},{"type":"Feature","properties":{"state":"Karnataka","district":7,"district_n":"KOPPAL","pc":8,"pc_name":"Koppal","ac":60,"ac_name":"Kushtagi","booth":174,"booth_name":"G U H P P School New Building (north wing)"},"geometry":{"type":"Point","coordinates":[76.18668,15.7589254]}},{"type":"Feature","properties":{"state":"Karnataka","district":7,"district_n":"KOPPAL","pc":8,"pc_name":"Koppal","ac":60,"ac_name":"Kushtagi","booth":160,"booth_name":"Ghp School (east Wing) h wing)"},"geometry":{"type":"Point","coordinates":[76.25506,15.7610235]}},{"type":"Feature","properties":{"state":"Karnataka","district":7,"district_n":"KOPPAL","pc":8,"pc_name":"Koppal","ac":60,"ac_name":"Kushtagi","booth":152,"booth_name":"Ghp School"},"geometry":{"type":"Point","coordinates":[76.3304,15.77137]}},{"type":"Feature","properties":{"state":"Karnataka","district":7,"district_n":"KOPPAL","pc":8,"pc_name":"Koppal","ac":60,"ac_name":"Kushtagi","booth":125,"booth_name":"Ghp School New Building"},"geometry":{"type":"Point","coordinates":[76.17762,15.826087]}},{"type":"Feature","properties":{"state":"Karnataka","district":7,"district_n":"KOPPAL","pc":8,"pc_name":"Koppal","ac":60,"ac_name":"Kushtagi","booth":111,"booth_name":"Ghp School( Left Wing)new Building"},"geometry":{"type":"Point","coordinates":[75.93589,15.8408937]}},{"type":"Feature","properties":{"state":"Karnataka","district":7,"district_n":"KOPPAL","pc":8,"pc_name":"Koppal","ac":60,"ac_name":"Kushtagi","booth":102,"booth_name":"Ghp School (right Wing)"},"geometry":{"type":"Point","coordinates":[75.8569946,15.8718853]}},{"type":"Feature","properties":{"state":"Karnataka","district":7,"district_n":"KOPPAL","pc":8,"pc_name":"Koppal","ac":60,"ac_name":"Kushtagi","booth":97,"booth_name":"Ghp Ghp School ( West Wing)"},"geometry":{"type":"Point","coordinates":[75.8609161,15.9043446]}},{"type":"Feature","properties":{"state":"Karnataka","district":7,"district_n":"KOPPAL","pc":8,"pc_name":"Koppal","ac":60,"ac_name":"Kushtagi","booth":76,"booth_name":"Gbhp School (south wing) Market Kurubgera New Building,"},"geometry":{"type":"Point","coordinates":[76.03782,15.8713617]}},{"type":"Feature","properties":{"state":"Karnataka","district":7,"district_n":"KOPPAL","pc":8,"pc_name":"Koppal","ac":60,"ac_name":"Kushtagi","booth":72,"booth_name":"Gurdu Hp School (east Left Wing)"},"geometry":{"type":"Point","coordinates":[76.04436,15.8714333]}},{"type":"Feature","properties":{"state":"Karnataka","district":7,"district_n":"KOPPAL","pc":8,"pc_name":"Koppal","ac":60,"ac_name":"Kushtagi","booth":70,"booth_name":"Gghp School (west (west Right Wing)"},"geometry":{"type":"Point","coordinates":[76.04418,15.8716116]}},{"type":"Feature","properties":{"state":"Karnataka","district":7,"district_n":"KOPPAL","pc":8,"pc_name":"Koppal","ac":60,"ac_name":"Kushtagi","booth":68,"booth_name":"G Urdu High School (east Right Wing) New Building"},"geometry":{"type":"Point","coordinates":[76.05059,15.8718462]}},{"type":"Feature","properties":{"state":"Karnataka","district":7,"district_n":"KOPPAL","pc":8,"pc_name":"Koppal","ac":60,"ac_name":"Kushtagi","booth":53,"booth_name":"Ghp School (west Wing)"},"geometry":{"type":"Point","coordinates":[76.26095,15.8733883]}},{"type":"Feature","properties":{"state":"Karnataka","district":7,"district_n":"KOPPAL","pc":8,"pc_name":"Koppal","ac":60,"ac_name":"Kushtagi","booth":44,"booth_name":"Glp School"},"geometry":{"type":"Point","coordinates":[76.38787,15.8759518]}},{"type":"Feature","properties":{"state":"Karnataka","district":7,"district_n":"KOPPAL","pc":8,"pc_name":"Koppal","ac":60,"ac_name":"Kushtagi","booth":64,"booth_name":"Ghp School"},"geometry":{"type":"Point","coordinates":[76.11463,15.8480654]}},{"type":"Feature","properties":{"state":"Karnataka","district":7,"district_n":"KOPPAL","pc":8,"pc_name":"Koppal","ac":60,"ac_name":"Kushtagi","booth":21,"booth_name":"Government Higher Primary School (north Wing)"},"geometry":{"type":"Point","coordinates":[76.03531,15.9121017]}},{"type":"Feature","properties":{"state":"Karnataka","district":7,"district_n":"KOPPAL","pc":8,"pc_name":"Koppal","ac":60,"ac_name":"Kushtagi","booth":34,"booth_name":"Government Model Higher Primary School (east Wing)"},"geometry":{"type":"Point","coordinates":[76.295105,15.8887529]}},{"type":"Feature","properties":{"state":"Karnataka","district":7,"district_n":"KOPPAL","pc":8,"pc_name":"Koppal","ac":60,"ac_name":"Kushtagi","booth":9,"booth_name":"Govt Model Higher Primary School (east Wing)"},"geometry":{"type":"Point","coordinates":[76.05879,15.9546518]}},{"type":"Feature","properties":{"state":"Karnataka","district":7,"district_n":"KOPPAL","pc":8,"pc_name":"Koppal","ac":60,"ac_name":"Kushtagi","booth":47,"booth_name":"Ghp School building,"},"geometry":{"type":"Point","coordinates":[76.40817,15.8025665]}},{"type":"Feature","properties":{"state":"Karnataka","district":7,"district_n":"KOPPAL","pc":8,"pc_name":"Koppal","ac":60,"ac_name":"Kushtagi","booth":48,"booth_name":"Ghp School building,"},"geometry":{"type":"Point","coordinates":[76.3668442,15.8239164]}},{"type":"Feature","properties":{"state":"Karnataka","district":7,"district_n":"KOPPAL","pc":8,"pc_name":"Koppal","ac":60,"ac_name":"Kushtagi","booth":49,"booth_name":"Ghp School building,"},"geometry":{"type":"Point","coordinates":[76.3351,15.8411951]}},{"type":"Feature","properties":{"state":"Karnataka","district":7,"district_n":"KOPPAL","pc":8,"pc_name":"Koppal","ac":60,"ac_name":"Kushtagi","booth":50,"booth_name":"Ghp School"},"geometry":{"type":"Point","coordinates":[76.2952957,15.8365831]}},{"type":"Feature","properties":{"state":"Karnataka","district":7,"district_n":"KOPPAL","pc":8,"pc_name":"Koppal","ac":60,"ac_name":"Kushtagi","booth":124,"booth_name":"Ghp School"},"geometry":{"type":"Point","coordinates":[76.18511,15.8251534]}},{"type":"Feature","properties":{"state":"Karnataka","district":7,"district_n":"KOPPAL","pc":8,"pc_name":"Koppal","ac":60,"ac_name":"Kushtagi","booth":129,"booth_name":"Ghp School"},"geometry":{"type":"Point","coordinates":[76.2489853,15.8018751]}},{"type":"Feature","properties":{"state":"Karnataka","district":7,"district_n":"KOPPAL","pc":8,"pc_name":"Koppal","ac":60,"ac_name":"Kushtagi","booth":156,"booth_name":"G M H P School (west Wing)"},"geometry":{"type":"Point","coordinates":[76.27805,15.7659912]}},{"type":"Feature","properties":{"state":"Karnataka","district":7,"district_n":"KOPPAL","pc":8,"pc_name":"Koppal","ac":60,"ac_name":"Kushtagi","booth":159,"booth_name":"Ghp School"},"geometry":{"type":"Point","coordinates":[76.255,15.76109]}},{"type":"Feature","properties":{"state":"Karnataka","district":7,"district_n":"KOPPAL","pc":8,"pc_name":"Koppal","ac":60,"ac_name":"Kushtagi","booth":183,"booth_name":"Ghp School West Wing Vanagera"},"geometry":{"type":"Point","coordinates":[76.17616,15.8004217]}},{"type":"Feature","properties":{"state":"Karnataka","district":7,"district_n":"KOPPAL","pc":8,"pc_name":"Koppal","ac":60,"ac_name":"Kushtagi","booth":192,"booth_name":"Ghp School East Wing"},"geometry":{"type":"Point","coordinates":[76.07078,15.7940321]}},{"type":"Feature","properties":{"state":"Karnataka","district":7,"district_n":"KOPPAL","pc":8,"pc_name":"Koppal","ac":60,"ac_name":"Kushtagi","booth":196,"booth_name":"Ghp School (west Wing)"},"geometry":{"type":"Point","coordinates":[76.03381,15.8140335]}},{"type":"Feature","properties":{"state":"Karnataka","district":7,"district_n":"KOPPAL","pc":8,"pc_name":"Koppal","ac":60,"ac_name":"Kushtagi","booth":117,"booth_name":"Grama Panchayat Karyalay (right Wing)"},"geometry":{"type":"Point","coordinates":[76.0088,15.8406248]}},{"type":"Feature","properties":{"state":"Karnataka","district":7,"district_n":"KOPPAL","pc":8,"pc_name":"Koppal","ac":60,"ac_name":"Kushtagi","booth":61,"booth_name":"Glp School"},"geometry":{"type":"Point","coordinates":[76.1875839,15.8590546]}},{"type":"Feature","properties":{"state":"Karnataka","district":7,"district_n":"KOPPAL","pc":8,"pc_name":"Koppal","ac":60,"ac_name":"Kushtagi","booth":62,"booth_name":"Ghp School"},"geometry":{"type":"Point","coordinates":[76.1766357,15.8670731]}},{"type":"Feature","properties":{"state":"Karnataka","district":7,"district_n":"KOPPAL","pc":8,"pc_name":"Koppal","ac":60,"ac_name":"Kushtagi","booth":4,"booth_name":"Ghp School New building"},"geometry":{"type":"Point","coordinates":[76.0165558,15.98998]}},{"type":"Feature","properties":{"state":"Karnataka","district":7,"district_n":"KOPPAL","pc":8,"pc_name":"Koppal","ac":60,"ac_name":"Kushtagi","booth":55,"booth_name":"Ghp School"},"geometry":{"type":"Point","coordinates":[76.2316,15.8650579]}},{"type":"Feature","properties":{"state":"Karnataka","district":7,"district_n":"KOPPAL","pc":8,"pc_name":"Koppal","ac":60,"ac_name":"Kushtagi","booth":56,"booth_name":"Gram Gram Panchayat Building,"},"geometry":{"type":"Point","coordinates":[76.2060547,15.86265]}},{"type":"Feature","properties":{"state":"Karnataka","district":7,"district_n":"KOPPAL","pc":8,"pc_name":"Koppal","ac":60,"ac_name":"Kushtagi","booth":57,"booth_name":"Gh School East Wing"},"geometry":{"type":"Point","coordinates":[76.20631,15.86458]}},{"type":"Feature","properties":{"state":"Karnataka","district":7,"district_n":"KOPPAL","pc":8,"pc_name":"Koppal","ac":60,"ac_name":"Kushtagi","booth":58,"booth_name":"Gh School Building, (west Wing)"},"geometry":{"type":"Point","coordinates":[76.20563,15.8645267]}},{"type":"Feature","properties":{"state":"Karnataka","district":7,"district_n":"KOPPAL","pc":8,"pc_name":"Koppal","ac":60,"ac_name":"Kushtagi","booth":74,"booth_name":"Ghp School School Market (south Wing)"},"geometry":{"type":"Point","coordinates":[76.04456,15.8716984]}},{"type":"Feature","properties":{"state":"Karnataka","district":7,"district_n":"KOPPAL","pc":8,"pc_name":"Koppal","ac":60,"ac_name":"Kushtagi","booth":75,"booth_name":"Glhp School School Market Kurubgera New Building,"},"geometry":{"type":"Point","coordinates":[76.04095,15.87157]}},{"type":"Feature","properties":{"state":"Karnataka","district":7,"district_n":"KOPPAL","pc":8,"pc_name":"Koppal","ac":60,"ac_name":"Kushtagi","booth":114,"booth_name":"Glp School"},"geometry":{"type":"Point","coordinates":[76.01141,15.8442268]}},{"type":"Feature","properties":{"state":"Karnataka","district":7,"district_n":"KOPPAL","pc":8,"pc_name":"Koppal","ac":60,"ac_name":"Kushtagi","booth":127,"booth_name":"Ghp School (east Wing)"},"geometry":{"type":"Point","coordinates":[76.20583,15.8212137]}},{"type":"Feature","properties":{"state":"Karnataka","district":7,"district_n":"KOPPAL","pc":8,"pc_name":"Koppal","ac":60,"ac_name":"Kushtagi","booth":136,"booth_name":"Ghp School Building,"},"geometry":{"type":"Point","coordinates":[76.35165,15.7832336]}},{"type":"Feature","properties":{"state":"Karnataka","district":7,"district_n":"KOPPAL","pc":8,"pc_name":"Koppal","ac":60,"ac_name":"Kushtagi","booth":201,"booth_name":"Ghp Ghp School(north Wing)"},"geometry":{"type":"Point","coordinates":[75.94223,15.8200684]}},{"type":"Feature","properties":{"state":"Karnataka","district":7,"district_n":"KOPPAL","pc":8,"pc_name":"Koppal","ac":60,"ac_name":"Kushtagi","booth":209,"booth_name":"Glp Glp School"},"geometry":{"type":"Point","coordinates":[75.95691,15.80177]}},{"type":"Feature","properties":{"state":"Karnataka","district":7,"district_n":"KOPPAL","pc":8,"pc_name":"Koppal","ac":60,"ac_name":"Kushtagi","booth":225,"booth_name":"Ghp Ghp School (north Wing)"},"geometry":{"type":"Point","coordinates":[76.1691055,15.7666321]}},{"type":"Feature","properties":{"state":"Karnataka","district":7,"district_n":"KOPPAL","pc":8,"pc_name":"Koppal","ac":60,"ac_name":"Kushtagi","booth":229,"booth_name":"G L P P School"},"geometry":{"type":"Point","coordinates":[76.19648,15.7091885]}},{"type":"Feature","properties":{"state":"Karnataka","district":7,"district_n":"KOPPAL","pc":8,"pc_name":"Koppal","ac":60,"ac_name":"Kushtagi","booth":236,"booth_name":"Glp School"},"geometry":{"type":"Point","coordinates":[76.29418,15.7389479]}},{"type":"Feature","properties":{"state":"Karnataka","district":7,"district_n":"KOPPAL","pc":8,"pc_name":"Koppal","ac":60,"ac_name":"Kushtagi","booth":238,"booth_name":"Ghp School"},"geometry":{"type":"Point","coordinates":[76.36223,15.7300682]}},{"type":"Feature","properties":{"state":"Karnataka","district":7,"district_n":"KOPPAL","pc":8,"pc_name":"Koppal","ac":60,"ac_name":"Kushtagi","booth":240,"booth_name":"Ghp Ghp Ghp School"},"geometry":{"type":"Point","coordinates":[76.3926849,15.7233286]}},{"type":"Feature","properties":{"state":"Karnataka","district":7,"district_n":"KOPPAL","pc":8,"pc_name":"Koppal","ac":60,"ac_name":"Kushtagi","booth":246,"booth_name":"Ghp Ghp School"},"geometry":{"type":"Point","coordinates":[76.4410858,15.69442]}},{"type":"Feature","properties":{"state":"Karnataka","district":7,"district_n":"KOPPAL","pc":8,"pc_name":"Koppal","ac":60,"ac_name":"Kushtagi","booth":194,"booth_name":"Gshp School"},"geometry":{"type":"Point","coordinates":[76.07123,15.821022]}},{"type":"Feature","properties":{"state":"Karnataka","district":7,"district_n":"KOPPAL","pc":8,"pc_name":"Koppal","ac":60,"ac_name":"Kushtagi","booth":207,"booth_name":"Gmhp School ( West Wing)"},"geometry":{"type":"Point","coordinates":[75.9009552,15.8177]}},{"type":"Feature","properties":{"state":"Karnataka","district":7,"district_n":"KOPPAL","pc":8,"pc_name":"Koppal","ac":60,"ac_name":"Kushtagi","booth":2,"booth_name":"Ghp School"},"geometry":{"type":"Point","coordinates":[76.01162,15.9874563]}},{"type":"Feature","properties":{"state":"Karnataka","district":7,"district_n":"KOPPAL","pc":8,"pc_name":"Koppal","ac":60,"ac_name":"Kushtagi","booth":3,"booth_name":"Ghp School"},"geometry":{"type":"Point","coordinates":[76.02119,16.00362]}},{"type":"Feature","properties":{"state":"Karnataka","district":7,"district_n":"KOPPAL","pc":8,"pc_name":"Koppal","ac":60,"ac_name":"Kushtagi","booth":219,"booth_name":"Ghp Ghp School (north Wing) Old building"},"geometry":{"type":"Point","coordinates":[76.08995,15.7289019]}},{"type":"Feature","properties":{"state":"Karnataka","district":7,"district_n":"KOPPAL","pc":8,"pc_name":"Koppal","ac":60,"ac_name":"Kushtagi","booth":12,"booth_name":"Ghp School"},"geometry":{"type":"Point","coordinates":[76.02144,15.9615536]}},{"type":"Feature","properties":{"state":"Karnataka","district":7,"district_n":"KOPPAL","pc":8,"pc_name":"Koppal","ac":60,"ac_name":"Kushtagi","booth":13,"booth_name":"Ghp Ghp School"},"geometry":{"type":"Point","coordinates":[75.9994659,15.9694662]}},{"type":"Feature","properties":{"state":"Karnataka","district":7,"district_n":"KOPPAL","pc":8,"pc_name":"Koppal","ac":60,"ac_name":"Kushtagi","booth":31,"booth_name":"Ghp School"},"geometry":{"type":"Point","coordinates":[76.25627,15.8765087]}},{"type":"Feature","properties":{"state":"Karnataka","district":7,"district_n":"KOPPAL","pc":8,"pc_name":"Koppal","ac":60,"ac_name":"Kushtagi","booth":33,"booth_name":"Ghp School"},"geometry":{"type":"Point","coordinates":[76.28643,15.87442]}},{"type":"Feature","properties":{"state":"Karnataka","district":7,"district_n":"KOPPAL","pc":8,"pc_name":"Koppal","ac":60,"ac_name":"Kushtagi","booth":137,"booth_name":"Glp School Building Vitalapur"},"geometry":{"type":"Point","coordinates":[76.39503,15.7802629]}},{"type":"Feature","properties":{"state":"Karnataka","district":7,"district_n":"KOPPAL","pc":8,"pc_name":"Koppal","ac":60,"ac_name":"Kushtagi","booth":138,"booth_name":"Grama Panchayat Lybrary Building"},"geometry":{"type":"Point","coordinates":[76.4023361,15.7656031]}},{"type":"Feature","properties":{"state":"Karnataka","district":7,"district_n":"KOPPAL","pc":8,"pc_name":"Koppal","ac":60,"ac_name":"Kushtagi","booth":142,"booth_name":"Grama Panchayat Office Building (midle wing)"},"geometry":{"type":"Point","coordinates":[76.40232,15.7658062]}},{"type":"Feature","properties":{"state":"Karnataka","district":7,"district_n":"KOPPAL","pc":8,"pc_name":"Koppal","ac":60,"ac_name":"Kushtagi","booth":143,"booth_name":"Grama Panchayat Office Building South Wingbuilding (midle wing)"},"geometry":{"type":"Point","coordinates":[76.40217,15.7658863]}},{"type":"Feature","properties":{"state":"Karnataka","district":7,"district_n":"KOPPAL","pc":8,"pc_name":"Koppal","ac":60,"ac_name":"Kushtagi","booth":144,"booth_name":"Sr M M Vishweshwarayya H H & H School Building North Wing"},"geometry":{"type":"Point","coordinates":[76.4023,15.7699385]}},{"type":"Feature","properties":{"state":"Karnataka","district":7,"district_n":"KOPPAL","pc":8,"pc_name":"Koppal","ac":60,"ac_name":"Kushtagi","booth":146,"booth_name":"G G H P School ( North Wing)"},"geometry":{"type":"Point","coordinates":[76.40543,15.7684765]}},{"type":"Feature","properties":{"state":"Karnataka","district":7,"district_n":"KOPPAL","pc":8,"pc_name":"Koppal","ac":60,"ac_name":"Kushtagi","booth":149,"booth_name":"Gbspu College College Midle Midle Wing"},"geometry":{"type":"Point","coordinates":[76.40604,15.7698469]}},{"type":"Feature","properties":{"state":"Karnataka","district":7,"district_n":"KOPPAL","pc":8,"pc_name":"Koppal","ac":60,"ac_name":"Kushtagi","booth":140,"booth_name":"Gm School Building, (midle wing)"},"geometry":{"type":"Point","coordinates":[76.40545,15.7686882]}},{"type":"Feature","properties":{"state":"Karnataka","district":7,"district_n":"KOPPAL","pc":8,"pc_name":"Koppal","ac":60,"ac_name":"Kushtagi","booth":141,"booth_name":"Gms Building, (north Wing)"},"geometry":{"type":"Point","coordinates":[76.405365,15.7688351]}},{"type":"Feature","properties":{"state":"Karnataka","district":7,"district_n":"KOPPAL","pc":8,"pc_name":"Koppal","ac":60,"ac_name":"Kushtagi","booth":150,"booth_name":"Ggspu Ggspu College College Building (east Wing)"},"geometry":{"type":"Point","coordinates":[76.40543,15.7698088]}},{"type":"Feature","properties":{"state":"Karnataka","district":7,"district_n":"KOPPAL","pc":8,"pc_name":"Koppal","ac":60,"ac_name":"Kushtagi","booth":166,"booth_name":"Gbhp School Building (branch School)"},"geometry":{"type":"Point","coordinates":[76.1919861,15.7528782]}},{"type":"Feature","properties":{"state":"Karnataka","district":7,"district_n":"KOPPAL","pc":8,"pc_name":"Koppal","ac":60,"ac_name":"Kushtagi","booth":181,"booth_name":"S K N N N N H13"},"geometry":{"type":"Point","coordinates":[76.19227,15.7541065]}},{"type":"Feature","properties":{"state":"Karnataka","district":7,"district_n":"KOPPAL","pc":8,"pc_name":"Koppal","ac":60,"ac_name":"Kushtagi","booth":185,"booth_name":"Ghp School (east Wing)"},"geometry":{"type":"Point","coordinates":[76.13435,15.7998762]}},{"type":"Feature","properties":{"state":"Karnataka","district":7,"district_n":"KOPPAL","pc":8,"pc_name":"Koppal","ac":60,"ac_name":"Kushtagi","booth":186,"booth_name":"Ghp School West Wing"},"geometry":{"type":"Point","coordinates":[76.1245956,15.7981386]}},{"type":"Feature","properties":{"state":"Karnataka","district":7,"district_n":"KOPPAL","pc":8,"pc_name":"Koppal","ac":60,"ac_name":"Kushtagi","booth":25,"booth_name":"Glp School"},"geometry":{"type":"Point","coordinates":[76.14317,15.8799582]}},{"type":"Feature","properties":{"state":"Karnataka","district":7,"district_n":"KOPPAL","pc":8,"pc_name":"Koppal","ac":60,"ac_name":"Kushtagi","booth":26,"booth_name":"Ghp School (east (east Wing)"},"geometry":{"type":"Point","coordinates":[76.1655045,15.8971949]}},{"type":"Feature","properties":{"state":"Karnataka","district":7,"district_n":"KOPPAL","pc":8,"pc_name":"Koppal","ac":60,"ac_name":"Kushtagi","booth":27,"booth_name":"Ghp School (south Wing)"},"geometry":{"type":"Point","coordinates":[76.16557,15.8972721]}},{"type":"Feature","properties":{"state":"Karnataka","district":7,"district_n":"KOPPAL","pc":8,"pc_name":"Koppal","ac":60,"ac_name":"Kushtagi","booth":1,"booth_name":"Ghp School"},"geometry":{"type":"Point","coordinates":[76.01008,15.9990053]}},{"type":"Feature","properties":{"state":"Karnataka","district":7,"district_n":"KOPPAL","pc":8,"pc_name":"Koppal","ac":60,"ac_name":"Kushtagi","booth":223,"booth_name":"Ghp school"},"geometry":{"type":"Point","coordinates":[76.1398849,15.755682]}},{"type":"Feature","properties":{"state":"Karnataka","district":7,"district_n":"KOPPAL","pc":8,"pc_name":"Koppal","ac":60,"ac_name":"Kushtagi","booth":212,"booth_name":"Ghp Ghp School"},"geometry":{"type":"Point","coordinates":[75.97932,15.8152847]}},{"type":"Feature","properties":{"state":"Karnataka","district":7,"district_n":"KOPPAL","pc":8,"pc_name":"Koppal","ac":60,"ac_name":"Kushtagi","booth":145,"booth_name":"Sr Sr M M Vishweshwarayya H& H School Building South Wing"},"geometry":{"type":"Point","coordinates":[76.40231,15.76985]}},{"type":"Feature","properties":{"state":"Karnataka","district":7,"district_n":"KOPPAL","pc":8,"pc_name":"Koppal","ac":60,"ac_name":"Kushtagi","booth":17,"booth_name":"Ghp School (west Wing)"},"geometry":{"type":"Point","coordinates":[75.99682,15.92185]}},{"type":"Feature","properties":{"state":"Karnataka","district":7,"district_n":"KOPPAL","pc":8,"pc_name":"Koppal","ac":60,"ac_name":"Kushtagi","booth":19,"booth_name":"Ghp School"},"geometry":{"type":"Point","coordinates":[76.01408,15.9103279]}},{"type":"Feature","properties":{"state":"Karnataka","district":7,"district_n":"KOPPAL","pc":8,"pc_name":"Koppal","ac":60,"ac_name":"Kushtagi","booth":20,"booth_name":"Ghp School (west Wing)"},"geometry":{"type":"Point","coordinates":[76.03517,15.9119549]}},{"type":"Feature","properties":{"state":"Karnataka","district":7,"district_n":"KOPPAL","pc":8,"pc_name":"Koppal","ac":60,"ac_name":"Kushtagi","booth":22,"booth_name":"Ghp School"},"geometry":{"type":"Point","coordinates":[76.03738,15.921998]}},{"type":"Feature","properties":{"state":"Karnataka","district":7,"district_n":"KOPPAL","pc":8,"pc_name":"Koppal","ac":60,"ac_name":"Kushtagi","booth":247,"booth_name":"Ghp Ghp School"},"geometry":{"type":"Point","coordinates":[76.37407,15.6736946]}},{"type":"Feature","properties":{"state":"Karnataka","district":7,"district_n":"KOPPAL","pc":8,"pc_name":"Koppal","ac":60,"ac_name":"Kushtagi","booth":251,"booth_name":"Ghp Ghp School"},"geometry":{"type":"Point","coordinates":[76.34033,15.6733179]}},{"type":"Feature","properties":{"state":"Karnataka","district":7,"district_n":"KOPPAL","pc":8,"pc_name":"Koppal","ac":60,"ac_name":"Kushtagi","booth":99,"booth_name":"Ghp School"},"geometry":{"type":"Point","coordinates":[75.87599,15.8839]}},{"type":"Feature","properties":{"state":"Karnataka","district":7,"district_n":"KOPPAL","pc":8,"pc_name":"Koppal","ac":60,"ac_name":"Kushtagi","booth":101,"booth_name":"Ghp School"},"geometry":{"type":"Point","coordinates":[75.8569,15.8721046]}},{"type":"Feature","properties":{"state":"Karnataka","district":7,"district_n":"KOPPAL","pc":8,"pc_name":"Koppal","ac":60,"ac_name":"Kushtagi","booth":119,"booth_name":"Gmhp School (north Wing)"},"geometry":{"type":"Point","coordinates":[76.09135,15.82574]}},{"type":"Feature","properties":{"state":"Karnataka","district":7,"district_n":"KOPPAL","pc":8,"pc_name":"Koppal","ac":60,"ac_name":"Kushtagi","booth":205,"booth_name":"Ghp Ghp School"},"geometry":{"type":"Point","coordinates":[75.891304,15.8372049]}},{"type":"Feature","properties":{"state":"Karnataka","district":7,"district_n":"KOPPAL","pc":8,"pc_name":"Koppal","ac":60,"ac_name":"Kushtagi","booth":249,"booth_name":"Glp Glp School"},"geometry":{"type":"Point","coordinates":[76.3485,15.7232971]}},{"type":"Feature","properties":{"state":"Karnataka","district":7,"district_n":"KOPPAL","pc":8,"pc_name":"Koppal","ac":60,"ac_name":"Kushtagi","booth":122,"booth_name":"Grama Panchayat Karyalay"},"geometry":{"type":"Point","coordinates":[76.0923843,15.824235]}},{"type":"Feature","properties":{"state":"Karnataka","district":7,"district_n":"KOPPAL","pc":8,"pc_name":"Koppal","ac":60,"ac_name":"Kushtagi","booth":168,"booth_name":"Gbhp School Building (branch School)"},"geometry":{"type":"Point","coordinates":[76.19195,15.75279]}},{"type":"Feature","properties":{"state":"Karnataka","district":7,"district_n":"KOPPAL","pc":8,"pc_name":"Koppal","ac":60,"ac_name":"Kushtagi","booth":169,"booth_name":"Corporation Office Kushtagi sabhagan"},"geometry":{"type":"Point","coordinates":[76.18957,15.7554178]}},{"type":"Feature","properties":{"state":"Karnataka","district":7,"district_n":"KOPPAL","pc":8,"pc_name":"Koppal","ac":60,"ac_name":"Kushtagi","booth":232,"booth_name":"Gram panchayath karyalaya"},"geometry":{"type":"Point","coordinates":[76.22479,15.7259064]}},{"type":"Feature","properties":{"state":"Karnataka","district":7,"district_n":"KOPPAL","pc":8,"pc_name":"Koppal","ac":60,"ac_name":"Kushtagi","booth":234,"booth_name":"Glp Glp School"},"geometry":{"type":"Point","coordinates":[76.26216,15.7167263]}},{"type":"Feature","properties":{"state":"Karnataka","district":7,"district_n":"KOPPAL","pc":8,"pc_name":"Koppal","ac":60,"ac_name":"Kushtagi","booth":244,"booth_name":"Ghps school"},"geometry":{"type":"Point","coordinates":[76.465126,15.7123251]}},{"type":"Feature","properties":{"state":"Karnataka","district":7,"district_n":"KOPPAL","pc":8,"pc_name":"Koppal","ac":60,"ac_name":"Kushtagi","booth":110,"booth_name":"Ghp School(right Wing)"},"geometry":{"type":"Point","coordinates":[75.9365158,15.8408651]}},{"type":"Feature","properties":{"state":"Karnataka","district":7,"district_n":"KOPPAL","pc":8,"pc_name":"Koppal","ac":60,"ac_name":"Kushtagi","booth":147,"booth_name":"Ggp School South Wing"},"geometry":{"type":"Point","coordinates":[76.40514,15.768508]}},{"type":"Feature","properties":{"state":"Karnataka","district":7,"district_n":"KOPPAL","pc":8,"pc_name":"Koppal","ac":60,"ac_name":"Kushtagi","booth":148,"booth_name":"Ggpu College Building (left Wing)"},"geometry":{"type":"Point","coordinates":[76.40585,15.77008]}},{"type":"Feature","properties":{"state":"Karnataka","district":7,"district_n":"KOPPAL","pc":8,"pc_name":"Koppal","ac":60,"ac_name":"Kushtagi","booth":171,"booth_name":"G U H P School New Building"},"geometry":{"type":"Point","coordinates":[76.18657,15.7587986]}},{"type":"Feature","properties":{"state":"Karnataka","district":7,"district_n":"KOPPAL","pc":8,"pc_name":"Koppal","ac":60,"ac_name":"Kushtagi","booth":242,"booth_name":"Ghp Ghp School"},"geometry":{"type":"Point","coordinates":[76.427,15.69085]}},{"type":"Feature","properties":{"state":"Karnataka","district":7,"district_n":"KOPPAL","pc":8,"pc_name":"Koppal","ac":60,"ac_name":"Kushtagi","booth":116,"booth_name":"Grama Panchayat Karyalay (left Wing)"},"geometry":{"type":"Point","coordinates":[76.0098,15.8410521]}},{"type":"Feature","properties":{"state":"Karnataka","district":7,"district_n":"KOPPAL","pc":8,"pc_name":"Koppal","ac":60,"ac_name":"Kushtagi","booth":7,"booth_name":"Glp School (west Right Wing)"},"geometry":{"type":"Point","coordinates":[76.05484,15.9526253]}},{"type":"Feature","properties":{"state":"Karnataka","district":7,"district_n":"KOPPAL","pc":8,"pc_name":"Koppal","ac":60,"ac_name":"Kushtagi","booth":198,"booth_name":"Ghp Ghp School right wing"},"geometry":{"type":"Point","coordinates":[76.00382,15.8160019]}},{"type":"Feature","properties":{"state":"Karnataka","district":7,"district_n":"KOPPAL","pc":8,"pc_name":"Koppal","ac":60,"ac_name":"Kushtagi","booth":241,"booth_name":"Ghp School"},"geometry":{"type":"Point","coordinates":[76.4135742,15.6970167]}},{"type":"Feature","properties":{"state":"Karnataka","district":7,"district_n":"KOPPAL","pc":8,"pc_name":"Koppal","ac":60,"ac_name":"Kushtagi","booth":243,"booth_name":"Ghp Ghp School"},"geometry":{"type":"Point","coordinates":[76.41782,15.6989183]}}]}