{"type":"FeatureCollection","features":[{"type":"Feature","properties":{"state":"Karnataka","district":7,"district_n":"KOPPAL","pc":8,"pc_name":"Koppal","ac":64,"ac_name":"Koppal","booth":156,"booth_name":"Government Higher Primary School, Halavagali"},"geometry":{"type":"Point","coordinates":[75.9679,15.1742]}},{"type":"Feature","properties":{"state":"Karnataka","district":7,"district_n":"KOPPAL","pc":8,"pc_name":"Koppal","ac":64,"ac_name":"Koppal","booth":157,"booth_name":"Government Lower Primary School, Kesalapur"},"geometry":{"type":"Point","coordinates":[75.95369,15.15995]}},{"type":"Feature","properties":{"state":"Karnataka","district":7,"district_n":"KOPPAL","pc":8,"pc_name":"Koppal","ac":64,"ac_name":"Koppal","booth":158,"booth_name":"Government Higher Primary School, Nelogipura"},"geometry":{"type":"Point","coordinates":[75.9865,15.1644716]}},{"type":"Feature","properties":{"state":"Karnataka","district":7,"district_n":"KOPPAL","pc":8,"pc_name":"Koppal","ac":64,"ac_name":"Koppal","booth":159,"booth_name":"Government Higher Primary School, (south Wing) Tigari"},"geometry":{"type":"Point","coordinates":[76.02318,15.170083]}},{"type":"Feature","properties":{"state":"Karnataka","district":7,"district_n":"KOPPAL","pc":8,"pc_name":"Koppal","ac":64,"ac_name":"Koppal","booth":160,"booth_name":"Government Higher Primary School, (west Wing)tigari"},"geometry":{"type":"Point","coordinates":[76.02325,15.1696749]}},{"type":"Feature","properties":{"state":"Karnataka","district":7,"district_n":"KOPPAL","pc":8,"pc_name":"Koppal","ac":64,"ac_name":"Koppal","booth":161,"booth_name":"Government Higher Primary School, Old Building (east Wing) Hanakunti"},"geometry":{"type":"Point","coordinates":[76.04563,15.1672964]}},{"type":"Feature","properties":{"state":"Karnataka","district":7,"district_n":"KOPPAL","pc":8,"pc_name":"Koppal","ac":64,"ac_name":"Koppal","booth":162,"booth_name":"Government Higher Primary School, New Building (south Wing) Hanakunti"},"geometry":{"type":"Point","coordinates":[76.0475,15.16801]}},{"type":"Feature","properties":{"state":"Karnataka","district":7,"district_n":"KOPPAL","pc":8,"pc_name":"Koppal","ac":64,"ac_name":"Koppal","booth":163,"booth_name":"Government Higher Primary School,(south Wing) mattur"},"geometry":{"type":"Point","coordinates":[76.06593,15.1863585]}},{"type":"Feature","properties":{"state":"Karnataka","district":7,"district_n":"KOPPAL","pc":8,"pc_name":"Koppal","ac":64,"ac_name":"Koppal","booth":164,"booth_name":"Government Higher Primary School,(north Wing) mattur"},"geometry":{"type":"Point","coordinates":[76.0660248,15.1865816]}},{"type":"Feature","properties":{"state":"Karnataka","district":7,"district_n":"KOPPAL","pc":8,"pc_name":"Koppal","ac":64,"ac_name":"Koppal","booth":165,"booth_name":"Government highschool Building Hyati"},"geometry":{"type":"Point","coordinates":[76.16767,15.26976]}},{"type":"Feature","properties":{"state":"Karnataka","district":7,"district_n":"KOPPAL","pc":8,"pc_name":"Koppal","ac":64,"ac_name":"Koppal","booth":166,"booth_name":"Ghs Building Hyati"},"geometry":{"type":"Point","coordinates":[76.16903,15.2700415]}},{"type":"Feature","properties":{"state":"Karnataka","district":7,"district_n":"KOPPAL","pc":8,"pc_name":"Koppal","ac":64,"ac_name":"Koppal","booth":167,"booth_name":"Glps Building Mellikeri"},"geometry":{"type":"Point","coordinates":[76.1821442,15.2678738]}},{"type":"Feature","properties":{"state":"Karnataka","district":7,"district_n":"KOPPAL","pc":8,"pc_name":"Koppal","ac":64,"ac_name":"Koppal","booth":168,"booth_name":"Government Higher Primary School, Lachanakeri"},"geometry":{"type":"Point","coordinates":[76.223,15.2696]}},{"type":"Feature","properties":{"state":"Karnataka","district":7,"district_n":"KOPPAL","pc":8,"pc_name":"Koppal","ac":64,"ac_name":"Koppal","booth":169,"booth_name":"Government Higher Primary School, Kunikeri"},"geometry":{"type":"Point","coordinates":[76.2120056,15.286108]}},{"type":"Feature","properties":{"state":"Karnataka","district":7,"district_n":"KOPPAL","pc":8,"pc_name":"Koppal","ac":64,"ac_name":"Koppal","booth":170,"booth_name":"Government Higher Primary School, Kunikeri Tanda"},"geometry":{"type":"Point","coordinates":[76.2094,15.304]}},{"type":"Feature","properties":{"state":"Karnataka","district":7,"district_n":"KOPPAL","pc":8,"pc_name":"Koppal","ac":64,"ac_name":"Koppal","booth":171,"booth_name":"Government Higher Primary School, (north Wing) Hirebaganal"},"geometry":{"type":"Point","coordinates":[76.2433,15.3105068]}},{"type":"Feature","properties":{"state":"Karnataka","district":7,"district_n":"KOPPAL","pc":8,"pc_name":"Koppal","ac":64,"ac_name":"Koppal","booth":172,"booth_name":"Government Higher Primary School, (south Wing) Hirebaganal"},"geometry":{"type":"Point","coordinates":[76.24347,15.3105268]}},{"type":"Feature","properties":{"state":"Karnataka","district":7,"district_n":"KOPPAL","pc":8,"pc_name":"Koppal","ac":64,"ac_name":"Koppal","booth":173,"booth_name":"Government Higher Primary School, Allanagar"},"geometry":{"type":"Point","coordinates":[76.24522,15.3266029]}},{"type":"Feature","properties":{"state":"Karnataka","district":7,"district_n":"KOPPAL","pc":8,"pc_name":"Koppal","ac":64,"ac_name":"Koppal","booth":72,"booth_name":"Government Lower Primary School (north Wing ) harijan Colony Betagera"},"geometry":{"type":"Point","coordinates":[76.0470352,15.211132]}},{"type":"Feature","properties":{"state":"Karnataka","district":7,"district_n":"KOPPAL","pc":8,"pc_name":"Koppal","ac":64,"ac_name":"Koppal","booth":73,"booth_name":"Government Lower Primary School (south Wing ) harijan Colony Betagera"},"geometry":{"type":"Point","coordinates":[76.0468,15.2114]}},{"type":"Feature","properties":{"state":"Karnataka","district":7,"district_n":"KOPPAL","pc":8,"pc_name":"Koppal","ac":64,"ac_name":"Koppal","booth":74,"booth_name":"Government Higher Primary School Building Dombralli"},"geometry":{"type":"Point","coordinates":[76.10862,15.2692947]}},{"type":"Feature","properties":{"state":"Karnataka","district":7,"district_n":"KOPPAL","pc":8,"pc_name":"Koppal","ac":64,"ac_name":"Koppal","booth":75,"booth_name":"Government Lower Primary School Building Budihal"},"geometry":{"type":"Point","coordinates":[76.10137,15.2751818]}},{"type":"Feature","properties":{"state":"Karnataka","district":7,"district_n":"KOPPAL","pc":8,"pc_name":"Koppal","ac":64,"ac_name":"Koppal","booth":76,"booth_name":"Government Lower Primary School Building Chukkanakal"},"geometry":{"type":"Point","coordinates":[76.1042,15.3143]}},{"type":"Feature","properties":{"state":"Karnataka","district":7,"district_n":"KOPPAL","pc":8,"pc_name":"Koppal","ac":64,"ac_name":"Koppal","booth":77,"booth_name":"Government Higher Primary School Old Building Bahaddurbandi"},"geometry":{"type":"Point","coordinates":[76.1643143,15.3163586]}},{"type":"Feature","properties":{"state":"Karnataka","district":7,"district_n":"KOPPAL","pc":8,"pc_name":"Koppal","ac":64,"ac_name":"Koppal","booth":78,"booth_name":"Government Higher Primary School New Building(east Wing) Bahaddurbandi"},"geometry":{"type":"Point","coordinates":[76.16443,15.3166485]}},{"type":"Feature","properties":{"state":"Karnataka","district":7,"district_n":"KOPPAL","pc":8,"pc_name":"Koppal","ac":64,"ac_name":"Koppal","booth":79,"booth_name":"Government Higher Primary School New Building(south Wing) Bahaddurbandi"},"geometry":{"type":"Point","coordinates":[76.1641,15.3149]}},{"type":"Feature","properties":{"state":"Karnataka","district":7,"district_n":"KOPPAL","pc":8,"pc_name":"Koppal","ac":64,"ac_name":"Koppal","booth":80,"booth_name":"Government Lower Primary School Huvinal"},"geometry":{"type":"Point","coordinates":[76.17282,15.3195715]}},{"type":"Feature","properties":{"state":"Karnataka","district":7,"district_n":"KOPPAL","pc":8,"pc_name":"Koppal","ac":64,"ac_name":"Koppal","booth":81,"booth_name":"Government Primary School Urdu Buiding(north Wing) Paltanagalli Koppal"},"geometry":{"type":"Point","coordinates":[76.15685,15.34281]}},{"type":"Feature","properties":{"state":"Karnataka","district":7,"district_n":"KOPPAL","pc":8,"pc_name":"Koppal","ac":64,"ac_name":"Koppal","booth":82,"booth_name":"Government Higher Primary School (west Wing) Near Sirasappayyana Math Koppal"},"geometry":{"type":"Point","coordinates":[76.1577,15.33883]}},{"type":"Feature","properties":{"state":"Karnataka","district":7,"district_n":"KOPPAL","pc":8,"pc_name":"Koppal","ac":64,"ac_name":"Koppal","booth":83,"booth_name":"Government Higher Primary School (east Wing) Near Sirasappayyana Math Koppal"},"geometry":{"type":"Point","coordinates":[76.151886,15.33498]}},{"type":"Feature","properties":{"state":"Karnataka","district":7,"district_n":"KOPPAL","pc":8,"pc_name":"Koppal","ac":64,"ac_name":"Koppal","booth":84,"booth_name":"Government Higher Primary School New Building Near Sirasappayyana Math Koppal"},"geometry":{"type":"Point","coordinates":[76.15172,15.3349218]}},{"type":"Feature","properties":{"state":"Karnataka","district":7,"district_n":"KOPPAL","pc":8,"pc_name":"Koppal","ac":64,"ac_name":"Koppal","booth":85,"booth_name":"Government Higher Primary School Hamalar Colony Koppal"},"geometry":{"type":"Point","coordinates":[76.1588,15.33632]}},{"type":"Feature","properties":{"state":"Karnataka","district":7,"district_n":"KOPPAL","pc":8,"pc_name":"Koppal","ac":64,"ac_name":"Koppal","booth":86,"booth_name":"olekar shikshan samyukta model kuvempu kannda primary school old building Koppal"},"geometry":{"type":"Point","coordinates":[76.15633,15.3384819]}},{"type":"Feature","properties":{"state":"Karnataka","district":7,"district_n":"KOPPAL","pc":8,"pc_name":"Koppal","ac":64,"ac_name":"Koppal","booth":87,"booth_name":"olekar shikshan samyukta model kuvempu kannda primary school new building Koppal"},"geometry":{"type":"Point","coordinates":[76.15615,15.3384666]}},{"type":"Feature","properties":{"state":"Karnataka","district":7,"district_n":"KOPPAL","pc":8,"pc_name":"Koppal","ac":64,"ac_name":"Koppal","booth":88,"booth_name":"Government Primary School Urdu Buiding(south Wing) Paltanagalli Koppal"},"geometry":{"type":"Point","coordinates":[76.1555557,15.34054]}},{"type":"Feature","properties":{"state":"Karnataka","district":7,"district_n":"KOPPAL","pc":8,"pc_name":"Koppal","ac":64,"ac_name":"Koppal","booth":193,"booth_name":"Government Higher Primary School,( East Wing) Karkihalli"},"geometry":{"type":"Point","coordinates":[76.2469,15.2548]}},{"type":"Feature","properties":{"state":"Karnataka","district":7,"district_n":"KOPPAL","pc":8,"pc_name":"Koppal","ac":64,"ac_name":"Koppal","booth":194,"booth_name":"Gram Panchayat Office Building, Hitnal 1"},"geometry":{"type":"Point","coordinates":[76.3125,15.3292]}},{"type":"Feature","properties":{"state":"Karnataka","district":7,"district_n":"KOPPAL","pc":8,"pc_name":"Koppal","ac":64,"ac_name":"Koppal","booth":195,"booth_name":"Sri Ram Murarji High School, Hitnal 2"},"geometry":{"type":"Point","coordinates":[76.3129,15.3295]}},{"type":"Feature","properties":{"state":"Karnataka","district":7,"district_n":"KOPPAL","pc":8,"pc_name":"Koppal","ac":64,"ac_name":"Koppal","booth":196,"booth_name":"Gmhps Building, (south Wing) Hitnal"},"geometry":{"type":"Point","coordinates":[76.3137,15.3293]}},{"type":"Feature","properties":{"state":"Karnataka","district":7,"district_n":"KOPPAL","pc":8,"pc_name":"Koppal","ac":64,"ac_name":"Koppal","booth":197,"booth_name":"Gmhps Behind Main Building Room, (north Wing) Hitnal"},"geometry":{"type":"Point","coordinates":[76.3123,15.3309]}},{"type":"Feature","properties":{"state":"Karnataka","district":7,"district_n":"KOPPAL","pc":8,"pc_name":"Koppal","ac":64,"ac_name":"Koppal","booth":198,"booth_name":"Gmhps Building,(east Wing) Agalakera"},"geometry":{"type":"Point","coordinates":[76.3276,15.3396]}},{"type":"Feature","properties":{"state":"Karnataka","district":7,"district_n":"KOPPAL","pc":8,"pc_name":"Koppal","ac":64,"ac_name":"Koppal","booth":199,"booth_name":"Gmhps Building,(west Wing) Agalakera"},"geometry":{"type":"Point","coordinates":[76.3274,15.3396]}},{"type":"Feature","properties":{"state":"Karnataka","district":7,"district_n":"KOPPAL","pc":8,"pc_name":"Koppal","ac":64,"ac_name":"Koppal","booth":200,"booth_name":"Gram Panchayat Office Building, Agalakera 2"},"geometry":{"type":"Point","coordinates":[76.3269,15.3389]}},{"type":"Feature","properties":{"state":"Karnataka","district":7,"district_n":"KOPPAL","pc":8,"pc_name":"Koppal","ac":64,"ac_name":"Koppal","booth":201,"booth_name":"Vsssn Building, Agalakera 3"},"geometry":{"type":"Point","coordinates":[76.3289,15.34]}},{"type":"Feature","properties":{"state":"Karnataka","district":7,"district_n":"KOPPAL","pc":8,"pc_name":"Koppal","ac":64,"ac_name":"Koppal","booth":202,"booth_name":"Government Higher Primary School, Old Building, (north Wing) Shivapur"},"geometry":{"type":"Point","coordinates":[76.3489,15.3374]}},{"type":"Feature","properties":{"state":"Karnataka","district":7,"district_n":"KOPPAL","pc":8,"pc_name":"Koppal","ac":64,"ac_name":"Koppal","booth":203,"booth_name":"Government Higher Primary School, Old Building,(left Room Of North Wing) Shivapur"},"geometry":{"type":"Point","coordinates":[76.3494,15.3372]}},{"type":"Feature","properties":{"state":"Karnataka","district":7,"district_n":"KOPPAL","pc":8,"pc_name":"Koppal","ac":64,"ac_name":"Koppal","booth":204,"booth_name":"Government Higher Primary School, New Building (east Wing) Shivapur 2"},"geometry":{"type":"Point","coordinates":[76.3488,15.3377]}},{"type":"Feature","properties":{"state":"Karnataka","district":7,"district_n":"KOPPAL","pc":8,"pc_name":"Koppal","ac":64,"ac_name":"Koppal","booth":205,"booth_name":"Government Higher Primary School, New Building (west Wing) Shivapur 3"},"geometry":{"type":"Point","coordinates":[76.336,15.3281]}},{"type":"Feature","properties":{"state":"Karnataka","district":7,"district_n":"KOPPAL","pc":8,"pc_name":"Koppal","ac":64,"ac_name":"Koppal","booth":206,"booth_name":"Govt lower primary school Building Achalapur"},"geometry":{"type":"Point","coordinates":[76.3586,15.3758]}},{"type":"Feature","properties":{"state":"Karnataka","district":7,"district_n":"KOPPAL","pc":8,"pc_name":"Koppal","ac":64,"ac_name":"Koppal","booth":207,"booth_name":"Government Higher Primary School ( West Wing) Halebandiharlapur"},"geometry":{"type":"Point","coordinates":[76.3907,15.349]}},{"type":"Feature","properties":{"state":"Karnataka","district":7,"district_n":"KOPPAL","pc":8,"pc_name":"Koppal","ac":64,"ac_name":"Koppal","booth":208,"booth_name":"Government Higher Primary School, (east Wing ) Hosabandiharlapur 2"},"geometry":{"type":"Point","coordinates":[76.3703,15.345]}},{"type":"Feature","properties":{"state":"Karnataka","district":7,"district_n":"KOPPAL","pc":8,"pc_name":"Koppal","ac":64,"ac_name":"Koppal","booth":209,"booth_name":"Government Higher Primary School Building (west Wing) Hosabandiharlapur 3"},"geometry":{"type":"Point","coordinates":[76.37,15.3449]}},{"type":"Feature","properties":{"state":"Karnataka","district":7,"district_n":"KOPPAL","pc":8,"pc_name":"Koppal","ac":64,"ac_name":"Koppal","booth":210,"booth_name":"Government Higher Primary School (east Wing) Halebandiharlapur 4"},"geometry":{"type":"Point","coordinates":[76.3903,15.3484]}},{"type":"Feature","properties":{"state":"Karnataka","district":7,"district_n":"KOPPAL","pc":8,"pc_name":"Koppal","ac":64,"ac_name":"Koppal","booth":211,"booth_name":"Government Higher Primary School (south Wing ) building Basapur"},"geometry":{"type":"Point","coordinates":[76.3991,15.353]}},{"type":"Feature","properties":{"state":"Karnataka","district":7,"district_n":"KOPPAL","pc":8,"pc_name":"Koppal","ac":64,"ac_name":"Koppal","booth":212,"booth_name":"Govt Higher Primary school Building (east Wing ) Basapur"},"geometry":{"type":"Point","coordinates":[76.3996,15.3526]}},{"type":"Feature","properties":{"state":"Karnataka","district":7,"district_n":"KOPPAL","pc":8,"pc_name":"Koppal","ac":64,"ac_name":"Koppal","booth":213,"booth_name":"Government Higher Primary School, Narayanpet"},"geometry":{"type":"Point","coordinates":[76.414,15.3348]}},{"type":"Feature","properties":{"state":"Karnataka","district":7,"district_n":"KOPPAL","pc":8,"pc_name":"Koppal","ac":64,"ac_name":"Koppal","booth":214,"booth_name":"Government Higher Primary School, Mahammadnagar"},"geometry":{"type":"Point","coordinates":[76.3879,15.3384]}},{"type":"Feature","properties":{"state":"Karnataka","district":7,"district_n":"KOPPAL","pc":8,"pc_name":"Koppal","ac":64,"ac_name":"Koppal","booth":215,"booth_name":"Government Higher Primary School, Kampasagar"},"geometry":{"type":"Point","coordinates":[76.3291,15.3257]}},{"type":"Feature","properties":{"state":"Karnataka","district":7,"district_n":"KOPPAL","pc":8,"pc_name":"Koppal","ac":64,"ac_name":"Koppal","booth":216,"booth_name":"Government Higher Primary School, Buikding (west wing )hosalli"},"geometry":{"type":"Point","coordinates":[76.3134,15.3118]}},{"type":"Feature","properties":{"state":"Karnataka","district":7,"district_n":"KOPPAL","pc":8,"pc_name":"Koppal","ac":64,"ac_name":"Koppal","booth":217,"booth_name":"Government Higher Primary School, Buikding (south wing )hosalli"},"geometry":{"type":"Point","coordinates":[76.3133,15.3145]}},{"type":"Feature","properties":{"state":"Karnataka","district":7,"district_n":"KOPPAL","pc":8,"pc_name":"Koppal","ac":64,"ac_name":"Koppal","booth":218,"booth_name":"Ispection Building (west Wing) Hosalli 3"},"geometry":{"type":"Point","coordinates":[76.3348,15.3051]}},{"type":"Feature","properties":{"state":"Karnataka","district":7,"district_n":"KOPPAL","pc":8,"pc_name":"Koppal","ac":64,"ac_name":"Koppal","booth":219,"booth_name":"Ispection Building (east Wing) Hosalli 3"},"geometry":{"type":"Point","coordinates":[76.335,15.3054]}},{"type":"Feature","properties":{"state":"Karnataka","district":7,"district_n":"KOPPAL","pc":8,"pc_name":"Koppal","ac":64,"ac_name":"Koppal","booth":220,"booth_name":"Govt Higher Primary School Building S J S Munirabad (rs)"},"geometry":{"type":"Point","coordinates":[76.3298,15.3074]}},{"type":"Feature","properties":{"state":"Karnataka","district":7,"district_n":"KOPPAL","pc":8,"pc_name":"Koppal","ac":64,"ac_name":"Koppal","booth":221,"booth_name":"Gram Panchayat Office Building, Hulagi"},"geometry":{"type":"Point","coordinates":[76.3363,15.3088]}},{"type":"Feature","properties":{"state":"Karnataka","district":7,"district_n":"KOPPAL","pc":8,"pc_name":"Koppal","ac":64,"ac_name":"Koppal","booth":222,"booth_name":"Tungabhadra High School, (south Wing) Hulagi"},"geometry":{"type":"Point","coordinates":[76.3379,15.3097]}},{"type":"Feature","properties":{"state":"Karnataka","district":7,"district_n":"KOPPAL","pc":8,"pc_name":"Koppal","ac":64,"ac_name":"Koppal","booth":223,"booth_name":"Tungabhadra High School, (north Wing) Hulagi"},"geometry":{"type":"Point","coordinates":[76.3379,15.3096]}},{"type":"Feature","properties":{"state":"Karnataka","district":7,"district_n":"KOPPAL","pc":8,"pc_name":"Koppal","ac":64,"ac_name":"Koppal","booth":224,"booth_name":"Tungabhadra High School, (left Room of North Wing) Hulagi"},"geometry":{"type":"Point","coordinates":[76.3378,15.3095]}},{"type":"Feature","properties":{"state":"Karnataka","district":7,"district_n":"KOPPAL","pc":8,"pc_name":"Koppal","ac":64,"ac_name":"Koppal","booth":225,"booth_name":"Government Higher Primary School, (left Wing) Munirabad 1"},"geometry":{"type":"Point","coordinates":[76.3374,15.3092]}},{"type":"Feature","properties":{"state":"Karnataka","district":7,"district_n":"KOPPAL","pc":8,"pc_name":"Koppal","ac":64,"ac_name":"Koppal","booth":226,"booth_name":"Government Higher Primary School, (right Wing) Munirabad 2"},"geometry":{"type":"Point","coordinates":[76.3373,15.3093]}},{"type":"Feature","properties":{"state":"Karnataka","district":7,"district_n":"KOPPAL","pc":8,"pc_name":"Koppal","ac":64,"ac_name":"Koppal","booth":227,"booth_name":"Government Lower Primary School (right Wing) Hosalingapur 1"},"geometry":{"type":"Point","coordinates":[76.3205,15.2977]}},{"type":"Feature","properties":{"state":"Karnataka","district":7,"district_n":"KOPPAL","pc":8,"pc_name":"Koppal","ac":64,"ac_name":"Koppal","booth":228,"booth_name":"Government Lower Primary School, (left Wing) Hosalingapur 2"},"geometry":{"type":"Point","coordinates":[76.3207,15.298]}},{"type":"Feature","properties":{"state":"Karnataka","district":7,"district_n":"KOPPAL","pc":8,"pc_name":"Koppal","ac":64,"ac_name":"Koppal","booth":229,"booth_name":"Government Lower Primary School, Building, Hale Lingapur"},"geometry":{"type":"Point","coordinates":[76.3265,15.2962]}},{"type":"Feature","properties":{"state":"Karnataka","district":7,"district_n":"KOPPAL","pc":8,"pc_name":"Koppal","ac":64,"ac_name":"Koppal","booth":230,"booth_name":"Government Lower Primary School, Holemudlapur"},"geometry":{"type":"Point","coordinates":[76.3338,15.2839]}},{"type":"Feature","properties":{"state":"Karnataka","district":7,"district_n":"KOPPAL","pc":8,"pc_name":"Koppal","ac":64,"ac_name":"Koppal","booth":231,"booth_name":"Mhps Building (east Wing) Munirabad Dam 1"},"geometry":{"type":"Point","coordinates":[76.3262,15.2761]}},{"type":"Feature","properties":{"state":"Karnataka","district":7,"district_n":"KOPPAL","pc":8,"pc_name":"Koppal","ac":64,"ac_name":"Koppal","booth":232,"booth_name":"Mhps Building (west Wing) Munirabad Dam 2"},"geometry":{"type":"Point","coordinates":[76.3257,15.2762]}},{"type":"Feature","properties":{"state":"Karnataka","district":7,"district_n":"KOPPAL","pc":8,"pc_name":"Koppal","ac":64,"ac_name":"Koppal","booth":233,"booth_name":"Keb Club Building, Munirabad Dam 3"},"geometry":{"type":"Point","coordinates":[76.3276,15.2744]}},{"type":"Feature","properties":{"state":"Karnataka","district":7,"district_n":"KOPPAL","pc":8,"pc_name":"Koppal","ac":64,"ac_name":"Koppal","booth":234,"booth_name":"Gram Panchayat Office, Building, Munirabad Dam 4"},"geometry":{"type":"Point","coordinates":[76.3207,15.2816]}},{"type":"Feature","properties":{"state":"Karnataka","district":7,"district_n":"KOPPAL","pc":8,"pc_name":"Koppal","ac":64,"ac_name":"Koppal","booth":235,"booth_name":"Government Higher Primary School, New Building, Munirabad 5"},"geometry":{"type":"Point","coordinates":[76.3254,15.2764]}},{"type":"Feature","properties":{"state":"Karnataka","district":7,"district_n":"KOPPAL","pc":8,"pc_name":"Koppal","ac":64,"ac_name":"Koppal","booth":236,"booth_name":"Vijayanagar High School, Munirabad Dam 6"},"geometry":{"type":"Point","coordinates":[76.3234,15.2789]}},{"type":"Feature","properties":{"state":"Karnataka","district":7,"district_n":"KOPPAL","pc":8,"pc_name":"Koppal","ac":64,"ac_name":"Koppal","booth":7,"booth_name":"Government model higher primary school (north Wing) Halagera"},"geometry":{"type":"Point","coordinates":[76.07946,15.37305]}},{"type":"Feature","properties":{"state":"Karnataka","district":7,"district_n":"KOPPAL","pc":8,"pc_name":"Koppal","ac":64,"ac_name":"Koppal","booth":8,"booth_name":"Government model higher primary school (east Wing) Halagera"},"geometry":{"type":"Point","coordinates":[76.07908,15.3729315]}},{"type":"Feature","properties":{"state":"Karnataka","district":7,"district_n":"KOPPAL","pc":8,"pc_name":"Koppal","ac":64,"ac_name":"Koppal","booth":9,"booth_name":"Government model higher primary school (east Wing) Madinur"},"geometry":{"type":"Point","coordinates":[76.1301956,15.4253035]}},{"type":"Feature","properties":{"state":"Karnataka","district":7,"district_n":"KOPPAL","pc":8,"pc_name":"Koppal","ac":64,"ac_name":"Koppal","booth":10,"booth_name":"Government model higher primary school (west Wing) Madinur"},"geometry":{"type":"Point","coordinates":[76.13,15.4253]}},{"type":"Feature","properties":{"state":"Karnataka","district":7,"district_n":"KOPPAL","pc":8,"pc_name":"Koppal","ac":64,"ac_name":"Koppal","booth":11,"booth_name":"Government Higher Primary School Naregal"},"geometry":{"type":"Point","coordinates":[76.15033,15.3987818]}},{"type":"Feature","properties":{"state":"Karnataka","district":7,"district_n":"KOPPAL","pc":8,"pc_name":"Koppal","ac":64,"ac_name":"Koppal","booth":12,"booth_name":"Government Higher Primary School Yatnatti"},"geometry":{"type":"Point","coordinates":[76.131,15.3668]}},{"type":"Feature","properties":{"state":"Karnataka","district":7,"district_n":"KOPPAL","pc":8,"pc_name":"Koppal","ac":64,"ac_name":"Koppal","booth":13,"booth_name":"Government Lower Primary School Dadegal"},"geometry":{"type":"Point","coordinates":[76.1228256,15.3550453]}},{"type":"Feature","properties":{"state":"Karnataka","district":7,"district_n":"KOPPAL","pc":8,"pc_name":"Koppal","ac":64,"ac_name":"Koppal","booth":14,"booth_name":"Government higher Primary School Kolur"},"geometry":{"type":"Point","coordinates":[76.1046,15.3386]}},{"type":"Feature","properties":{"state":"Karnataka","district":7,"district_n":"KOPPAL","pc":8,"pc_name":"Koppal","ac":64,"ac_name":"Koppal","booth":15,"booth_name":"Government Lower Primary School Katralli"},"geometry":{"type":"Point","coordinates":[76.09668,15.319068]}},{"type":"Feature","properties":{"state":"Karnataka","district":7,"district_n":"KOPPAL","pc":8,"pc_name":"Koppal","ac":64,"ac_name":"Koppal","booth":16,"booth_name":"Government Boys Model higher primary School (east Wing) Kavalur"},"geometry":{"type":"Point","coordinates":[75.9401245,15.29007]}},{"type":"Feature","properties":{"state":"Karnataka","district":7,"district_n":"KOPPAL","pc":8,"pc_name":"Koppal","ac":64,"ac_name":"Koppal","booth":17,"booth_name":"Government Boys Model higher primary School (west Wing) Kavalur"},"geometry":{"type":"Point","coordinates":[75.9399,15.2909269]}},{"type":"Feature","properties":{"state":"Karnataka","district":7,"district_n":"KOPPAL","pc":8,"pc_name":"Koppal","ac":64,"ac_name":"Koppal","booth":18,"booth_name":"Government Girls Model higher primary School (west Wing) Kavalur"},"geometry":{"type":"Point","coordinates":[75.94028,15.29067]}},{"type":"Feature","properties":{"state":"Karnataka","district":7,"district_n":"KOPPAL","pc":8,"pc_name":"Koppal","ac":64,"ac_name":"Koppal","booth":19,"booth_name":"Government Girls Model higher primary School (east Wing) Kavalur"},"geometry":{"type":"Point","coordinates":[75.9401,15.29]}},{"type":"Feature","properties":{"state":"Karnataka","district":7,"district_n":"KOPPAL","pc":8,"pc_name":"Koppal","ac":64,"ac_name":"Koppal","booth":20,"booth_name":"Government Higher Primary School (dpep) Sc/st Colony Kavalur"},"geometry":{"type":"Point","coordinates":[75.947,15.2891]}},{"type":"Feature","properties":{"state":"Karnataka","district":7,"district_n":"KOPPAL","pc":8,"pc_name":"Koppal","ac":64,"ac_name":"Koppal","booth":21,"booth_name":"Grama Panchayat New Building Kavalur"},"geometry":{"type":"Point","coordinates":[75.94229,15.2889967]}},{"type":"Feature","properties":{"state":"Karnataka","district":7,"district_n":"KOPPAL","pc":8,"pc_name":"Koppal","ac":64,"ac_name":"Koppal","booth":22,"booth_name":"Government higher Primary School Murlapur"},"geometry":{"type":"Point","coordinates":[75.91728,15.2616386]}},{"type":"Feature","properties":{"state":"Karnataka","district":7,"district_n":"KOPPAL","pc":8,"pc_name":"Koppal","ac":64,"ac_name":"Koppal","booth":23,"booth_name":"Government higher Primary School Ghattireddihal"},"geometry":{"type":"Point","coordinates":[75.9262,15.2439]}},{"type":"Feature","properties":{"state":"Karnataka","district":7,"district_n":"KOPPAL","pc":8,"pc_name":"Koppal","ac":64,"ac_name":"Koppal","booth":24,"booth_name":"Grama Panchayat Building Alavandi"},"geometry":{"type":"Point","coordinates":[75.9792,15.2329]}},{"type":"Feature","properties":{"state":"Karnataka","district":7,"district_n":"KOPPAL","pc":8,"pc_name":"Koppal","ac":64,"ac_name":"Koppal","booth":25,"booth_name":"Ennekalu Society Building Alvandi"},"geometry":{"type":"Point","coordinates":[75.97843,15.2334833]}},{"type":"Feature","properties":{"state":"Karnataka","district":7,"district_n":"KOPPAL","pc":8,"pc_name":"Koppal","ac":64,"ac_name":"Koppal","booth":26,"booth_name":"Government Boys Higher Primary School Alavandi"},"geometry":{"type":"Point","coordinates":[75.97686,15.23091]}},{"type":"Feature","properties":{"state":"Karnataka","district":7,"district_n":"KOPPAL","pc":8,"pc_name":"Koppal","ac":64,"ac_name":"Koppal","booth":27,"booth_name":"Harijan Samudaya Kendra Building Alavandi"},"geometry":{"type":"Point","coordinates":[75.98255,15.228343]}},{"type":"Feature","properties":{"state":"Karnataka","district":7,"district_n":"KOPPAL","pc":8,"pc_name":"Koppal","ac":64,"ac_name":"Koppal","booth":28,"booth_name":"V S S S N Building Alavandi"},"geometry":{"type":"Point","coordinates":[75.98046,15.2284451]}},{"type":"Feature","properties":{"state":"Karnataka","district":7,"district_n":"KOPPAL","pc":8,"pc_name":"Koppal","ac":64,"ac_name":"Koppal","booth":29,"booth_name":"Sri Siddeshwar Composite Junior College Building Alavandi"},"geometry":{"type":"Point","coordinates":[75.9768,15.2301]}},{"type":"Feature","properties":{"state":"Karnataka","district":7,"district_n":"KOPPAL","pc":8,"pc_name":"Koppal","ac":64,"ac_name":"Koppal","booth":30,"booth_name":"Government higher Primary School (north Wing) Mainalli"},"geometry":{"type":"Point","coordinates":[76.0516,15.2809]}},{"type":"Feature","properties":{"state":"Karnataka","district":7,"district_n":"KOPPAL","pc":8,"pc_name":"Koppal","ac":64,"ac_name":"Koppal","booth":31,"booth_name":"Government higher Primary School Old Building (east Wing) Mainalli"},"geometry":{"type":"Point","coordinates":[76.0516357,15.2809029]}},{"type":"Feature","properties":{"state":"Karnataka","district":7,"district_n":"KOPPAL","pc":8,"pc_name":"Koppal","ac":64,"ac_name":"Koppal","booth":32,"booth_name":"Government Model Higher Primary School (north Wing) Hiresindhogi"},"geometry":{"type":"Point","coordinates":[76.0931,15.296]}},{"type":"Feature","properties":{"state":"Karnataka","district":7,"district_n":"KOPPAL","pc":8,"pc_name":"Koppal","ac":64,"ac_name":"Koppal","booth":38,"booth_name":"Government Lower Junior College Building(north Wing) Bhagyanagar"},"geometry":{"type":"Point","coordinates":[76.14425,15.3631935]}},{"type":"Feature","properties":{"state":"Karnataka","district":7,"district_n":"KOPPAL","pc":8,"pc_name":"Koppal","ac":64,"ac_name":"Koppal","booth":39,"booth_name":"Government Lower Junior College Building(south Wing) Bhagyanagar"},"geometry":{"type":"Point","coordinates":[76.14413,15.3626614]}},{"type":"Feature","properties":{"state":"Karnataka","district":7,"district_n":"KOPPAL","pc":8,"pc_name":"Koppal","ac":64,"ac_name":"Koppal","booth":40,"booth_name":"Vidyaaranya Public School Building , Opposite Fci Goddam Kinnal Road Koppal"},"geometry":{"type":"Point","coordinates":[76.14235,15.36436]}},{"type":"Feature","properties":{"state":"Karnataka","district":7,"district_n":"KOPPAL","pc":8,"pc_name":"Koppal","ac":64,"ac_name":"Koppal","booth":41,"booth_name":"Government Lower Junior College Building(center Wing) Bhagyanagar"},"geometry":{"type":"Point","coordinates":[76.14416,15.3630314]}},{"type":"Feature","properties":{"state":"Karnataka","district":7,"district_n":"KOPPAL","pc":8,"pc_name":"Koppal","ac":64,"ac_name":"Koppal","booth":42,"booth_name":"Government Model Higher Primary School (south Wing) Bhagynagar"},"geometry":{"type":"Point","coordinates":[76.1425858,15.3639]}},{"type":"Feature","properties":{"state":"Karnataka","district":7,"district_n":"KOPPAL","pc":8,"pc_name":"Koppal","ac":64,"ac_name":"Koppal","booth":43,"booth_name":"Government Model Higher Primary School (center Wing) Bhagynagar"},"geometry":{"type":"Point","coordinates":[76.14228,15.3641033]}},{"type":"Feature","properties":{"state":"Karnataka","district":7,"district_n":"KOPPAL","pc":8,"pc_name":"Koppal","ac":64,"ac_name":"Koppal","booth":44,"booth_name":"Government Model Higher Primary School (north Wing) Bhagynagar"},"geometry":{"type":"Point","coordinates":[76.14233,15.3644238]}},{"type":"Feature","properties":{"state":"Karnataka","district":7,"district_n":"KOPPAL","pc":8,"pc_name":"Koppal","ac":64,"ac_name":"Koppal","booth":45,"booth_name":"Government Model Higher Primary School (east Wing) Bhagynagar"},"geometry":{"type":"Point","coordinates":[76.1419144,15.3641768]}},{"type":"Feature","properties":{"state":"Karnataka","district":7,"district_n":"KOPPAL","pc":8,"pc_name":"Koppal","ac":64,"ac_name":"Koppal","booth":46,"booth_name":"Gram Panchayat Office Building Bhagyanagar"},"geometry":{"type":"Point","coordinates":[76.14399,15.3642]}},{"type":"Feature","properties":{"state":"Karnataka","district":7,"district_n":"KOPPAL","pc":8,"pc_name":"Koppal","ac":64,"ac_name":"Koppal","booth":47,"booth_name":"Government Higher Primary School Building Anjaneya Colony (north Wing) Bhagyanagar]"},"geometry":{"type":"Point","coordinates":[76.14405,15.3650484]}},{"type":"Feature","properties":{"state":"Karnataka","district":7,"district_n":"KOPPAL","pc":8,"pc_name":"Koppal","ac":64,"ac_name":"Koppal","booth":48,"booth_name":"Government Higher Primary School Building Anjaneya Colony (south Wing) Bhagyanagar]"},"geometry":{"type":"Point","coordinates":[76.1395,15.3726]}},{"type":"Feature","properties":{"state":"Karnataka","district":7,"district_n":"KOPPAL","pc":8,"pc_name":"Koppal","ac":64,"ac_name":"Koppal","booth":49,"booth_name":"Government Higher Primary School Building Anjaneya Colony (centre Wing) Bhagyanagar]"},"geometry":{"type":"Point","coordinates":[76.14412,15.3653545]}},{"type":"Feature","properties":{"state":"Karnataka","district":7,"district_n":"KOPPAL","pc":8,"pc_name":"Koppal","ac":64,"ac_name":"Koppal","booth":50,"booth_name":"Government Lower Primary School Mochivada Bhagyanagar"},"geometry":{"type":"Point","coordinates":[76.1442,15.3669]}},{"type":"Feature","properties":{"state":"Karnataka","district":7,"district_n":"KOPPAL","pc":8,"pc_name":"Koppal","ac":64,"ac_name":"Koppal","booth":51,"booth_name":"Government Higher Primary School Chilavadagi"},"geometry":{"type":"Point","coordinates":[76.16327,15.3958731]}},{"type":"Feature","properties":{"state":"Karnataka","district":7,"district_n":"KOPPAL","pc":8,"pc_name":"Koppal","ac":64,"ac_name":"Koppal","booth":52,"booth_name":"Government Higher Primary School Kalakeri"},"geometry":{"type":"Point","coordinates":[76.1742,15.4277]}},{"type":"Feature","properties":{"state":"Karnataka","district":7,"district_n":"KOPPAL","pc":8,"pc_name":"Koppal","ac":64,"ac_name":"Koppal","booth":53,"booth_name":"Government Lower Primary School Devalapur"},"geometry":{"type":"Point","coordinates":[76.1587,15.422348]}},{"type":"Feature","properties":{"state":"Karnataka","district":7,"district_n":"KOPPAL","pc":8,"pc_name":"Koppal","ac":64,"ac_name":"Koppal","booth":54,"booth_name":"Government Lower Primary School Hatti"},"geometry":{"type":"Point","coordinates":[76.19521,15.4261]}},{"type":"Feature","properties":{"state":"Karnataka","district":7,"district_n":"KOPPAL","pc":8,"pc_name":"Koppal","ac":64,"ac_name":"Koppal","booth":55,"booth_name":"Government Higher Primary School (east Wing)ojanahalli"},"geometry":{"type":"Point","coordinates":[76.14752,15.3866482]}},{"type":"Feature","properties":{"state":"Karnataka","district":7,"district_n":"KOPPAL","pc":8,"pc_name":"Koppal","ac":64,"ac_name":"Koppal","booth":56,"booth_name":"Government Higher Primary School (west Wing)ojanahalli"},"geometry":{"type":"Point","coordinates":[76.14768,15.38644]}},{"type":"Feature","properties":{"state":"Karnataka","district":7,"district_n":"KOPPAL","pc":8,"pc_name":"Koppal","ac":64,"ac_name":"Koppal","booth":57,"booth_name":"Government Higher Primary School Chikkasindhogi"},"geometry":{"type":"Point","coordinates":[76.10583,15.3071146]}},{"type":"Feature","properties":{"state":"Karnataka","district":7,"district_n":"KOPPAL","pc":8,"pc_name":"Koppal","ac":64,"ac_name":"Koppal","booth":58,"booth_name":"Government Model Higher Primary School (north Wing) Bisaralli"},"geometry":{"type":"Point","coordinates":[76.0767,15.2756]}},{"type":"Feature","properties":{"state":"Karnataka","district":7,"district_n":"KOPPAL","pc":8,"pc_name":"Koppal","ac":64,"ac_name":"Koppal","booth":59,"booth_name":"Government Model Higher Primary School (south Wing) Bisaralli"},"geometry":{"type":"Point","coordinates":[76.0768,15.2704]}},{"type":"Feature","properties":{"state":"Karnataka","district":7,"district_n":"KOPPAL","pc":8,"pc_name":"Koppal","ac":64,"ac_name":"Koppal","booth":60,"booth_name":"Nrupatunga Highschool Building (north Wing) Bisaralli"},"geometry":{"type":"Point","coordinates":[76.0798645,15.2758617]}},{"type":"Feature","properties":{"state":"Karnataka","district":7,"district_n":"KOPPAL","pc":8,"pc_name":"Koppal","ac":64,"ac_name":"Koppal","booth":61,"booth_name":"Nrupatunga Highschool Building (south Wing)"},"geometry":{"type":"Point","coordinates":[76.0797,15.2755]}},{"type":"Feature","properties":{"state":"Karnataka","district":7,"district_n":"KOPPAL","pc":8,"pc_name":"Koppal","ac":64,"ac_name":"Koppal","booth":62,"booth_name":"Government Higher Primary School Bikanalli"},"geometry":{"type":"Point","coordinates":[76.0579,15.2761]}},{"type":"Feature","properties":{"state":"Karnataka","district":7,"district_n":"KOPPAL","pc":8,"pc_name":"Koppal","ac":64,"ac_name":"Koppal","booth":63,"booth_name":"Government Higher Primary School Kampli"},"geometry":{"type":"Point","coordinates":[75.9898,15.2308]}},{"type":"Feature","properties":{"state":"Karnataka","district":7,"district_n":"KOPPAL","pc":8,"pc_name":"Koppal","ac":64,"ac_name":"Koppal","booth":64,"booth_name":"Government Higher Primary School Raghunathanahalli"},"geometry":{"type":"Point","coordinates":[75.9499,15.223443]}},{"type":"Feature","properties":{"state":"Karnataka","district":7,"district_n":"KOPPAL","pc":8,"pc_name":"Koppal","ac":64,"ac_name":"Koppal","booth":65,"booth_name":"Government Higher Priamary School (east Wing) Hatti"},"geometry":{"type":"Point","coordinates":[75.9348,15.2107]}},{"type":"Feature","properties":{"state":"Karnataka","district":7,"district_n":"KOPPAL","pc":8,"pc_name":"Koppal","ac":64,"ac_name":"Koppal","booth":66,"booth_name":"Government Higher Priamary School (north Wing) Hatti"},"geometry":{"type":"Point","coordinates":[75.9350739,15.2110319]}},{"type":"Feature","properties":{"state":"Karnataka","district":7,"district_n":"KOPPAL","pc":8,"pc_name":"Koppal","ac":64,"ac_name":"Koppal","booth":67,"booth_name":"Government Lower Primary School Building Belagatti"},"geometry":{"type":"Point","coordinates":[75.92782,15.2136717]}},{"type":"Feature","properties":{"state":"Karnataka","district":7,"district_n":"KOPPAL","pc":8,"pc_name":"Koppal","ac":64,"ac_name":"Koppal","booth":68,"booth_name":"Government Lower Primary School Building Bhairapur"},"geometry":{"type":"Point","coordinates":[75.98944,15.2095]}},{"type":"Feature","properties":{"state":"Karnataka","district":7,"district_n":"KOPPAL","pc":8,"pc_name":"Koppal","ac":64,"ac_name":"Koppal","booth":69,"booth_name":"Government Higher Primary School Building Moranhalli"},"geometry":{"type":"Point","coordinates":[76.0207,15.2288]}},{"type":"Feature","properties":{"state":"Karnataka","district":7,"district_n":"KOPPAL","pc":8,"pc_name":"Koppal","ac":64,"ac_name":"Koppal","booth":70,"booth_name":"Government Model Higher Primary School Building (east Wing) Betagera"},"geometry":{"type":"Point","coordinates":[76.0439148,15.2165384]}},{"type":"Feature","properties":{"state":"Karnataka","district":7,"district_n":"KOPPAL","pc":8,"pc_name":"Koppal","ac":64,"ac_name":"Koppal","booth":71,"booth_name":"Government Model Higher Primary School Building (north Wing) Betagera"},"geometry":{"type":"Point","coordinates":[76.0452652,15.2156153]}},{"type":"Feature","properties":{"state":"Karnataka","district":7,"district_n":"KOPPAL","pc":8,"pc_name":"Koppal","ac":64,"ac_name":"Koppal","booth":92,"booth_name":"Gavisiddeshwar Lower Primary School (west Wing ) Koppal"},"geometry":{"type":"Point","coordinates":[76.15263,15.3384037]}},{"type":"Feature","properties":{"state":"Karnataka","district":7,"district_n":"KOPPAL","pc":8,"pc_name":"Koppal","ac":64,"ac_name":"Koppal","booth":93,"booth_name":"Government Lower Primary School brahmanawadi (east Wing) Koppal"},"geometry":{"type":"Point","coordinates":[76.15159,15.3398933]}},{"type":"Feature","properties":{"state":"Karnataka","district":7,"district_n":"KOPPAL","pc":8,"pc_name":"Koppal","ac":64,"ac_name":"Koppal","booth":94,"booth_name":"Government Higher Primary School, Brahmanavadi (north Wing), Koppal"},"geometry":{"type":"Point","coordinates":[76.15161,15.3401213]}},{"type":"Feature","properties":{"state":"Karnataka","district":7,"district_n":"KOPPAL","pc":8,"pc_name":"Koppal","ac":64,"ac_name":"Koppal","booth":95,"booth_name":"Government Higher Primary School (centre Room), Brahmanavadi, Koppal"},"geometry":{"type":"Point","coordinates":[76.1517,15.3404617]}},{"type":"Feature","properties":{"state":"Karnataka","district":7,"district_n":"KOPPAL","pc":8,"pc_name":"Koppal","ac":64,"ac_name":"Koppal","booth":96,"booth_name":"Office of the Ee, Pred, Koppal"},"geometry":{"type":"Point","coordinates":[76.15397,15.3499384]}},{"type":"Feature","properties":{"state":"Karnataka","district":7,"district_n":"KOPPAL","pc":8,"pc_name":"Koppal","ac":64,"ac_name":"Koppal","booth":97,"booth_name":"Central Primary School (east wing) Old District Treasury Office, koppal"},"geometry":{"type":"Point","coordinates":[76.15475,15.3409033]}},{"type":"Feature","properties":{"state":"Karnataka","district":7,"district_n":"KOPPAL","pc":8,"pc_name":"Koppal","ac":64,"ac_name":"Koppal","booth":98,"booth_name":"Central Primary School (west wing) Old District Treasury Office, koppal"},"geometry":{"type":"Point","coordinates":[76.15469,15.3408365]}},{"type":"Feature","properties":{"state":"Karnataka","district":7,"district_n":"KOPPAL","pc":8,"pc_name":"Koppal","ac":64,"ac_name":"Koppal","booth":99,"booth_name":"Govt Higher Primary School, Old Building, Kotagargera, Koppal"},"geometry":{"type":"Point","coordinates":[76.15713,15.3428879]}},{"type":"Feature","properties":{"state":"Karnataka","district":7,"district_n":"KOPPAL","pc":8,"pc_name":"Koppal","ac":64,"ac_name":"Koppal","booth":100,"booth_name":"Govt Higher Primary school new building, kotagargera, Koppal"},"geometry":{"type":"Point","coordinates":[76.1568,15.3428]}},{"type":"Feature","properties":{"state":"Karnataka","district":7,"district_n":"KOPPAL","pc":8,"pc_name":"Koppal","ac":64,"ac_name":"Koppal","booth":101,"booth_name":"Govt Girls Pre University College, Koppal"},"geometry":{"type":"Point","coordinates":[76.15559,15.34905]}},{"type":"Feature","properties":{"state":"Karnataka","district":7,"district_n":"KOPPAL","pc":8,"pc_name":"Koppal","ac":64,"ac_name":"Koppal","booth":102,"booth_name":"Taluk Panchayat Office, Koppal"},"geometry":{"type":"Point","coordinates":[76.15642,15.349432]}},{"type":"Feature","properties":{"state":"Karnataka","district":7,"district_n":"KOPPAL","pc":8,"pc_name":"Koppal","ac":64,"ac_name":"Koppal","booth":106,"booth_name":"Govt Higher Primary School, New Building (north Wing) Baharpet Koppal"},"geometry":{"type":"Point","coordinates":[76.1513748,15.3483219]}},{"type":"Feature","properties":{"state":"Karnataka","district":7,"district_n":"KOPPAL","pc":8,"pc_name":"Koppal","ac":64,"ac_name":"Koppal","booth":107,"booth_name":"Govt Higher Primary School, New Building (south Wing) Baharpet, Koppal"},"geometry":{"type":"Point","coordinates":[76.1516,15.3482265]}},{"type":"Feature","properties":{"state":"Karnataka","district":7,"district_n":"KOPPAL","pc":8,"pc_name":"Koppal","ac":64,"ac_name":"Koppal","booth":108,"booth_name":"Public Girls School (east Wing), Koppal"},"geometry":{"type":"Point","coordinates":[76.15051,15.3489113]}},{"type":"Feature","properties":{"state":"Karnataka","district":7,"district_n":"KOPPAL","pc":8,"pc_name":"Koppal","ac":64,"ac_name":"Koppal","booth":109,"booth_name":"Public Girls School (west Wing), Koppal"},"geometry":{"type":"Point","coordinates":[76.1504745,15.3488913]}},{"type":"Feature","properties":{"state":"Karnataka","district":7,"district_n":"KOPPAL","pc":8,"pc_name":"Koppal","ac":64,"ac_name":"Koppal","booth":110,"booth_name":"Gandhi Memorial Govt Higher Primary School (east Wing), Koppal"},"geometry":{"type":"Point","coordinates":[76.15274,15.3462763]}},{"type":"Feature","properties":{"state":"Karnataka","district":7,"district_n":"KOPPAL","pc":8,"pc_name":"Koppal","ac":64,"ac_name":"Koppal","booth":111,"booth_name":"Gandhi Memorial Govt Higher Primary School(west Wing) Koppal"},"geometry":{"type":"Point","coordinates":[76.15262,15.346405]}},{"type":"Feature","properties":{"state":"Karnataka","district":7,"district_n":"KOPPAL","pc":8,"pc_name":"Koppal","ac":64,"ac_name":"Koppal","booth":112,"booth_name":"Block Educational Office, Koppal"},"geometry":{"type":"Point","coordinates":[76.1544,15.35078]}},{"type":"Feature","properties":{"state":"Karnataka","district":7,"district_n":"KOPPAL","pc":8,"pc_name":"Koppal","ac":64,"ac_name":"Koppal","booth":113,"booth_name":"Brc Building, Beo Office Compound, Koppal"},"geometry":{"type":"Point","coordinates":[76.15475,15.350605]}},{"type":"Feature","properties":{"state":"Karnataka","district":7,"district_n":"KOPPAL","pc":8,"pc_name":"Koppal","ac":64,"ac_name":"Koppal","booth":114,"booth_name":"Trinity Public School, Koppal"},"geometry":{"type":"Point","coordinates":[76.14766,15.3508835]}},{"type":"Feature","properties":{"state":"Karnataka","district":7,"district_n":"KOPPAL","pc":8,"pc_name":"Koppal","ac":64,"ac_name":"Koppal","booth":115,"booth_name":"Sharada High School (west Wing) Behind Bannikatti, Koppal"},"geometry":{"type":"Point","coordinates":[76.14624,15.3483]}},{"type":"Feature","properties":{"state":"Karnataka","district":7,"district_n":"KOPPAL","pc":8,"pc_name":"Koppal","ac":64,"ac_name":"Koppal","booth":116,"booth_name":"Sharada High School (west Wing) Behind Bannikatti, Koppal"},"geometry":{"type":"Point","coordinates":[76.1459351,15.3484764]}},{"type":"Feature","properties":{"state":"Karnataka","district":7,"district_n":"KOPPAL","pc":8,"pc_name":"Koppal","ac":64,"ac_name":"Koppal","booth":117,"booth_name":"Hindi Bed College Building , Gadag Road, Koppal"},"geometry":{"type":"Point","coordinates":[76.143425,15.3510036]}},{"type":"Feature","properties":{"state":"Karnataka","district":7,"district_n":"KOPPAL","pc":8,"pc_name":"Koppal","ac":64,"ac_name":"Koppal","booth":118,"booth_name":"Government Higher Primary School Gandhinagar Koppal"},"geometry":{"type":"Point","coordinates":[76.1441956,15.3514271]}},{"type":"Feature","properties":{"state":"Karnataka","district":7,"district_n":"KOPPAL","pc":8,"pc_name":"Koppal","ac":64,"ac_name":"Koppal","booth":119,"booth_name":"Govt Lower Primary School opposite Railway station, Koppal"},"geometry":{"type":"Point","coordinates":[76.1451645,15.3533363]}},{"type":"Feature","properties":{"state":"Karnataka","district":7,"district_n":"KOPPAL","pc":8,"pc_name":"Koppal","ac":64,"ac_name":"Koppal","booth":120,"booth_name":"Office Of the Asst Director of Fisheries Shashakara Mhps School Compound Station Road Koppal"},"geometry":{"type":"Point","coordinates":[76.1504745,15.3528614]}},{"type":"Feature","properties":{"state":"Karnataka","district":7,"district_n":"KOPPAL","pc":8,"pc_name":"Koppal","ac":64,"ac_name":"Koppal","booth":121,"booth_name":"Shasakara Government Model Higher Primary School, Old Building, Station road, Koppal"},"geometry":{"type":"Point","coordinates":[76.15158,15.3526783]}},{"type":"Feature","properties":{"state":"Karnataka","district":7,"district_n":"KOPPAL","pc":8,"pc_name":"Koppal","ac":64,"ac_name":"Koppal","booth":122,"booth_name":"Govt Lower Primary School, Vijayanagar Layout, Kinnal Road, Koppal"},"geometry":{"type":"Point","coordinates":[76.15086,15.356823]}},{"type":"Feature","properties":{"state":"Karnataka","district":7,"district_n":"KOPPAL","pc":8,"pc_name":"Koppal","ac":64,"ac_name":"Koppal","booth":123,"booth_name":"Govt Lower Primary School, Ganesh Nagar Koppal"},"geometry":{"type":"Point","coordinates":[76.1536255,15.3689013]}},{"type":"Feature","properties":{"state":"Karnataka","district":7,"district_n":"KOPPAL","pc":8,"pc_name":"Koppal","ac":64,"ac_name":"Koppal","booth":124,"booth_name":"Asst Executive Engineer Gescom Office (north Wing), Koppal"},"geometry":{"type":"Point","coordinates":[76.15795,15.3533564]}},{"type":"Feature","properties":{"state":"Karnataka","district":7,"district_n":"KOPPAL","pc":8,"pc_name":"Koppal","ac":64,"ac_name":"Koppal","booth":125,"booth_name":"Asst Executive Engineer Gescom Office (south Wing), Koppal"},"geometry":{"type":"Point","coordinates":[76.1577,15.3533421]}},{"type":"Feature","properties":{"state":"Karnataka","district":7,"district_n":"KOPPAL","pc":8,"pc_name":"Koppal","ac":64,"ac_name":"Koppal","booth":126,"booth_name":"Mahantayyanamath School (west Wing) B T Patil Nagar, Koppal 43"},"geometry":{"type":"Point","coordinates":[76.1623154,15.3526955]}},{"type":"Feature","properties":{"state":"Karnataka","district":7,"district_n":"KOPPAL","pc":8,"pc_name":"Koppal","ac":64,"ac_name":"Koppal","booth":127,"booth_name":"Mahantayyanamath School (west Wing) B T Patil Nagar, Koppal"},"geometry":{"type":"Point","coordinates":[76.16222,15.3528271]}},{"type":"Feature","properties":{"state":"Karnataka","district":7,"district_n":"KOPPAL","pc":8,"pc_name":"Koppal","ac":64,"ac_name":"Koppal","booth":128,"booth_name":"Asst Asst Director of Agri Office Behind main Building (east Wing) Ginigera road, Koppal"},"geometry":{"type":"Point","coordinates":[76.15912,15.3498964]}},{"type":"Feature","properties":{"state":"Karnataka","district":7,"district_n":"KOPPAL","pc":8,"pc_name":"Koppal","ac":64,"ac_name":"Koppal","booth":129,"booth_name":"Asst Asst Director of Agri Office Behind main Building (west Wing), Ginigera Road Koppal 46"},"geometry":{"type":"Point","coordinates":[76.1588,15.3497]}},{"type":"Feature","properties":{"state":"Karnataka","district":7,"district_n":"KOPPAL","pc":8,"pc_name":"Koppal","ac":64,"ac_name":"Koppal","booth":130,"booth_name":"Apmc Office (east Wing) Koppal 47"},"geometry":{"type":"Point","coordinates":[76.1578,15.34681]}},{"type":"Feature","properties":{"state":"Karnataka","district":7,"district_n":"KOPPAL","pc":8,"pc_name":"Koppal","ac":64,"ac_name":"Koppal","booth":131,"booth_name":"Apmc Office Conference Hall, Koppal"},"geometry":{"type":"Point","coordinates":[76.16172,15.3468037]}},{"type":"Feature","properties":{"state":"Karnataka","district":7,"district_n":"KOPPAL","pc":8,"pc_name":"Koppal","ac":64,"ac_name":"Koppal","booth":132,"booth_name":"Government Lower Primary School, Kidadal"},"geometry":{"type":"Point","coordinates":[76.1980438,15.3532562]}},{"type":"Feature","properties":{"state":"Karnataka","district":7,"district_n":"KOPPAL","pc":8,"pc_name":"Koppal","ac":64,"ac_name":"Koppal","booth":133,"booth_name":"Government Higher Primary School, Tanakanakal"},"geometry":{"type":"Point","coordinates":[76.18578,15.3886814]}},{"type":"Feature","properties":{"state":"Karnataka","district":7,"district_n":"KOPPAL","pc":8,"pc_name":"Koppal","ac":64,"ac_name":"Koppal","booth":134,"booth_name":"Government Lower Primary School, Hanumanahalli"},"geometry":{"type":"Point","coordinates":[76.1873,15.3827]}},{"type":"Feature","properties":{"state":"Karnataka","district":7,"district_n":"KOPPAL","pc":8,"pc_name":"Koppal","ac":64,"ac_name":"Koppal","booth":135,"booth_name":"Government Lower Primary School, Kutaganahalli"},"geometry":{"type":"Point","coordinates":[76.23188,15.3680267]}},{"type":"Feature","properties":{"state":"Karnataka","district":7,"district_n":"KOPPAL","pc":8,"pc_name":"Koppal","ac":64,"ac_name":"Koppal","booth":136,"booth_name":"Government Lower Primary School, Basapur"},"geometry":{"type":"Point","coordinates":[76.2269,15.3509483]}},{"type":"Feature","properties":{"state":"Karnataka","district":7,"district_n":"KOPPAL","pc":8,"pc_name":"Koppal","ac":64,"ac_name":"Koppal","booth":137,"booth_name":"Government Higer Primary School, Halavarthi"},"geometry":{"type":"Point","coordinates":[76.20987,15.3217049]}},{"type":"Feature","properties":{"state":"Karnataka","district":7,"district_n":"KOPPAL","pc":8,"pc_name":"Koppal","ac":64,"ac_name":"Koppal","booth":138,"booth_name":"Government Higer Primary School, New Building Halavarthi 2"},"geometry":{"type":"Point","coordinates":[76.2096558,15.3219137]}},{"type":"Feature","properties":{"state":"Karnataka","district":7,"district_n":"KOPPAL","pc":8,"pc_name":"Koppal","ac":64,"ac_name":"Koppal","booth":139,"booth_name":"Government Lower Primary School,(east Wing) Hosalli (b)"},"geometry":{"type":"Point","coordinates":[76.2094,15.2977]}},{"type":"Feature","properties":{"state":"Karnataka","district":7,"district_n":"KOPPAL","pc":8,"pc_name":"Koppal","ac":64,"ac_name":"Koppal","booth":140,"booth_name":"Government Lower Primary School,(west Wing) Hosalli (b)"},"geometry":{"type":"Point","coordinates":[76.16185,15.2977266]}},{"type":"Feature","properties":{"state":"Karnataka","district":7,"district_n":"KOPPAL","pc":8,"pc_name":"Koppal","ac":64,"ac_name":"Koppal","booth":141,"booth_name":"Government Higher Primary School (west Wing) Muddaballi 1"},"geometry":{"type":"Point","coordinates":[76.1488647,15.2791462]}},{"type":"Feature","properties":{"state":"Karnataka","district":7,"district_n":"KOPPAL","pc":8,"pc_name":"Koppal","ac":64,"ac_name":"Koppal","booth":142,"booth_name":"Government Higher Primary School (south Wing) Muddaballi 2"},"geometry":{"type":"Point","coordinates":[76.1489,15.2789]}},{"type":"Feature","properties":{"state":"Karnataka","district":7,"district_n":"KOPPAL","pc":8,"pc_name":"Koppal","ac":64,"ac_name":"Koppal","booth":143,"booth_name":"Government Lower Primary School (west Wing) Gondabal 1"},"geometry":{"type":"Point","coordinates":[76.1251755,15.26225]}},{"type":"Feature","properties":{"state":"Karnataka","district":7,"district_n":"KOPPAL","pc":8,"pc_name":"Koppal","ac":64,"ac_name":"Koppal","booth":144,"booth_name":"Government Lower Primary School, New Building (south Wing) Gondabal"},"geometry":{"type":"Point","coordinates":[76.12532,15.2619934]}},{"type":"Feature","properties":{"state":"Karnataka","district":7,"district_n":"KOPPAL","pc":8,"pc_name":"Koppal","ac":64,"ac_name":"Koppal","booth":145,"booth_name":"Government Higher Primary School, Gondabal"},"geometry":{"type":"Point","coordinates":[76.1279144,15.2760868]}},{"type":"Feature","properties":{"state":"Karnataka","district":7,"district_n":"KOPPAL","pc":8,"pc_name":"Koppal","ac":64,"ac_name":"Koppal","booth":146,"booth_name":"Government Higher primary School Belur"},"geometry":{"type":"Point","coordinates":[76.10428,15.2450933]}},{"type":"Feature","properties":{"state":"Karnataka","district":7,"district_n":"KOPPAL","pc":8,"pc_name":"Koppal","ac":64,"ac_name":"Koppal","booth":147,"booth_name":"Government High School, kataraki Gudlanur 1"},"geometry":{"type":"Point","coordinates":[76.11013,15.2267466]}},{"type":"Feature","properties":{"state":"Karnataka","district":7,"district_n":"KOPPAL","pc":8,"pc_name":"Koppal","ac":64,"ac_name":"Koppal","booth":148,"booth_name":"Government High School Building (west Wing) Kataraki Gudlanur 2"},"geometry":{"type":"Point","coordinates":[76.1099548,15.226655]}},{"type":"Feature","properties":{"state":"Karnataka","district":7,"district_n":"KOPPAL","pc":8,"pc_name":"Koppal","ac":64,"ac_name":"Koppal","booth":149,"booth_name":"Government Higher Primary School, Kataraki Gudlanur 3"},"geometry":{"type":"Point","coordinates":[76.1092,15.2267]}},{"type":"Feature","properties":{"state":"Karnataka","district":7,"district_n":"KOPPAL","pc":8,"pc_name":"Koppal","ac":64,"ac_name":"Koppal","booth":150,"booth_name":"Government higher Primary School Building (west Wing )ktaraki gudlanur"},"geometry":{"type":"Point","coordinates":[76.1098,15.2265]}},{"type":"Feature","properties":{"state":"Karnataka","district":7,"district_n":"KOPPAL","pc":8,"pc_name":"Koppal","ac":64,"ac_name":"Koppal","booth":151,"booth_name":"Government Higher Primary School,(south Wing) Neeralagi"},"geometry":{"type":"Point","coordinates":[76.0766,15.2007]}},{"type":"Feature","properties":{"state":"Karnataka","district":7,"district_n":"KOPPAL","pc":8,"pc_name":"Koppal","ac":64,"ac_name":"Koppal","booth":152,"booth_name":"Government Higher Primary School, (west Wing) Neeralagi"},"geometry":{"type":"Point","coordinates":[76.07645,15.2010069]}},{"type":"Feature","properties":{"state":"Karnataka","district":7,"district_n":"KOPPAL","pc":8,"pc_name":"Koppal","ac":64,"ac_name":"Koppal","booth":153,"booth_name":"Government Higher Primary School, Bochanahalli 1"},"geometry":{"type":"Point","coordinates":[76.0083,15.1897]}},{"type":"Feature","properties":{"state":"Karnataka","district":7,"district_n":"KOPPAL","pc":8,"pc_name":"Koppal","ac":64,"ac_name":"Koppal","booth":154,"booth_name":"Government Higher Primary School,new Building, Bochanahalli 2"},"geometry":{"type":"Point","coordinates":[76.008194,15.1898232]}},{"type":"Feature","properties":{"state":"Karnataka","district":7,"district_n":"KOPPAL","pc":8,"pc_name":"Koppal","ac":64,"ac_name":"Koppal","booth":155,"booth_name":"Government Lower Primary School, Hydarnagar"},"geometry":{"type":"Point","coordinates":[75.9479,15.17957]}},{"type":"Feature","properties":{"state":"Karnataka","district":7,"district_n":"KOPPAL","pc":8,"pc_name":"Koppal","ac":64,"ac_name":"Koppal","booth":177,"booth_name":"Government Model Higher Primary School (west wing) Ginigera 2"},"geometry":{"type":"Point","coordinates":[76.24816,15.3490953]}},{"type":"Feature","properties":{"state":"Karnataka","district":7,"district_n":"KOPPAL","pc":8,"pc_name":"Koppal","ac":64,"ac_name":"Koppal","booth":178,"booth_name":"Gram Panchayat office building Ginigera"},"geometry":{"type":"Point","coordinates":[76.2477,15.3484]}},{"type":"Feature","properties":{"state":"Karnataka","district":7,"district_n":"KOPPAL","pc":8,"pc_name":"Koppal","ac":64,"ac_name":"Koppal","booth":179,"booth_name":"Government Model Higher Primary School, (east Wing) Ginigera 4"},"geometry":{"type":"Point","coordinates":[76.24837,15.3492718]}},{"type":"Feature","properties":{"state":"Karnataka","district":7,"district_n":"KOPPAL","pc":8,"pc_name":"Koppal","ac":64,"ac_name":"Koppal","booth":180,"booth_name":"Government Model Higher Primary School (north, East Wing) Ginigera 5"},"geometry":{"type":"Point","coordinates":[76.2479858,15.34922]}},{"type":"Feature","properties":{"state":"Karnataka","district":7,"district_n":"KOPPAL","pc":8,"pc_name":"Koppal","ac":64,"ac_name":"Koppal","booth":181,"booth_name":"Government Lower Primary School, Gabbur"},"geometry":{"type":"Point","coordinates":[76.25568,15.3715687]}},{"type":"Feature","properties":{"state":"Karnataka","district":7,"district_n":"KOPPAL","pc":8,"pc_name":"Koppal","ac":64,"ac_name":"Koppal","booth":182,"booth_name":"Government Lower Primary School, Guladalli 1"},"geometry":{"type":"Point","coordinates":[76.28196,15.3682432]}},{"type":"Feature","properties":{"state":"Karnataka","district":7,"district_n":"KOPPAL","pc":8,"pc_name":"Koppal","ac":64,"ac_name":"Koppal","booth":183,"booth_name":"Government Higher Primary School (west Wing) Guladalli 2"},"geometry":{"type":"Point","coordinates":[76.28182,15.36844]}},{"type":"Feature","properties":{"state":"Karnataka","district":7,"district_n":"KOPPAL","pc":8,"pc_name":"Koppal","ac":64,"ac_name":"Koppal","booth":184,"booth_name":"Government Lower Primary School, Kerihalli"},"geometry":{"type":"Point","coordinates":[76.31343,15.376152]}},{"type":"Feature","properties":{"state":"Karnataka","district":7,"district_n":"KOPPAL","pc":8,"pc_name":"Koppal","ac":64,"ac_name":"Koppal","booth":1,"booth_name":"Government Higher Primary School Gudageri"},"geometry":{"type":"Point","coordinates":[75.9204559,15.315938]}},{"type":"Feature","properties":{"state":"Karnataka","district":7,"district_n":"KOPPAL","pc":8,"pc_name":"Koppal","ac":64,"ac_name":"Koppal","booth":2,"booth_name":"Government Higher Primary School Handral"},"geometry":{"type":"Point","coordinates":[76.05077,15.3153648]}},{"type":"Feature","properties":{"state":"Karnataka","district":7,"district_n":"KOPPAL","pc":8,"pc_name":"Koppal","ac":64,"ac_name":"Koppal","booth":3,"booth_name":"Government Lower Primary School Hanaval"},"geometry":{"type":"Point","coordinates":[76.0749,15.3194418]}},{"type":"Feature","properties":{"state":"Karnataka","district":7,"district_n":"KOPPAL","pc":8,"pc_name":"Koppal","ac":64,"ac_name":"Koppal","booth":4,"booth_name":"Government Higher Primary School New Building(west Wing) Vadaganal"},"geometry":{"type":"Point","coordinates":[76.079216,15.3490286]}},{"type":"Feature","properties":{"state":"Karnataka","district":7,"district_n":"KOPPAL","pc":8,"pc_name":"Koppal","ac":64,"ac_name":"Koppal","booth":5,"booth_name":"Government Higher Primary School New Building(east Wing) Vadaganal"},"geometry":{"type":"Point","coordinates":[76.0752,15.3471]}},{"type":"Feature","properties":{"state":"Karnataka","district":7,"district_n":"KOPPAL","pc":8,"pc_name":"Koppal","ac":64,"ac_name":"Koppal","booth":6,"booth_name":"Government model higher primary school (south Wing) Halagera"},"geometry":{"type":"Point","coordinates":[76.0794144,15.3725653]}},{"type":"Feature","properties":{"state":"Karnataka","district":7,"district_n":"KOPPAL","pc":8,"pc_name":"Koppal","ac":64,"ac_name":"Koppal","booth":33,"booth_name":"Government Model Higher Primary School (south Wing) Hiresindhogi"},"geometry":{"type":"Point","coordinates":[76.09307,15.29557]}},{"type":"Feature","properties":{"state":"Karnataka","district":7,"district_n":"KOPPAL","pc":8,"pc_name":"Koppal","ac":64,"ac_name":"Koppal","booth":34,"booth_name":"Government Composite Junior College Building Hiresindhogi"},"geometry":{"type":"Point","coordinates":[76.0927,15.2956]}},{"type":"Feature","properties":{"state":"Karnataka","district":7,"district_n":"KOPPAL","pc":8,"pc_name":"Koppal","ac":64,"ac_name":"Koppal","booth":35,"booth_name":"Government Lower Primary School Gunnalli"},"geometry":{"type":"Point","coordinates":[76.10882,15.3181181]}},{"type":"Feature","properties":{"state":"Karnataka","district":7,"district_n":"KOPPAL","pc":8,"pc_name":"Koppal","ac":64,"ac_name":"Koppal","booth":36,"booth_name":"Government Higher Primary School Hortatnal"},"geometry":{"type":"Point","coordinates":[76.11562,15.3324633]}},{"type":"Feature","properties":{"state":"Karnataka","district":7,"district_n":"KOPPAL","pc":8,"pc_name":"Koppal","ac":64,"ac_name":"Koppal","booth":37,"booth_name":"Government Higher Primary School Mangalapaur"},"geometry":{"type":"Point","coordinates":[76.11666,15.3403654]}},{"type":"Feature","properties":{"state":"Karnataka","district":7,"district_n":"KOPPAL","pc":8,"pc_name":"Koppal","ac":64,"ac_name":"Koppal","booth":237,"booth_name":"Horticulture Training centre, Munirabad Dam"},"geometry":{"type":"Point","coordinates":[76.3207,15.2838]}},{"type":"Feature","properties":{"state":"Karnataka","district":7,"district_n":"KOPPAL","pc":8,"pc_name":"Koppal","ac":64,"ac_name":"Koppal","booth":103,"booth_name":"Govt Boys Pre University College, (west Wing), Koppal"},"geometry":{"type":"Point","coordinates":[76.15389,15.349782]}},{"type":"Feature","properties":{"state":"Karnataka","district":7,"district_n":"KOPPAL","pc":8,"pc_name":"Koppal","ac":64,"ac_name":"Koppal","booth":104,"booth_name":"Govt Boys Pre University College, (north Wing), Koppal"},"geometry":{"type":"Point","coordinates":[76.15353,15.3500881]}},{"type":"Feature","properties":{"state":"Karnataka","district":7,"district_n":"KOPPAL","pc":8,"pc_name":"Koppal","ac":64,"ac_name":"Koppal","booth":105,"booth_name":"Govt Boys pre university college (middle Room) Koppal"},"geometry":{"type":"Point","coordinates":[76.15377,15.3497219]}},{"type":"Feature","properties":{"state":"Karnataka","district":7,"district_n":"KOPPAL","pc":8,"pc_name":"Koppal","ac":64,"ac_name":"Koppal","booth":185,"booth_name":"Government Higher Primary School, Shahapur"},"geometry":{"type":"Point","coordinates":[76.30614,15.34601]}},{"type":"Feature","properties":{"state":"Karnataka","district":7,"district_n":"KOPPAL","pc":8,"pc_name":"Koppal","ac":64,"ac_name":"Koppal","booth":186,"booth_name":"Government Lower Primary School, Lingadalli"},"geometry":{"type":"Point","coordinates":[76.28855,15.3475885]}},{"type":"Feature","properties":{"state":"Karnataka","district":7,"district_n":"KOPPAL","pc":8,"pc_name":"Koppal","ac":64,"ac_name":"Koppal","booth":187,"booth_name":"Government Higher Primary School, ( East Wing) Bevinahalli"},"geometry":{"type":"Point","coordinates":[76.29498,15.3364487]}},{"type":"Feature","properties":{"state":"Karnataka","district":7,"district_n":"KOPPAL","pc":8,"pc_name":"Koppal","ac":64,"ac_name":"Koppal","booth":188,"booth_name":"Government Higher Primary School, ( South Wing) Bevinahalli"},"geometry":{"type":"Point","coordinates":[76.29434,15.3351631]}},{"type":"Feature","properties":{"state":"Karnataka","district":7,"district_n":"KOPPAL","pc":8,"pc_name":"Koppal","ac":64,"ac_name":"Koppal","booth":189,"booth_name":"Government Lower Primary School, Hirekasanakandi"},"geometry":{"type":"Point","coordinates":[76.26981,15.3005571]}},{"type":"Feature","properties":{"state":"Karnataka","district":7,"district_n":"KOPPAL","pc":8,"pc_name":"Koppal","ac":64,"ac_name":"Koppal","booth":190,"booth_name":"Government Higher Primary School, Chikkabaganal"},"geometry":{"type":"Point","coordinates":[76.243,15.2745218]}},{"type":"Feature","properties":{"state":"Karnataka","district":7,"district_n":"KOPPAL","pc":8,"pc_name":"Koppal","ac":64,"ac_name":"Koppal","booth":191,"booth_name":"Government Higher Primary School, Mundaragi"},"geometry":{"type":"Point","coordinates":[76.19882,15.2657413]}},{"type":"Feature","properties":{"state":"Karnataka","district":7,"district_n":"KOPPAL","pc":8,"pc_name":"Koppal","ac":64,"ac_name":"Koppal","booth":192,"booth_name":"Government Higher Primary School,( North Wing) Karkihalli"},"geometry":{"type":"Point","coordinates":[76.24662,15.25471]}},{"type":"Feature","properties":{"state":"Karnataka","district":7,"district_n":"KOPPAL","pc":8,"pc_name":"Koppal","ac":64,"ac_name":"Koppal","booth":174,"booth_name":"Government Lower Primary School, Halekanakapur"},"geometry":{"type":"Point","coordinates":[76.26439,15.3479118]}},{"type":"Feature","properties":{"state":"Karnataka","district":7,"district_n":"KOPPAL","pc":8,"pc_name":"Koppal","ac":64,"ac_name":"Koppal","booth":175,"booth_name":"Government Higher Primary School, Hosakanakapur"},"geometry":{"type":"Point","coordinates":[76.26104,15.334795]}},{"type":"Feature","properties":{"state":"Karnataka","district":7,"district_n":"KOPPAL","pc":8,"pc_name":"Koppal","ac":64,"ac_name":"Koppal","booth":176,"booth_name":"Government Lower Primary School, Ginigera 1"},"geometry":{"type":"Point","coordinates":[76.24809,15.3541412]}},{"type":"Feature","properties":{"state":"Karnataka","district":7,"district_n":"KOPPAL","pc":8,"pc_name":"Koppal","ac":64,"ac_name":"Koppal","booth":89,"booth_name":"Government Girls Model Primary School Old building (east Wing) Koppal"},"geometry":{"type":"Point","coordinates":[76.15549,15.340457]}},{"type":"Feature","properties":{"state":"Karnataka","district":7,"district_n":"KOPPAL","pc":8,"pc_name":"Koppal","ac":64,"ac_name":"Koppal","booth":90,"booth_name":"Government Girls Model Primary School Old building (west Wing) Koppal"},"geometry":{"type":"Point","coordinates":[76.15557,15.340085]}},{"type":"Feature","properties":{"state":"Karnataka","district":7,"district_n":"KOPPAL","pc":8,"pc_name":"Koppal","ac":64,"ac_name":"Koppal","booth":91,"booth_name":"Gavisiddeshwar Lower Primary School (east Wing ) Koppal"},"geometry":{"type":"Point","coordinates":[76.15259,15.3383131]}}]}