{"type":"FeatureCollection","features":[{"type":"Feature","properties":{"state":"Karnataka","district":8,"district_n":"GADAG","pc":10,"pc_name":"Haveri","ac":66,"ac_name":"Gadag","booth":92,"booth_name":"Raith Sampark Kendra Kendra A,p,m,c, Premises,betageri"},"geometry":{"type":"Point","coordinates":[75.63977,15.4274864]}},{"type":"Feature","properties":{"state":"Karnataka","district":8,"district_n":"GADAG","pc":10,"pc_name":"Haveri","ac":66,"ac_name":"Gadag","booth":93,"booth_name":"Govt Ladies Hostel Room No1 Rajivagandhi Nagar Betageri"},"geometry":{"type":"Point","coordinates":[75.65137,15.4270821]}},{"type":"Feature","properties":{"state":"Karnataka","district":8,"district_n":"GADAG","pc":10,"pc_name":"Haveri","ac":66,"ac_name":"Gadag","booth":94,"booth_name":"K S S College Room Room No 8 Panchaxari Nagar,betageri"},"geometry":{"type":"Point","coordinates":[75.64592,15.4305973]}},{"type":"Feature","properties":{"state":"Karnataka","district":8,"district_n":"GADAG","pc":10,"pc_name":"Haveri","ac":66,"ac_name":"Gadag","booth":96,"booth_name":"K,s,s College Room No9 panchaxari Nagar Betageri"},"geometry":{"type":"Point","coordinates":[75.64593,15.4303284]}},{"type":"Feature","properties":{"state":"Karnataka","district":8,"district_n":"GADAG","pc":10,"pc_name":"Haveri","ac":66,"ac_name":"Gadag","booth":97,"booth_name":"Govt Kannada Boys Lower Primary School 8 Rajeevagandhi Nagar, Betageri"},"geometry":{"type":"Point","coordinates":[75.65371,15.42671]}},{"type":"Feature","properties":{"state":"Karnataka","district":8,"district_n":"GADAG","pc":10,"pc_name":"Haveri","ac":66,"ac_name":"Gadag","booth":99,"booth_name":"Govt Govt Lower Boys Primary Primary Kannada School 16 Room No1 No1 No1 P&t Qtrs Betageri"},"geometry":{"type":"Point","coordinates":[75.65421,15.4343767]}},{"type":"Feature","properties":{"state":"Karnataka","district":8,"district_n":"GADAG","pc":10,"pc_name":"Haveri","ac":66,"ac_name":"Gadag","booth":100,"booth_name":"Govt Kannada Boys Lower Primary School No 16 16 Room No2 No2 No2 P & T T Qtrs,betageri"},"geometry":{"type":"Point","coordinates":[75.65499,15.434494]}},{"type":"Feature","properties":{"state":"Karnataka","district":8,"district_n":"GADAG","pc":10,"pc_name":"Haveri","ac":66,"ac_name":"Gadag","booth":101,"booth_name":"Govt Kannada Boys Lower Primary School No 16 Room No3 No3 No3 P & T Qtrs Betageri"},"geometry":{"type":"Point","coordinates":[75.65471,15.43444]}},{"type":"Feature","properties":{"state":"Karnataka","district":8,"district_n":"GADAG","pc":10,"pc_name":"Haveri","ac":66,"ac_name":"Gadag","booth":102,"booth_name":"Govt Kannada Boys Higher Primary School No 1 Room No 1 Near City Post Pancharahonda,gadag"},"geometry":{"type":"Point","coordinates":[75.62614,15.4267063]}},{"type":"Feature","properties":{"state":"Karnataka","district":8,"district_n":"GADAG","pc":10,"pc_name":"Haveri","ac":66,"ac_name":"Gadag","booth":103,"booth_name":"Gov Kannada Boys Higher Primary School No 1 1 Room No 2 Near City Post Pancharahonda Gadag"},"geometry":{"type":"Point","coordinates":[75.6284,15.4254236]}},{"type":"Feature","properties":{"state":"Karnataka","district":8,"district_n":"GADAG","pc":10,"pc_name":"Haveri","ac":66,"ac_name":"Gadag","booth":104,"booth_name":"Assistant Executive Engineer P W D D Sub Division Gadag"},"geometry":{"type":"Point","coordinates":[75.62359,15.4228506]}},{"type":"Feature","properties":{"state":"Karnataka","district":8,"district_n":"GADAG","pc":10,"pc_name":"Haveri","ac":66,"ac_name":"Gadag","booth":105,"booth_name":"Ghanyana Bharati Education Society's Primary School Near Trikuteshwar Temple Gadag"},"geometry":{"type":"Point","coordinates":[75.62707,15.4238405]}},{"type":"Feature","properties":{"state":"Karnataka","district":8,"district_n":"GADAG","pc":10,"pc_name":"Haveri","ac":66,"ac_name":"Gadag","booth":106,"booth_name":"Naukarar Samudaya Bhuvan Hescom Office Gadag"},"geometry":{"type":"Point","coordinates":[75.62277,15.4237442]}},{"type":"Feature","properties":{"state":"Karnataka","district":8,"district_n":"GADAG","pc":10,"pc_name":"Haveri","ac":66,"ac_name":"Gadag","booth":107,"booth_name":"Govt Kannada Higher School No15 Room No 1 Siddalinga Nagar Gadag"},"geometry":{"type":"Point","coordinates":[75.6213,15.4153643]}},{"type":"Feature","properties":{"state":"Karnataka","district":8,"district_n":"GADAG","pc":10,"pc_name":"Haveri","ac":66,"ac_name":"Gadag","booth":108,"booth_name":"Gov Kannada Higher Primary School No15 Room No 2 Shiddalinga Nagar Gadag"},"geometry":{"type":"Point","coordinates":[75.62124,15.4154081]}},{"type":"Feature","properties":{"state":"Karnataka","district":8,"district_n":"GADAG","pc":10,"pc_name":"Haveri","ac":66,"ac_name":"Gadag","booth":110,"booth_name":"J,c, High School School Room No 2 Mulagud Road Gadag"},"geometry":{"type":"Point","coordinates":[75.62157,15.4166517]}},{"type":"Feature","properties":{"state":"Karnataka","district":8,"district_n":"GADAG","pc":10,"pc_name":"Haveri","ac":66,"ac_name":"Gadag","booth":111,"booth_name":"J,c, High School School Room No 5 Mulaguda Road Gadag"},"geometry":{"type":"Point","coordinates":[75.6209946,15.4162388]}},{"type":"Feature","properties":{"state":"Karnataka","district":8,"district_n":"GADAG","pc":10,"pc_name":"Haveri","ac":66,"ac_name":"Gadag","booth":112,"booth_name":"Asst Executive Engineer Kuws and Db Sub Division No1 Maulagund Road Gadag"},"geometry":{"type":"Point","coordinates":[75.6222839,15.4197321]}},{"type":"Feature","properties":{"state":"Karnataka","district":8,"district_n":"GADAG","pc":10,"pc_name":"Haveri","ac":66,"ac_name":"Gadag","booth":113,"booth_name":"Asst Executive Engineer K U W S and Db Sub Division2 Mulagund Road Gadag"},"geometry":{"type":"Point","coordinates":[75.62226,15.4200869]}},{"type":"Feature","properties":{"state":"Karnataka","district":8,"district_n":"GADAG","pc":10,"pc_name":"Haveri","ac":66,"ac_name":"Gadag","booth":114,"booth_name":"Office of the Assistant Director of Horticulture,near Veeranarayana Garden bisma keri,gadag"},"geometry":{"type":"Point","coordinates":[75.62728,15.4259682]}},{"type":"Feature","properties":{"state":"Karnataka","district":8,"district_n":"GADAG","pc":10,"pc_name":"Haveri","ac":66,"ac_name":"Gadag","booth":115,"booth_name":"Govt Kannada Boys Higher Primary School No 6 Vaddageri Room No 1gadag"},"geometry":{"type":"Point","coordinates":[75.62421,15.4195919]}},{"type":"Feature","properties":{"state":"Karnataka","district":8,"district_n":"GADAG","pc":10,"pc_name":"Haveri","ac":66,"ac_name":"Gadag","booth":116,"booth_name":"Govt Govt Kannad Higher Primary School No 6 Room No 2 Vaddarageri,gadag"},"geometry":{"type":"Point","coordinates":[75.62428,15.4195757]}},{"type":"Feature","properties":{"state":"Karnataka","district":8,"district_n":"GADAG","pc":10,"pc_name":"Haveri","ac":66,"ac_name":"Gadag","booth":117,"booth_name":"Sri Basaveshwar Primary School Room No 1 Sri Siddalinga Nagar"},"geometry":{"type":"Point","coordinates":[75.6244659,15.41755]}},{"type":"Feature","properties":{"state":"Karnataka","district":8,"district_n":"GADAG","pc":10,"pc_name":"Haveri","ac":66,"ac_name":"Gadag","booth":118,"booth_name":"Sree Basaveshwar Primary School Room No 4 Sree Siddalinga Nagar,gadag"},"geometry":{"type":"Point","coordinates":[75.62422,15.4168844]}},{"type":"Feature","properties":{"state":"Karnataka","district":8,"district_n":"GADAG","pc":10,"pc_name":"Haveri","ac":66,"ac_name":"Gadag","booth":119,"booth_name":"Sri Basaveshwar Primary School Room No 6 Sri Siddalinga Nagar Gadag"},"geometry":{"type":"Point","coordinates":[75.6243744,15.4168978]}},{"type":"Feature","properties":{"state":"Karnataka","district":8,"district_n":"GADAG","pc":10,"pc_name":"Haveri","ac":66,"ac_name":"Gadag","booth":120,"booth_name":"Govt Kannada Lower Primary School No 9 Room No 3 Adarsh Nagar Kalasapur Road Gadag"},"geometry":{"type":"Point","coordinates":[75.62531,15.4100447]}},{"type":"Feature","properties":{"state":"Karnataka","district":8,"district_n":"GADAG","pc":10,"pc_name":"Haveri","ac":66,"ac_name":"Gadag","booth":121,"booth_name":"Govt Kannada Lower Primary School No Room18 Room18 New Buildig Room No 2 Sriram Nagar Kalasapur Road Gadag"},"geometry":{"type":"Point","coordinates":[75.62531,15.4095354]}},{"type":"Feature","properties":{"state":"Karnataka","district":8,"district_n":"GADAG","pc":10,"pc_name":"Haveri","ac":66,"ac_name":"Gadag","booth":122,"booth_name":"Govt Kannada Higher Primary School Old Buildinag Buildinag Room No 1 Binkadakatti"},"geometry":{"type":"Point","coordinates":[75.5878754,15.420228]}},{"type":"Feature","properties":{"state":"Karnataka","district":8,"district_n":"GADAG","pc":10,"pc_name":"Haveri","ac":66,"ac_name":"Gadag","booth":123,"booth_name":"Govt Kannada Higher Primary School, New Building Binkadakatti"},"geometry":{"type":"Point","coordinates":[75.5877762,15.4202909]}},{"type":"Feature","properties":{"state":"Karnataka","district":8,"district_n":"GADAG","pc":10,"pc_name":"Haveri","ac":66,"ac_name":"Gadag","booth":125,"booth_name":"Govt Model Boys Primary School School Room No1 No1 Prayer Hall Hulakoti"},"geometry":{"type":"Point","coordinates":[75.54296,15.4243259]}},{"type":"Feature","properties":{"state":"Karnataka","district":8,"district_n":"GADAG","pc":10,"pc_name":"Haveri","ac":66,"ac_name":"Gadag","booth":126,"booth_name":"Govt Model Boys Kannada Primary School School Room No2 Hulakoti"},"geometry":{"type":"Point","coordinates":[75.54277,15.4244347]}},{"type":"Feature","properties":{"state":"Karnataka","district":8,"district_n":"GADAG","pc":10,"pc_name":"Haveri","ac":66,"ac_name":"Gadag","booth":2,"booth_name":"Govt Kannada Higer Primary School New Buildig Buildig Room No 1hirehandigol"},"geometry":{"type":"Point","coordinates":[75.54161,15.4565516]}},{"type":"Feature","properties":{"state":"Karnataka","district":8,"district_n":"GADAG","pc":10,"pc_name":"Haveri","ac":66,"ac_name":"Gadag","booth":3,"booth_name":"Govt Kannada Higher Primary School No12 Room No 3 S, M Krishna Nagar Gadag"},"geometry":{"type":"Point","coordinates":[75.6269,15.4433184]}},{"type":"Feature","properties":{"state":"Karnataka","district":8,"district_n":"GADAG","pc":10,"pc_name":"Haveri","ac":66,"ac_name":"Gadag","booth":4,"booth_name":"Govt Kannada Higher Primary School No12 No12 Room no 2 S, M, Krishna Nagar Gadag"},"geometry":{"type":"Point","coordinates":[75.6269455,15.4428806]}},{"type":"Feature","properties":{"state":"Karnataka","district":8,"district_n":"GADAG","pc":10,"pc_name":"Haveri","ac":66,"ac_name":"Gadag","booth":13,"booth_name":"Adarsh Shikshana Samiti's Commerce College Room No 2 Betageri"},"geometry":{"type":"Point","coordinates":[75.63513,15.43928]}},{"type":"Feature","properties":{"state":"Karnataka","district":8,"district_n":"GADAG","pc":10,"pc_name":"Haveri","ac":66,"ac_name":"Gadag","booth":15,"booth_name":"Basel Mission Agriculture High School Middle Part Room No 3 Betageri"},"geometry":{"type":"Point","coordinates":[75.64109,15.4415474]}},{"type":"Feature","properties":{"state":"Karnataka","district":8,"district_n":"GADAG","pc":10,"pc_name":"Haveri","ac":66,"ac_name":"Gadag","booth":16,"booth_name":"Basal Mishana Agriculture Right Part Betageri"},"geometry":{"type":"Point","coordinates":[75.64111,15.4415665]}},{"type":"Feature","properties":{"state":"Karnataka","district":8,"district_n":"GADAG","pc":10,"pc_name":"Haveri","ac":66,"ac_name":"Gadag","booth":17,"booth_name":"Govt Kannada Boys Higher Primary School School no 3 Room no 1hospet Check Betageri"},"geometry":{"type":"Point","coordinates":[75.64461,15.44717]}},{"type":"Feature","properties":{"state":"Karnataka","district":8,"district_n":"GADAG","pc":10,"pc_name":"Haveri","ac":66,"ac_name":"Gadag","booth":18,"booth_name":"Govt Kannada Boys Higher Primary Scool No 3 Room No 3 Hospet Check Betageri"},"geometry":{"type":"Point","coordinates":[75.64477,15.4472818]}},{"type":"Feature","properties":{"state":"Karnataka","district":8,"district_n":"GADAG","pc":10,"pc_name":"Haveri","ac":66,"ac_name":"Gadag","booth":14,"booth_name":"Basel Mission Agriculture High School Left Part Room No 1 Betageri"},"geometry":{"type":"Point","coordinates":[75.64099,15.4415407]}},{"type":"Feature","properties":{"state":"Karnataka","district":8,"district_n":"GADAG","pc":10,"pc_name":"Haveri","ac":66,"ac_name":"Gadag","booth":19,"booth_name":"Govt Higher Primarykannada Girls School No3 Near Near Balaji Temple Opposite Room No 1 Betageri"},"geometry":{"type":"Point","coordinates":[75.64681,15.4486294]}},{"type":"Feature","properties":{"state":"Karnataka","district":8,"district_n":"GADAG","pc":10,"pc_name":"Haveri","ac":66,"ac_name":"Gadag","booth":20,"booth_name":"Govt Kannada Primary Higher Girls School No3 Nera Balaji Temple Room No 2 Betageri"},"geometry":{"type":"Point","coordinates":[75.6466446,15.4487171]}},{"type":"Feature","properties":{"state":"Karnataka","district":8,"district_n":"GADAG","pc":10,"pc_name":"Haveri","ac":66,"ac_name":"Gadag","booth":21,"booth_name":"Govt Urdu Higher Higher Primary School No2 Room No2 Huilgol Road Betageri"},"geometry":{"type":"Point","coordinates":[75.64713,15.4456253]}},{"type":"Feature","properties":{"state":"Karnataka","district":8,"district_n":"GADAG","pc":10,"pc_name":"Haveri","ac":66,"ac_name":"Gadag","booth":22,"booth_name":"Govt Kannada Higher Primary Girls School No 4 (kanavi Plot)room No 1 Betageri"},"geometry":{"type":"Point","coordinates":[75.6483,15.4483232]}},{"type":"Feature","properties":{"state":"Karnataka","district":8,"district_n":"GADAG","pc":10,"pc_name":"Haveri","ac":66,"ac_name":"Gadag","booth":23,"booth_name":"Govt Kannada Higher Primary Girls School No 4 (kanavi Plot)room No 3 Betageri"},"geometry":{"type":"Point","coordinates":[75.6483459,15.4484558]}},{"type":"Feature","properties":{"state":"Karnataka","district":8,"district_n":"GADAG","pc":10,"pc_name":"Haveri","ac":66,"ac_name":"Gadag","booth":25,"booth_name":"Office of the Asst Director of Sericulture Sericulture p b road Betageri"},"geometry":{"type":"Point","coordinates":[75.65016,15.4476271]}},{"type":"Feature","properties":{"state":"Karnataka","district":8,"district_n":"GADAG","pc":10,"pc_name":"Haveri","ac":66,"ac_name":"Gadag","booth":26,"booth_name":"Sree Sharanabasaveshwar High School Room no 1 Kanaginhal Road,betageri"},"geometry":{"type":"Point","coordinates":[75.6515961,15.44234]}},{"type":"Feature","properties":{"state":"Karnataka","district":8,"district_n":"GADAG","pc":10,"pc_name":"Haveri","ac":66,"ac_name":"Gadag","booth":27,"booth_name":"Sree Sharabasaveshwara High School Room No 5,kanaginhal Road,betageri"},"geometry":{"type":"Point","coordinates":[75.65164,15.4423218]}},{"type":"Feature","properties":{"state":"Karnataka","district":8,"district_n":"GADAG","pc":10,"pc_name":"Haveri","ac":66,"ac_name":"Gadag","booth":28,"booth_name":"Sree Sharabasaveshwara High School Room No 4 Kanaginhal Road Betageri"},"geometry":{"type":"Point","coordinates":[75.65153,15.4422226]}},{"type":"Feature","properties":{"state":"Karnataka","district":8,"district_n":"GADAG","pc":10,"pc_name":"Haveri","ac":66,"ac_name":"Gadag","booth":29,"booth_name":"Govt Girls I, T, I, I, College Room No 1,betageri"},"geometry":{"type":"Point","coordinates":[75.65137,15.4448147]}},{"type":"Feature","properties":{"state":"Karnataka","district":8,"district_n":"GADAG","pc":10,"pc_name":"Haveri","ac":66,"ac_name":"Gadag","booth":30,"booth_name":"Govt Girls I, T, I, I, College Room No 3,betageri"},"geometry":{"type":"Point","coordinates":[75.65214,15.4450512]}},{"type":"Feature","properties":{"state":"Karnataka","district":8,"district_n":"GADAG","pc":10,"pc_name":"Haveri","ac":66,"ac_name":"Gadag","booth":31,"booth_name":"Govt Kannada Higher Primary School No9 Left wing Nekar Colony,betageri"},"geometry":{"type":"Point","coordinates":[75.66007,15.4540672]}},{"type":"Feature","properties":{"state":"Karnataka","district":8,"district_n":"GADAG","pc":10,"pc_name":"Haveri","ac":66,"ac_name":"Gadag","booth":32,"booth_name":"Govt Govt Kannada Higher Primary School No9 Right wing wing Nekar Colony,betageri"},"geometry":{"type":"Point","coordinates":[75.65984,15.45417]}},{"type":"Feature","properties":{"state":"Karnataka","district":8,"district_n":"GADAG","pc":10,"pc_name":"Haveri","ac":66,"ac_name":"Gadag","booth":33,"booth_name":"Hulakoti Girls High School Near Betageri Bustand,betgaeri"},"geometry":{"type":"Point","coordinates":[75.65054,15.44518]}},{"type":"Feature","properties":{"state":"Karnataka","district":8,"district_n":"GADAG","pc":10,"pc_name":"Haveri","ac":66,"ac_name":"Gadag","booth":34,"booth_name":"Govt Kannada Lower Primary School No 6 Room No 1 Kanaginahal Betageri"},"geometry":{"type":"Point","coordinates":[75.6534653,15.441268]}},{"type":"Feature","properties":{"state":"Karnataka","district":8,"district_n":"GADAG","pc":10,"pc_name":"Haveri","ac":66,"ac_name":"Gadag","booth":35,"booth_name":"Govt Kannada Lower School No6 Room No 3 Kanaginahal Road,betageri"},"geometry":{"type":"Point","coordinates":[75.6532,15.4414091]}},{"type":"Feature","properties":{"state":"Karnataka","district":8,"district_n":"GADAG","pc":10,"pc_name":"Haveri","ac":66,"ac_name":"Gadag","booth":36,"booth_name":"Govt Kannada Higher Primary Boys School School 5 Room No 2 Dr Dr Rajendra prasad Road,betageri"},"geometry":{"type":"Point","coordinates":[75.6460342,15.4416256]}},{"type":"Feature","properties":{"state":"Karnataka","district":8,"district_n":"GADAG","pc":10,"pc_name":"Haveri","ac":66,"ac_name":"Gadag","booth":37,"booth_name":"Govt Kannada Hgher Primary Boys School No No 5 Room No 3 Dr Dr Rajendra prasad Road Betageri"},"geometry":{"type":"Point","coordinates":[75.6456,15.44176]}},{"type":"Feature","properties":{"state":"Karnataka","district":8,"district_n":"GADAG","pc":10,"pc_name":"Haveri","ac":66,"ac_name":"Gadag","booth":38,"booth_name":"Govt Kannada Higher Primary Boys School No No 5 Room No 4 Dr Dr Rajendra prasad Road,betageri"},"geometry":{"type":"Point","coordinates":[75.64579,15.4417944]}},{"type":"Feature","properties":{"state":"Karnataka","district":8,"district_n":"GADAG","pc":10,"pc_name":"Haveri","ac":66,"ac_name":"Gadag","booth":39,"booth_name":"Model Model Higher Primary School Room No 1 Basel Mission Mission Premise,betageri"},"geometry":{"type":"Point","coordinates":[75.64235,15.4430389]}},{"type":"Feature","properties":{"state":"Karnataka","district":8,"district_n":"GADAG","pc":10,"pc_name":"Haveri","ac":66,"ac_name":"Gadag","booth":40,"booth_name":"Model Model Higher Primary School Room No 2 Basel Mission Premises,betageri"},"geometry":{"type":"Point","coordinates":[75.64223,15.4433107]}},{"type":"Feature","properties":{"state":"Karnataka","district":8,"district_n":"GADAG","pc":10,"pc_name":"Haveri","ac":66,"ac_name":"Gadag","booth":41,"booth_name":"Govt Grils Grils Higher Primary Urdu School, No1 Room No 1,betageri"},"geometry":{"type":"Point","coordinates":[75.6448059,15.4395618]}},{"type":"Feature","properties":{"state":"Karnataka","district":8,"district_n":"GADAG","pc":10,"pc_name":"Haveri","ac":66,"ac_name":"Gadag","booth":42,"booth_name":"Gram Chavadi Dr,babu Rajendra prasad Road,betageri"},"geometry":{"type":"Point","coordinates":[75.64574,15.4421787]}},{"type":"Feature","properties":{"state":"Karnataka","district":8,"district_n":"GADAG","pc":10,"pc_name":"Haveri","ac":66,"ac_name":"Gadag","booth":43,"booth_name":"Model Kannada Girls Higher Primary School, No 1 Room No 1,betageri"},"geometry":{"type":"Point","coordinates":[75.64214,15.4417439]}},{"type":"Feature","properties":{"state":"Karnataka","district":8,"district_n":"GADAG","pc":10,"pc_name":"Haveri","ac":66,"ac_name":"Gadag","booth":44,"booth_name":"Model Kannada Girls Higher Primary School No 1 Room No 2,betageri"},"geometry":{"type":"Point","coordinates":[75.64224,15.4419308]}},{"type":"Feature","properties":{"state":"Karnataka","district":8,"district_n":"GADAG","pc":10,"pc_name":"Haveri","ac":66,"ac_name":"Gadag","booth":45,"booth_name":"Govt Boys Urdu Higher Primary School No 1 Near Ballary Gate, Room No 2 Betageri"},"geometry":{"type":"Point","coordinates":[75.6450653,15.43879]}},{"type":"Feature","properties":{"state":"Karnataka","district":8,"district_n":"GADAG","pc":10,"pc_name":"Haveri","ac":66,"ac_name":"Gadag","booth":46,"booth_name":"Govt Boys Urdu Higher Primary School No 1 Near Ballary Gate,room No,2 Betageri,"},"geometry":{"type":"Point","coordinates":[75.6457,15.4387112]}},{"type":"Feature","properties":{"state":"Karnataka","district":8,"district_n":"GADAG","pc":10,"pc_name":"Haveri","ac":66,"ac_name":"Gadag","booth":47,"booth_name":"Govt Boys Urdu Higher Primary School No 1 Room No 3 Bellary Gate,betageri"},"geometry":{"type":"Point","coordinates":[75.64596,15.4383907]}},{"type":"Feature","properties":{"state":"Karnataka","district":8,"district_n":"GADAG","pc":10,"pc_name":"Haveri","ac":66,"ac_name":"Gadag","booth":48,"booth_name":"J T T College Room No 4 Masari Betageri"},"geometry":{"type":"Point","coordinates":[75.64615,15.4402113]}},{"type":"Feature","properties":{"state":"Karnataka","district":8,"district_n":"GADAG","pc":10,"pc_name":"Haveri","ac":66,"ac_name":"Gadag","booth":49,"booth_name":"Anglo Urdu High School, Room No 1 Near Railway station,betageri"},"geometry":{"type":"Point","coordinates":[75.64329,15.4360533]}},{"type":"Feature","properties":{"state":"Karnataka","district":8,"district_n":"GADAG","pc":10,"pc_name":"Haveri","ac":66,"ac_name":"Gadag","booth":50,"booth_name":"Model Boys High School, Room No 1 Old Building Masari,betageri"},"geometry":{"type":"Point","coordinates":[75.64205,15.4327278]}},{"type":"Feature","properties":{"state":"Karnataka","district":8,"district_n":"GADAG","pc":10,"pc_name":"Haveri","ac":66,"ac_name":"Gadag","booth":51,"booth_name":"Model Boys High School Room No 3, Old Building Masari,betageri"},"geometry":{"type":"Point","coordinates":[75.64237,15.4323292]}},{"type":"Feature","properties":{"state":"Karnataka","district":8,"district_n":"GADAG","pc":10,"pc_name":"Haveri","ac":66,"ac_name":"Gadag","booth":52,"booth_name":"Muncipal Composite Jr Jr College Room No 1, New Building Station Road,beatageri"},"geometry":{"type":"Point","coordinates":[75.63584,15.43479]}},{"type":"Feature","properties":{"state":"Karnataka","district":8,"district_n":"GADAG","pc":10,"pc_name":"Haveri","ac":66,"ac_name":"Gadag","booth":53,"booth_name":"Govt Kannada Higher primary Girls School No4 Room No 1 New Building K, C,rani Road,betageri"},"geometry":{"type":"Point","coordinates":[75.63681,15.4315777]}},{"type":"Feature","properties":{"state":"Karnataka","district":8,"district_n":"GADAG","pc":10,"pc_name":"Haveri","ac":66,"ac_name":"Gadag","booth":54,"booth_name":"Vidyadan Samiti Girls High School,room No 5,betageri"},"geometry":{"type":"Point","coordinates":[75.6377,15.4293966]}},{"type":"Feature","properties":{"state":"Karnataka","district":8,"district_n":"GADAG","pc":10,"pc_name":"Haveri","ac":66,"ac_name":"Gadag","booth":56,"booth_name":"Govt Girls Higher Primary School No 6 Room No3 Shahapurpeth (basaveshwar Nagar) Gadag"},"geometry":{"type":"Point","coordinates":[75.6345444,15.4347315]}},{"type":"Feature","properties":{"state":"Karnataka","district":8,"district_n":"GADAG","pc":10,"pc_name":"Haveri","ac":66,"ac_name":"Gadag","booth":57,"booth_name":"Govt Kannada Girls Higher Primary School School No 6 Room no 5 5 Shapurpeth (bhasaveswar Nagar) Gadag"},"geometry":{"type":"Point","coordinates":[75.63432,15.4346371]}},{"type":"Feature","properties":{"state":"Karnataka","district":8,"district_n":"GADAG","pc":10,"pc_name":"Haveri","ac":66,"ac_name":"Gadag","booth":55,"booth_name":"Govt Girls Higher Primary School No 6 Room No1 Shahapurpeth (basaveshwar Nagar) Gadag"},"geometry":{"type":"Point","coordinates":[75.63433,15.43459]}},{"type":"Feature","properties":{"state":"Karnataka","district":8,"district_n":"GADAG","pc":10,"pc_name":"Haveri","ac":66,"ac_name":"Gadag","booth":58,"booth_name":"Govt Govt Model Kannada Higher primary School No 10 Room No No 1 Hombal Road Gadag"},"geometry":{"type":"Point","coordinates":[75.63359,15.4353161]}},{"type":"Feature","properties":{"state":"Karnataka","district":8,"district_n":"GADAG","pc":10,"pc_name":"Haveri","ac":66,"ac_name":"Gadag","booth":60,"booth_name":"Govt Govt Govt Kannada Primary School No 14 Room No 1 (durgadevi Tempel) Near Gangapur Peth Gadag"},"geometry":{"type":"Point","coordinates":[75.62856,15.4329157]}},{"type":"Feature","properties":{"state":"Karnataka","district":8,"district_n":"GADAG","pc":10,"pc_name":"Haveri","ac":66,"ac_name":"Gadag","booth":61,"booth_name":"Dharmashala Dharmashala C M C C Hombal Road Gadag"},"geometry":{"type":"Point","coordinates":[75.63063,15.4333277]}},{"type":"Feature","properties":{"state":"Karnataka","district":8,"district_n":"GADAG","pc":10,"pc_name":"Haveri","ac":66,"ac_name":"Gadag","booth":62,"booth_name":"Veeranarayan Sanskrit Ptashale Near Veeranarayan Temple Temple Gadag"},"geometry":{"type":"Point","coordinates":[75.62701,15.4313316]}},{"type":"Feature","properties":{"state":"Karnataka","district":8,"district_n":"GADAG","pc":10,"pc_name":"Haveri","ac":66,"ac_name":"Gadag","booth":63,"booth_name":"Exserviceman Association Near Veernarayan Temple Gadag"},"geometry":{"type":"Point","coordinates":[75.6266251,15.4303169]}},{"type":"Feature","properties":{"state":"Karnataka","district":8,"district_n":"GADAG","pc":10,"pc_name":"Haveri","ac":66,"ac_name":"Gadag","booth":64,"booth_name":"Govt Govt Kannada Girls Higher Primary Scool No 2 Room No No 1 Near Veeranarayana Temple Gadag"},"geometry":{"type":"Point","coordinates":[75.6263657,15.4308329]}},{"type":"Feature","properties":{"state":"Karnataka","district":8,"district_n":"GADAG","pc":10,"pc_name":"Haveri","ac":66,"ac_name":"Gadag","booth":65,"booth_name":"Govt Govt Kannada Girls Higher Primary Scool No 2 Room No 2 Near Veeranarayana Temple Gadag"},"geometry":{"type":"Point","coordinates":[75.62641,15.43101]}},{"type":"Feature","properties":{"state":"Karnataka","district":8,"district_n":"GADAG","pc":10,"pc_name":"Haveri","ac":66,"ac_name":"Gadag","booth":66,"booth_name":"Govt Govt Kannada Girls Higher Primary School No 2 Room No No 3 Near Veeranarayana Temple Gadag"},"geometry":{"type":"Point","coordinates":[75.62607,15.4306393]}},{"type":"Feature","properties":{"state":"Karnataka","district":8,"district_n":"GADAG","pc":10,"pc_name":"Haveri","ac":66,"ac_name":"Gadag","booth":67,"booth_name":"Nehru English & Kannada Medium Primary School, Room No 1 Usaginakatti Gadag"},"geometry":{"type":"Point","coordinates":[75.62299,15.4297323]}},{"type":"Feature","properties":{"state":"Karnataka","district":8,"district_n":"GADAG","pc":10,"pc_name":"Haveri","ac":66,"ac_name":"Gadag","booth":68,"booth_name":"Govt Kannada Boys Higher Primary School No 8,new Building Room No 1, Vakkalgeri Oni,gadag"},"geometry":{"type":"Point","coordinates":[75.6218643,15.4263344]}},{"type":"Feature","properties":{"state":"Karnataka","district":8,"district_n":"GADAG","pc":10,"pc_name":"Haveri","ac":66,"ac_name":"Gadag","booth":69,"booth_name":"Govt Kannada Boys Higher Primary School No 8 Room No 2,vakkalgeri Oni,gadag"},"geometry":{"type":"Point","coordinates":[75.619606,15.4253969]}},{"type":"Feature","properties":{"state":"Karnataka","district":8,"district_n":"GADAG","pc":10,"pc_name":"Haveri","ac":66,"ac_name":"Gadag","booth":71,"booth_name":"Govt Kannada Higher Boys Primary School No 8 New Building,room No 4 Vakkalgeri Oni Gadag"},"geometry":{"type":"Point","coordinates":[75.6196442,15.42563]}},{"type":"Feature","properties":{"state":"Karnataka","district":8,"district_n":"GADAG","pc":10,"pc_name":"Haveri","ac":66,"ac_name":"Gadag","booth":72,"booth_name":"Govt Kannada Girls Higher Primary School No 8, 8, Room No 5, Vakkalgeri Oni,gadag"},"geometry":{"type":"Point","coordinates":[75.62147,15.426425]}},{"type":"Feature","properties":{"state":"Karnataka","district":8,"district_n":"GADAG","pc":10,"pc_name":"Haveri","ac":66,"ac_name":"Gadag","booth":73,"booth_name":"Govt Kannada Girls Higher Primary School School No 8,room No 6 Vakkalgeri Oni,gadag"},"geometry":{"type":"Point","coordinates":[75.6212845,15.4262667]}},{"type":"Feature","properties":{"state":"Karnataka","district":8,"district_n":"GADAG","pc":10,"pc_name":"Haveri","ac":66,"ac_name":"Gadag","booth":74,"booth_name":"Govt Kannada Boys Higher Primary School No 3,room No 1,south Part,gadag"},"geometry":{"type":"Point","coordinates":[75.62485,15.4282684]}},{"type":"Feature","properties":{"state":"Karnataka","district":8,"district_n":"GADAG","pc":10,"pc_name":"Haveri","ac":66,"ac_name":"Gadag","booth":59,"booth_name":"Govt Govt Govt Kannada Higher Primary School No 10 10 Meeting Hall, Hombal Road Gadag"},"geometry":{"type":"Point","coordinates":[75.63393,15.435256]}},{"type":"Feature","properties":{"state":"Karnataka","district":8,"district_n":"GADAG","pc":10,"pc_name":"Haveri","ac":66,"ac_name":"Gadag","booth":78,"booth_name":"Vasavi Primary School, Gadag"},"geometry":{"type":"Point","coordinates":[75.62775,15.4297142]}},{"type":"Feature","properties":{"state":"Karnataka","district":8,"district_n":"GADAG","pc":10,"pc_name":"Haveri","ac":66,"ac_name":"Gadag","booth":79,"booth_name":"Office of the Assistant Director of weights and measures, Veeranarayan Road,gadag"},"geometry":{"type":"Point","coordinates":[75.62844,15.4310875]}},{"type":"Feature","properties":{"state":"Karnataka","district":8,"district_n":"GADAG","pc":10,"pc_name":"Haveri","ac":66,"ac_name":"Gadag","booth":83,"booth_name":"Govt Govt Model Urdu Boys School No 2 2 Near Old Bus Stand,room no 1 Gadag"},"geometry":{"type":"Point","coordinates":[75.6319351,15.428545]}},{"type":"Feature","properties":{"state":"Karnataka","district":8,"district_n":"GADAG","pc":10,"pc_name":"Haveri","ac":66,"ac_name":"Gadag","booth":84,"booth_name":"Govt Govt Model Urdu Boys School No 2 2 Near Old Bus Stand Room No 2 Gadag"},"geometry":{"type":"Point","coordinates":[75.63202,15.42866]}},{"type":"Feature","properties":{"state":"Karnataka","district":8,"district_n":"GADAG","pc":10,"pc_name":"Haveri","ac":66,"ac_name":"Gadag","booth":80,"booth_name":"Office of the Assistant Director of weights and measurement, Back Back side Veeranarayan Road Gadag"},"geometry":{"type":"Point","coordinates":[75.6285248,15.431036]}},{"type":"Feature","properties":{"state":"Karnataka","district":8,"district_n":"GADAG","pc":10,"pc_name":"Haveri","ac":66,"ac_name":"Gadag","booth":81,"booth_name":"Govt Kannada Boys Higher Primary School No 4,room No 1 Shahapurpeth (basaveshwr nagar)"},"geometry":{"type":"Point","coordinates":[75.63282,15.4332285]}},{"type":"Feature","properties":{"state":"Karnataka","district":8,"district_n":"GADAG","pc":10,"pc_name":"Haveri","ac":66,"ac_name":"Gadag","booth":82,"booth_name":"Govt Urdu Urdu High School No 1 Near Old Bus Bus Stand Gadag"},"geometry":{"type":"Point","coordinates":[75.6319656,15.4288368]}},{"type":"Feature","properties":{"state":"Karnataka","district":8,"district_n":"GADAG","pc":10,"pc_name":"Haveri","ac":66,"ac_name":"Gadag","booth":85,"booth_name":"Govt Govt Model Urdu Boys School No 2 2 Near Old Bus Stand Room No 3 Gadag"},"geometry":{"type":"Point","coordinates":[75.63023,15.4287462]}},{"type":"Feature","properties":{"state":"Karnataka","district":8,"district_n":"GADAG","pc":10,"pc_name":"Haveri","ac":66,"ac_name":"Gadag","booth":86,"booth_name":"C C S S Patil Girls High School Room No 4 Masari Betageri"},"geometry":{"type":"Point","coordinates":[75.6346,15.4324045]}},{"type":"Feature","properties":{"state":"Karnataka","district":8,"district_n":"GADAG","pc":10,"pc_name":"Haveri","ac":66,"ac_name":"Gadag","booth":87,"booth_name":"Anglo Urdu Higher Primary School Room No 1 Near Chetana canteen Betageri"},"geometry":{"type":"Point","coordinates":[75.64413,15.43117]}},{"type":"Feature","properties":{"state":"Karnataka","district":8,"district_n":"GADAG","pc":10,"pc_name":"Haveri","ac":66,"ac_name":"Gadag","booth":88,"booth_name":"Hullkoti Hullkoti Co operative Education Society High School Room No4 Betageri"},"geometry":{"type":"Point","coordinates":[75.64238,15.4277411]}},{"type":"Feature","properties":{"state":"Karnataka","district":8,"district_n":"GADAG","pc":10,"pc_name":"Haveri","ac":66,"ac_name":"Gadag","booth":89,"booth_name":"Hullkoti Hullkoti Co operative Education Society High School, Room No3,betageri"},"geometry":{"type":"Point","coordinates":[75.64225,15.4272242]}},{"type":"Feature","properties":{"state":"Karnataka","district":8,"district_n":"GADAG","pc":10,"pc_name":"Haveri","ac":66,"ac_name":"Gadag","booth":128,"booth_name":"Shree Ramkrishna Ashram Junior College, Room No 1, Hulkoti"},"geometry":{"type":"Point","coordinates":[75.54248,15.422411]}},{"type":"Feature","properties":{"state":"Karnataka","district":8,"district_n":"GADAG","pc":10,"pc_name":"Haveri","ac":66,"ac_name":"Gadag","booth":129,"booth_name":"Govt Composite Composite Girls High School Room No 1, 1, Hulakoti"},"geometry":{"type":"Point","coordinates":[75.54133,15.4196386]}},{"type":"Feature","properties":{"state":"Karnataka","district":8,"district_n":"GADAG","pc":10,"pc_name":"Haveri","ac":66,"ac_name":"Gadag","booth":130,"booth_name":"Govt Composite Composite Girls High School Old Building Rightside , , Hulakoti"},"geometry":{"type":"Point","coordinates":[75.54144,15.4198551]}},{"type":"Feature","properties":{"state":"Karnataka","district":8,"district_n":"GADAG","pc":10,"pc_name":"Haveri","ac":66,"ac_name":"Gadag","booth":131,"booth_name":"Govt Composite Composite Girls High School Old Building Leftside , , Hulakoti"},"geometry":{"type":"Point","coordinates":[75.54146,15.4199181]}},{"type":"Feature","properties":{"state":"Karnataka","district":8,"district_n":"GADAG","pc":10,"pc_name":"Haveri","ac":66,"ac_name":"Gadag","booth":132,"booth_name":"Govt Composite Composite Girls High School Room No 5, 5, Hulakoti"},"geometry":{"type":"Point","coordinates":[75.54125,15.4195023]}},{"type":"Feature","properties":{"state":"Karnataka","district":8,"district_n":"GADAG","pc":10,"pc_name":"Haveri","ac":66,"ac_name":"Gadag","booth":133,"booth_name":"Government Higher Primary Kannada Girls School, (prayer Hall) Hulkoti"},"geometry":{"type":"Point","coordinates":[75.54396,15.4239426]}},{"type":"Feature","properties":{"state":"Karnataka","district":8,"district_n":"GADAG","pc":10,"pc_name":"Haveri","ac":66,"ac_name":"Gadag","booth":134,"booth_name":"Government Kannada Higher Primary School, Room No 1, Asundi"},"geometry":{"type":"Point","coordinates":[75.58552,15.4111118]}},{"type":"Feature","properties":{"state":"Karnataka","district":8,"district_n":"GADAG","pc":10,"pc_name":"Haveri","ac":66,"ac_name":"Gadag","booth":135,"booth_name":"Government Kannada Higher Primary School, Room No 2, Asundi"},"geometry":{"type":"Point","coordinates":[75.58557,15.4109192]}},{"type":"Feature","properties":{"state":"Karnataka","district":8,"district_n":"GADAG","pc":10,"pc_name":"Haveri","ac":66,"ac_name":"Gadag","booth":136,"booth_name":"Government Kannada Higher Primary School, Room No 4, Asundi"},"geometry":{"type":"Point","coordinates":[75.58542,15.4105883]}},{"type":"Feature","properties":{"state":"Karnataka","district":8,"district_n":"GADAG","pc":10,"pc_name":"Haveri","ac":66,"ac_name":"Gadag","booth":137,"booth_name":"Government Kannada Boys Boys Higher Primary School, Room No; 2, Hosalli"},"geometry":{"type":"Point","coordinates":[75.5127945,15.4078217]}},{"type":"Feature","properties":{"state":"Karnataka","district":8,"district_n":"GADAG","pc":10,"pc_name":"Haveri","ac":66,"ac_name":"Gadag","booth":138,"booth_name":"Government Kannada Boys Boys Higher Primary School, Room No No 1, Hosalli"},"geometry":{"type":"Point","coordinates":[75.51326,15.4080744]}},{"type":"Feature","properties":{"state":"Karnataka","district":8,"district_n":"GADAG","pc":10,"pc_name":"Haveri","ac":66,"ac_name":"Gadag","booth":139,"booth_name":"Government Kannada Higher Primary School, Room No 1, Mallasamudra"},"geometry":{"type":"Point","coordinates":[75.59461,15.3924189]}},{"type":"Feature","properties":{"state":"Karnataka","district":8,"district_n":"GADAG","pc":10,"pc_name":"Haveri","ac":66,"ac_name":"Gadag","booth":140,"booth_name":"Government Kannada Higher Primary School, Room No 4, Mallasamudra"},"geometry":{"type":"Point","coordinates":[75.5946655,15.39263]}},{"type":"Feature","properties":{"state":"Karnataka","district":8,"district_n":"GADAG","pc":10,"pc_name":"Haveri","ac":66,"ac_name":"Gadag","booth":141,"booth_name":"Government Kannada Higher Primary School, Room No 2, Mallasamudra"},"geometry":{"type":"Point","coordinates":[75.59496,15.392662]}},{"type":"Feature","properties":{"state":"Karnataka","district":8,"district_n":"GADAG","pc":10,"pc_name":"Haveri","ac":66,"ac_name":"Gadag","booth":142,"booth_name":"Govt Govt Kannada Kannada Higher Primary School, (right Part) Kalasapur"},"geometry":{"type":"Point","coordinates":[75.62312,15.3828182]}},{"type":"Feature","properties":{"state":"Karnataka","district":8,"district_n":"GADAG","pc":10,"pc_name":"Haveri","ac":66,"ac_name":"Gadag","booth":143,"booth_name":"Govt Govt Kannada Kannada Higher Primary School, (left (left Part) Kalasapur"},"geometry":{"type":"Point","coordinates":[75.6229858,15.3827515]}},{"type":"Feature","properties":{"state":"Karnataka","district":8,"district_n":"GADAG","pc":10,"pc_name":"Haveri","ac":66,"ac_name":"Gadag","booth":144,"booth_name":"Govt Govt Kannada Kannada Higher Primary School, (midle (midle Part) Kalasapur"},"geometry":{"type":"Point","coordinates":[75.62301,15.382863]}},{"type":"Feature","properties":{"state":"Karnataka","district":8,"district_n":"GADAG","pc":10,"pc_name":"Haveri","ac":66,"ac_name":"Gadag","booth":145,"booth_name":"Govt Govt Kannada Kannada Higher Primary School, K S R T C Colony,kalasapur"},"geometry":{"type":"Point","coordinates":[75.6253357,15.3972473]}},{"type":"Feature","properties":{"state":"Karnataka","district":8,"district_n":"GADAG","pc":10,"pc_name":"Haveri","ac":66,"ac_name":"Gadag","booth":146,"booth_name":"Government Kannada Boys Higher Primary School, Room No No 5, Kurthkoti"},"geometry":{"type":"Point","coordinates":[75.52079,15.366004]}},{"type":"Feature","properties":{"state":"Karnataka","district":8,"district_n":"GADAG","pc":10,"pc_name":"Haveri","ac":66,"ac_name":"Gadag","booth":147,"booth_name":"Government Kannada Girls Higher Primary School, Room No No 4, Kurthkoti"},"geometry":{"type":"Point","coordinates":[75.5253,15.3700752]}},{"type":"Feature","properties":{"state":"Karnataka","district":8,"district_n":"GADAG","pc":10,"pc_name":"Haveri","ac":66,"ac_name":"Gadag","booth":148,"booth_name":"Government Kannada Girls Higher Primary School, Room No No 3, Kurthkoti"},"geometry":{"type":"Point","coordinates":[75.52516,15.3703938]}},{"type":"Feature","properties":{"state":"Karnataka","district":8,"district_n":"GADAG","pc":10,"pc_name":"Haveri","ac":66,"ac_name":"Gadag","booth":149,"booth_name":"Government Kannada Girls Higher Primary School, Room No No 1, Kurthkoti"},"geometry":{"type":"Point","coordinates":[75.5258,15.36994]}},{"type":"Feature","properties":{"state":"Karnataka","district":8,"district_n":"GADAG","pc":10,"pc_name":"Haveri","ac":66,"ac_name":"Gadag","booth":150,"booth_name":"Gram Panchayat Office, Kurthkoti"},"geometry":{"type":"Point","coordinates":[75.52441,15.3702526]}},{"type":"Feature","properties":{"state":"Karnataka","district":8,"district_n":"GADAG","pc":10,"pc_name":"Haveri","ac":66,"ac_name":"Gadag","booth":151,"booth_name":"Government Kannada Boys Boys Higher Primary School, R No No 1, Kurthkoti"},"geometry":{"type":"Point","coordinates":[75.52095,15.3657236]}},{"type":"Feature","properties":{"state":"Karnataka","district":8,"district_n":"GADAG","pc":10,"pc_name":"Haveri","ac":66,"ac_name":"Gadag","booth":152,"booth_name":"Government Kannada Boys Boys Higher Primary School, Room No No 3, Kurthkoti"},"geometry":{"type":"Point","coordinates":[75.5206146,15.3654718]}},{"type":"Feature","properties":{"state":"Karnataka","district":8,"district_n":"GADAG","pc":10,"pc_name":"Haveri","ac":66,"ac_name":"Gadag","booth":153,"booth_name":"Government Kannada Boys Boys Higher Primary School, Room No 1 1 Antur"},"geometry":{"type":"Point","coordinates":[75.46943,15.365591]}},{"type":"Feature","properties":{"state":"Karnataka","district":8,"district_n":"GADAG","pc":10,"pc_name":"Haveri","ac":66,"ac_name":"Gadag","booth":154,"booth_name":"Government Kannada Boys Boys Higher Primary School, Room No 2 2 Antur"},"geometry":{"type":"Point","coordinates":[75.46946,15.3658113]}},{"type":"Feature","properties":{"state":"Karnataka","district":8,"district_n":"GADAG","pc":10,"pc_name":"Haveri","ac":66,"ac_name":"Gadag","booth":155,"booth_name":"Krishnagouda Venkangouda Patil Government High School (left Part) Part) Bentur"},"geometry":{"type":"Point","coordinates":[75.4704056,15.3611155]}},{"type":"Feature","properties":{"state":"Karnataka","district":8,"district_n":"GADAG","pc":10,"pc_name":"Haveri","ac":66,"ac_name":"Gadag","booth":156,"booth_name":"Krishnagouda Venkangouda Patil Government High School (right Part), Bentur"},"geometry":{"type":"Point","coordinates":[75.4709244,15.361536]}},{"type":"Feature","properties":{"state":"Karnataka","district":8,"district_n":"GADAG","pc":10,"pc_name":"Haveri","ac":66,"ac_name":"Gadag","booth":157,"booth_name":"Govt Lower Primary Primary School, Najeer Colony Nagavi"},"geometry":{"type":"Point","coordinates":[75.6075745,15.3631191]}},{"type":"Feature","properties":{"state":"Karnataka","district":8,"district_n":"GADAG","pc":10,"pc_name":"Haveri","ac":66,"ac_name":"Gadag","booth":158,"booth_name":"Govt Govt Kannada Higher Primary Primary School, (right Part), Nagavi"},"geometry":{"type":"Point","coordinates":[75.6134,15.36248]}},{"type":"Feature","properties":{"state":"Karnataka","district":8,"district_n":"GADAG","pc":10,"pc_name":"Haveri","ac":66,"ac_name":"Gadag","booth":159,"booth_name":"Govt Govt Kannada Higher Primary Primary School, (left Part), Nagavi"},"geometry":{"type":"Point","coordinates":[75.6139,15.36285]}},{"type":"Feature","properties":{"state":"Karnataka","district":8,"district_n":"GADAG","pc":10,"pc_name":"Haveri","ac":66,"ac_name":"Gadag","booth":160,"booth_name":"Govt Higher Primary School Room No 2 (nagavi Thanda) Siddrameshwar Nagar"},"geometry":{"type":"Point","coordinates":[75.61924,15.34998]}},{"type":"Feature","properties":{"state":"Karnataka","district":8,"district_n":"GADAG","pc":10,"pc_name":"Haveri","ac":66,"ac_name":"Gadag","booth":161,"booth_name":"Govt Higher Primary School Room No 4 (nagavi Thanda) Siddrameshwar Nagar"},"geometry":{"type":"Point","coordinates":[75.61916,15.3500452]}},{"type":"Feature","properties":{"state":"Karnataka","district":8,"district_n":"GADAG","pc":10,"pc_name":"Haveri","ac":66,"ac_name":"Gadag","booth":162,"booth_name":"Govt Govt Kannada Lower Primary Primary School, (d P E P ) Brahmanand pur pur pur (beladhadi Tanda )"},"geometry":{"type":"Point","coordinates":[75.6225739,15.3348083]}},{"type":"Feature","properties":{"state":"Karnataka","district":8,"district_n":"GADAG","pc":10,"pc_name":"Haveri","ac":66,"ac_name":"Gadag","booth":163,"booth_name":"Govt Govt Kannada Lower Primary Primary School, Room No No 2, (d P E P ) Brahmanand pur pur (beladhadi Tanda )"},"geometry":{"type":"Point","coordinates":[75.62218,15.3350182]}},{"type":"Feature","properties":{"state":"Karnataka","district":8,"district_n":"GADAG","pc":10,"pc_name":"Haveri","ac":66,"ac_name":"Gadag","booth":164,"booth_name":"Govt Govt Kannada Lower Primary Primary School, Beladhadi"},"geometry":{"type":"Point","coordinates":[75.619194,15.33697]}},{"type":"Feature","properties":{"state":"Karnataka","district":8,"district_n":"GADAG","pc":10,"pc_name":"Haveri","ac":66,"ac_name":"Gadag","booth":165,"booth_name":"Government Kannada Boys Boys Higher Primary School, Room No 1 1 Harti"},"geometry":{"type":"Point","coordinates":[75.56596,15.3311749]}},{"type":"Feature","properties":{"state":"Karnataka","district":8,"district_n":"GADAG","pc":10,"pc_name":"Haveri","ac":66,"ac_name":"Gadag","booth":166,"booth_name":"Government Kannada Boys Boys Higher Primary School, Room No 2 2 Harti"},"geometry":{"type":"Point","coordinates":[75.56584,15.331212]}},{"type":"Feature","properties":{"state":"Karnataka","district":8,"district_n":"GADAG","pc":10,"pc_name":"Haveri","ac":66,"ac_name":"Gadag","booth":167,"booth_name":"Government Kannada Boys Boys Higher Primary School, Room No 3 3 Harti"},"geometry":{"type":"Point","coordinates":[75.56557,15.3312054]}},{"type":"Feature","properties":{"state":"Karnataka","district":8,"district_n":"GADAG","pc":10,"pc_name":"Haveri","ac":66,"ac_name":"Gadag","booth":168,"booth_name":"Government Government Government Higher Primary Kannada School, Room No 1 1 New Building, Neelgund"},"geometry":{"type":"Point","coordinates":[75.48787,15.3085852]}},{"type":"Feature","properties":{"state":"Karnataka","district":8,"district_n":"GADAG","pc":10,"pc_name":"Haveri","ac":66,"ac_name":"Gadag","booth":169,"booth_name":"Government Government Government Higher Primary Kannada School, Room No 2 2 New Building, R C C C Neelgund"},"geometry":{"type":"Point","coordinates":[75.4876251,15.3083887]}},{"type":"Feature","properties":{"state":"Karnataka","district":8,"district_n":"GADAG","pc":10,"pc_name":"Haveri","ac":66,"ac_name":"Gadag","booth":170,"booth_name":"Govt Govt Kannada Higher Primary Primary School, (left (left Part) Kanavi"},"geometry":{"type":"Point","coordinates":[75.5677643,15.3649025]}},{"type":"Feature","properties":{"state":"Karnataka","district":8,"district_n":"GADAG","pc":10,"pc_name":"Haveri","ac":66,"ac_name":"Gadag","booth":171,"booth_name":"Govt Govt Kannada Higher Primary Primary School, Middle Part, Part, Kanavi"},"geometry":{"type":"Point","coordinates":[75.56789,15.3160715]}},{"type":"Feature","properties":{"state":"Karnataka","district":8,"district_n":"GADAG","pc":10,"pc_name":"Haveri","ac":66,"ac_name":"Gadag","booth":172,"booth_name":"Govt Govt Kannada Higher Primary Primary School, (right (right (right Part) Kanavi"},"geometry":{"type":"Point","coordinates":[75.56783,15.3163967]}},{"type":"Feature","properties":{"state":"Karnataka","district":8,"district_n":"GADAG","pc":10,"pc_name":"Haveri","ac":66,"ac_name":"Gadag","booth":173,"booth_name":"Govt Govt Kannada Lower Primary Primary Boys School, Kabalayata katti"},"geometry":{"type":"Point","coordinates":[75.63653,15.300065]}},{"type":"Feature","properties":{"state":"Karnataka","district":8,"district_n":"GADAG","pc":10,"pc_name":"Haveri","ac":66,"ac_name":"Gadag","booth":174,"booth_name":"Govt Govt Kannada Lower Primary Primary Boys School, Nabhapur"},"geometry":{"type":"Point","coordinates":[75.62693,15.3078365]}},{"type":"Feature","properties":{"state":"Karnataka","district":8,"district_n":"GADAG","pc":10,"pc_name":"Haveri","ac":66,"ac_name":"Gadag","booth":175,"booth_name":"Govt Govt Kannada Higher Primary Primary School, (left Part) Shirunja"},"geometry":{"type":"Point","coordinates":[75.6015549,15.2838726]}},{"type":"Feature","properties":{"state":"Karnataka","district":8,"district_n":"GADAG","pc":10,"pc_name":"Haveri","ac":66,"ac_name":"Gadag","booth":176,"booth_name":"Govt Govt Kannada Higher Primary Primary School, (right (right Part) Shirunj"},"geometry":{"type":"Point","coordinates":[75.60195,15.2837572]}},{"type":"Feature","properties":{"state":"Karnataka","district":8,"district_n":"GADAG","pc":10,"pc_name":"Haveri","ac":66,"ac_name":"Gadag","booth":177,"booth_name":"Govt Govt Kannada Higher Primary Primary School, (left Part) Hosur"},"geometry":{"type":"Point","coordinates":[75.57212,15.2988186]}},{"type":"Feature","properties":{"state":"Karnataka","district":8,"district_n":"GADAG","pc":10,"pc_name":"Haveri","ac":66,"ac_name":"Gadag","booth":178,"booth_name":"Govt Govt Kannada Higher Primary Primary School, (right Part) Hosur"},"geometry":{"type":"Point","coordinates":[75.5722351,15.2986412]}},{"type":"Feature","properties":{"state":"Karnataka","district":8,"district_n":"GADAG","pc":10,"pc_name":"Haveri","ac":66,"ac_name":"Gadag","booth":179,"booth_name":"Govt Govt Kannada Higher Primary Primary Girls School, New Building , (left Part) Mulagund"},"geometry":{"type":"Point","coordinates":[75.5215454,15.2842913]}},{"type":"Feature","properties":{"state":"Karnataka","district":8,"district_n":"GADAG","pc":10,"pc_name":"Haveri","ac":66,"ac_name":"Gadag","booth":180,"booth_name":"Govt Govt Kannada Higher Primary Primary Girls School, New Building (right Part) Mulagund"},"geometry":{"type":"Point","coordinates":[75.5211639,15.2842379]}},{"type":"Feature","properties":{"state":"Karnataka","district":8,"district_n":"GADAG","pc":10,"pc_name":"Haveri","ac":66,"ac_name":"Gadag","booth":181,"booth_name":"Pattan Panchayat Office, Mulagund"},"geometry":{"type":"Point","coordinates":[75.52503,15.2842607]}},{"type":"Feature","properties":{"state":"Karnataka","district":8,"district_n":"GADAG","pc":10,"pc_name":"Haveri","ac":66,"ac_name":"Gadag","booth":182,"booth_name":"Govt Govt Kannada Higher Primary Primary Girls School, New Building, (right Part) Mulagund"},"geometry":{"type":"Point","coordinates":[75.5209351,15.2839]}},{"type":"Feature","properties":{"state":"Karnataka","district":8,"district_n":"GADAG","pc":10,"pc_name":"Haveri","ac":66,"ac_name":"Gadag","booth":183,"booth_name":"Govt Govt Kannada Higher Primary Primary Girls School, New Building, (middle Part) Mulagund"},"geometry":{"type":"Point","coordinates":[75.52126,15.2840309]}},{"type":"Feature","properties":{"state":"Karnataka","district":8,"district_n":"GADAG","pc":10,"pc_name":"Haveri","ac":66,"ac_name":"Gadag","booth":184,"booth_name":"Govt Govt Central Urdu Primary Primary Boys School, (left Part) Mulagund"},"geometry":{"type":"Point","coordinates":[75.52214,15.2797089]}},{"type":"Feature","properties":{"state":"Karnataka","district":8,"district_n":"GADAG","pc":10,"pc_name":"Haveri","ac":66,"ac_name":"Gadag","booth":185,"booth_name":"Govt Govt Central Urdu Primary Primary Boys School, (right Part) Mulagund"},"geometry":{"type":"Point","coordinates":[75.5223,15.2799864]}},{"type":"Feature","properties":{"state":"Karnataka","district":8,"district_n":"GADAG","pc":10,"pc_name":"Haveri","ac":66,"ac_name":"Gadag","booth":186,"booth_name":"Govt Govt Central Kannada Higher Higher Primary Primary Boys School, (left Part) New Building, Mulagund"},"geometry":{"type":"Point","coordinates":[75.5199356,15.2828569]}},{"type":"Feature","properties":{"state":"Karnataka","district":8,"district_n":"GADAG","pc":10,"pc_name":"Haveri","ac":66,"ac_name":"Gadag","booth":187,"booth_name":"Govt Govt Central Kannada Higher Higher Primary Primary Boys School, School, New Building, (right Part) Mulagund"},"geometry":{"type":"Point","coordinates":[75.52,15.2828474]}},{"type":"Feature","properties":{"state":"Karnataka","district":8,"district_n":"GADAG","pc":10,"pc_name":"Haveri","ac":66,"ac_name":"Gadag","booth":188,"booth_name":"Govt Govt Kannada Higher Boys School, Room No No 2, Mulagund"},"geometry":{"type":"Point","coordinates":[75.52052,15.27873]}},{"type":"Feature","properties":{"state":"Karnataka","district":8,"district_n":"GADAG","pc":10,"pc_name":"Haveri","ac":66,"ac_name":"Gadag","booth":189,"booth_name":"Govt Govt Kannada Lower Primary Primary School, Basapur"},"geometry":{"type":"Point","coordinates":[75.54152,15.2605247]}},{"type":"Feature","properties":{"state":"Karnataka","district":8,"district_n":"GADAG","pc":10,"pc_name":"Haveri","ac":66,"ac_name":"Gadag","booth":190,"booth_name":"Govt Primary School Sheetalahari"},"geometry":{"type":"Point","coordinates":[75.5260544,15.2573013]}},{"type":"Feature","properties":{"state":"Karnataka","district":8,"district_n":"GADAG","pc":10,"pc_name":"Haveri","ac":66,"ac_name":"Gadag","booth":191,"booth_name":"Government Kannada Boys Higher Primary School,room No No 1, (r C C C Building) Left Part, Chinchali"},"geometry":{"type":"Point","coordinates":[75.489296,15.2887344]}},{"type":"Feature","properties":{"state":"Karnataka","district":8,"district_n":"GADAG","pc":10,"pc_name":"Haveri","ac":66,"ac_name":"Gadag","booth":192,"booth_name":"Government Kannada Boys Higher Primary School,room No No 2, (r C C C Building), Right Part Part Chinchali"},"geometry":{"type":"Point","coordinates":[75.48921,15.2887945]}},{"type":"Feature","properties":{"state":"Karnataka","district":8,"district_n":"GADAG","pc":10,"pc_name":"Haveri","ac":66,"ac_name":"Gadag","booth":193,"booth_name":"Government Kannada Boys Higher Primary School,(vaddargeri) School,(vaddargeri) Chinchali"},"geometry":{"type":"Point","coordinates":[75.49269,15.2844257]}},{"type":"Feature","properties":{"state":"Karnataka","district":8,"district_n":"GADAG","pc":10,"pc_name":"Haveri","ac":66,"ac_name":"Gadag","booth":194,"booth_name":"Government Kannada Higher Primary School, Kallur"},"geometry":{"type":"Point","coordinates":[75.47166,15.2799807]}},{"type":"Feature","properties":{"state":"Karnataka","district":8,"district_n":"GADAG","pc":10,"pc_name":"Haveri","ac":66,"ac_name":"Gadag","booth":195,"booth_name":"Government Kannada Higher Primary School, Kallur (left side)"},"geometry":{"type":"Point","coordinates":[75.47157,15.2799816]}},{"type":"Feature","properties":{"state":"Karnataka","district":8,"district_n":"GADAG","pc":10,"pc_name":"Haveri","ac":66,"ac_name":"Gadag","booth":196,"booth_name":"Govt Govt Kannada Lower Primary Primary School, Shirol"},"geometry":{"type":"Point","coordinates":[75.59532,15.2848148]}},{"type":"Feature","properties":{"state":"Karnataka","district":8,"district_n":"GADAG","pc":10,"pc_name":"Haveri","ac":66,"ac_name":"Gadag","booth":197,"booth_name":"Govt Govt Kannada Higher Primary Primary School, (left Part) Yelisirur"},"geometry":{"type":"Point","coordinates":[75.6006851,15.2751722]}},{"type":"Feature","properties":{"state":"Karnataka","district":8,"district_n":"GADAG","pc":10,"pc_name":"Haveri","ac":66,"ac_name":"Gadag","booth":198,"booth_name":"Govt Govt Kannada Higher Primary Primary School, (right Part) Yelisirur"},"geometry":{"type":"Point","coordinates":[75.6010742,15.2738018]}},{"type":"Feature","properties":{"state":"Karnataka","district":8,"district_n":"GADAG","pc":10,"pc_name":"Haveri","ac":66,"ac_name":"Gadag","booth":199,"booth_name":"Govt Govt Kannada Boys Model Primary Primary School, (left Part) Soratur"},"geometry":{"type":"Point","coordinates":[75.61012,15.1248531]}},{"type":"Feature","properties":{"state":"Karnataka","district":8,"district_n":"GADAG","pc":10,"pc_name":"Haveri","ac":66,"ac_name":"Gadag","booth":200,"booth_name":"Govt Govt Kannada Boys Model Primary Primary School, (midle Part) Soratur"},"geometry":{"type":"Point","coordinates":[75.61037,15.2479963]}},{"type":"Feature","properties":{"state":"Karnataka","district":8,"district_n":"GADAG","pc":10,"pc_name":"Haveri","ac":66,"ac_name":"Gadag","booth":201,"booth_name":"Govt Govt Kannada Boys Model Primary Primary School, (right Part) Soratur"},"geometry":{"type":"Point","coordinates":[75.6104355,15.2479925]}},{"type":"Feature","properties":{"state":"Karnataka","district":8,"district_n":"GADAG","pc":10,"pc_name":"Haveri","ac":66,"ac_name":"Gadag","booth":202,"booth_name":"Gram Panchyat Office, Soratur"},"geometry":{"type":"Point","coordinates":[75.61111,15.2453766]}},{"type":"Feature","properties":{"state":"Karnataka","district":8,"district_n":"GADAG","pc":10,"pc_name":"Haveri","ac":66,"ac_name":"Gadag","booth":203,"booth_name":"Karnataka Oil Seeds Growers Society , Soratur"},"geometry":{"type":"Point","coordinates":[75.61127,15.2452288]}},{"type":"Feature","properties":{"state":"Karnataka","district":8,"district_n":"GADAG","pc":10,"pc_name":"Haveri","ac":66,"ac_name":"Gadag","booth":11,"booth_name":"Block Education Office Near Guru Bhavan,gadag"},"geometry":{"type":"Point","coordinates":[75.6341248,15.4353886]}},{"type":"Feature","properties":{"state":"Karnataka","district":8,"district_n":"GADAG","pc":10,"pc_name":"Haveri","ac":66,"ac_name":"Gadag","booth":12,"booth_name":"Adarsh Shikshana Samiti's Commerce College Room No 1 Betageri"},"geometry":{"type":"Point","coordinates":[75.63513,15.4389486]}},{"type":"Feature","properties":{"state":"Karnataka","district":8,"district_n":"GADAG","pc":10,"pc_name":"Haveri","ac":66,"ac_name":"Gadag","booth":75,"booth_name":"Govt Kannada Boys Higher Primary School No 3,room No 3,gadag"},"geometry":{"type":"Point","coordinates":[75.6250153,15.4284849]}},{"type":"Feature","properties":{"state":"Karnataka","district":8,"district_n":"GADAG","pc":10,"pc_name":"Haveri","ac":66,"ac_name":"Gadag","booth":76,"booth_name":"Somavansh Sahasrajuna Kashatriya samaj Library Old saraf bazar Road Gadag"},"geometry":{"type":"Point","coordinates":[75.62758,15.42853]}},{"type":"Feature","properties":{"state":"Karnataka","district":8,"district_n":"GADAG","pc":10,"pc_name":"Haveri","ac":66,"ac_name":"Gadag","booth":77,"booth_name":"Gram cavadi,gadag"},"geometry":{"type":"Point","coordinates":[75.62762,15.4289179]}},{"type":"Feature","properties":{"state":"Karnataka","district":8,"district_n":"GADAG","pc":10,"pc_name":"Haveri","ac":66,"ac_name":"Gadag","booth":90,"booth_name":"Hullkoti Hullkoti Co operative Education Society High School Room No5,beatageri"},"geometry":{"type":"Point","coordinates":[75.6426849,15.427578]}},{"type":"Feature","properties":{"state":"Karnataka","district":8,"district_n":"GADAG","pc":10,"pc_name":"Haveri","ac":66,"ac_name":"Gadag","booth":91,"booth_name":"Soil Health Center Center A,p,m,c, Premises Betageri"},"geometry":{"type":"Point","coordinates":[75.64005,15.4275389]}},{"type":"Feature","properties":{"state":"Karnataka","district":8,"district_n":"GADAG","pc":10,"pc_name":"Haveri","ac":66,"ac_name":"Gadag","booth":204,"booth_name":"Govt Govt Kannada Lower Primary Primary School, Mahalingapur"},"geometry":{"type":"Point","coordinates":[75.65699,15.2390146]}},{"type":"Feature","properties":{"state":"Karnataka","district":8,"district_n":"GADAG","pc":10,"pc_name":"Haveri","ac":66,"ac_name":"Gadag","booth":205,"booth_name":"Govt Govt Higher Primary Primary School, Hanganakatti"},"geometry":{"type":"Point","coordinates":[75.60958,15.227]}},{"type":"Feature","properties":{"state":"Karnataka","district":8,"district_n":"GADAG","pc":10,"pc_name":"Haveri","ac":66,"ac_name":"Gadag","booth":127,"booth_name":"Govt Hgiher Primary Urdu School R C C Building Middle Part ,hulakoti"},"geometry":{"type":"Point","coordinates":[75.5427246,15.4241629]}},{"type":"Feature","properties":{"state":"Karnataka","district":8,"district_n":"GADAG","pc":10,"pc_name":"Haveri","ac":66,"ac_name":"Gadag","booth":1,"booth_name":"Govt Kannada Higher Primary School Sabhabahvan New Building Hirehandigola"},"geometry":{"type":"Point","coordinates":[75.541626,15.4567261]}},{"type":"Feature","properties":{"state":"Karnataka","district":8,"district_n":"GADAG","pc":10,"pc_name":"Haveri","ac":66,"ac_name":"Gadag","booth":124,"booth_name":"Govt Kannada Higher Primary School, New Building Room No 4 Binkadakatti"},"geometry":{"type":"Point","coordinates":[75.5880661,15.4201632]}},{"type":"Feature","properties":{"state":"Karnataka","district":8,"district_n":"GADAG","pc":10,"pc_name":"Haveri","ac":66,"ac_name":"Gadag","booth":5,"booth_name":"Govt High School, Room Room No No 1, S M M Krishnanagar, Gadag"},"geometry":{"type":"Point","coordinates":[75.62674,15.444025]}},{"type":"Feature","properties":{"state":"Karnataka","district":8,"district_n":"GADAG","pc":10,"pc_name":"Haveri","ac":66,"ac_name":"Gadag","booth":6,"booth_name":"Govt Kannada Higher Primary School No12 Room No 4 S, M, Krishna Nagar Gadag"},"geometry":{"type":"Point","coordinates":[75.62648,15.44392]}},{"type":"Feature","properties":{"state":"Karnataka","district":8,"district_n":"GADAG","pc":10,"pc_name":"Haveri","ac":66,"ac_name":"Gadag","booth":7,"booth_name":"Govt Kannada Higher Primary School No17 Room No 4 Dr Ambedkar Nagar Gadag"},"geometry":{"type":"Point","coordinates":[75.6264954,15.4360781]}},{"type":"Feature","properties":{"state":"Karnataka","district":8,"district_n":"GADAG","pc":10,"pc_name":"Haveri","ac":66,"ac_name":"Gadag","booth":8,"booth_name":"Govt Kannada Lower Primary School No17 Room No 3 Dr Dr Ambedakar Nagar Gadag"},"geometry":{"type":"Point","coordinates":[75.626915,15.4361115]}},{"type":"Feature","properties":{"state":"Karnataka","district":8,"district_n":"GADAG","pc":10,"pc_name":"Haveri","ac":66,"ac_name":"Gadag","booth":9,"booth_name":"Govt Kannada Lower Primary School Old Building No17 Room No 2 Dr Dr Ambedakar Nagar Gadag"},"geometry":{"type":"Point","coordinates":[75.62683,15.4360514]}},{"type":"Feature","properties":{"state":"Karnataka","district":8,"district_n":"GADAG","pc":10,"pc_name":"Haveri","ac":66,"ac_name":"Gadag","booth":10,"booth_name":"C M C C C Samudaya Bhavan Bhavan Myageri Oni Gadag"},"geometry":{"type":"Point","coordinates":[75.62834,15.43509]}}]}