{"type":"FeatureCollection","features":[{"type":"Feature","properties":{"state":"Karnataka","district":8,"district_n":"GADAG","pc":3,"pc_name":"Bagalkot","ac":68,"ac_name":"Nargund","booth":159,"booth_name":"Government Kannada Higher Primary School Gadag Taluk"},"geometry":{"type":"Point","coordinates":[75.71108,15.50775]}},{"type":"Feature","properties":{"state":"Karnataka","district":8,"district_n":"GADAG","pc":3,"pc_name":"Bagalkot","ac":68,"ac_name":"Nargund","booth":160,"booth_name":"Government Kannada Higher Primary School Room No"},"geometry":{"type":"Point","coordinates":[75.48171,15.5141373]}},{"type":"Feature","properties":{"state":"Karnataka","district":8,"district_n":"GADAG","pc":3,"pc_name":"Bagalkot","ac":68,"ac_name":"Nargund","booth":165,"booth_name":"Government Kannada Lower Primary School"},"geometry":{"type":"Point","coordinates":[75.65183,15.4690361]}},{"type":"Feature","properties":{"state":"Karnataka","district":8,"district_n":"GADAG","pc":3,"pc_name":"Bagalkot","ac":68,"ac_name":"Nargund","booth":166,"booth_name":"Government Kannada Higher Primary School Room No 2"},"geometry":{"type":"Point","coordinates":[75.5286255,15.46332]}},{"type":"Feature","properties":{"state":"Karnataka","district":8,"district_n":"GADAG","pc":3,"pc_name":"Bagalkot","ac":68,"ac_name":"Nargund","booth":169,"booth_name":"Government Kannada Higher Primary School"},"geometry":{"type":"Point","coordinates":[75.5128555,15.442379]}},{"type":"Feature","properties":{"state":"Karnataka","district":8,"district_n":"GADAG","pc":3,"pc_name":"Bagalkot","ac":68,"ac_name":"Nargund","booth":171,"booth_name":"Government Kannada Primary School"},"geometry":{"type":"Point","coordinates":[75.5055542,15.4329672]}},{"type":"Feature","properties":{"state":"Karnataka","district":8,"district_n":"GADAG","pc":3,"pc_name":"Bagalkot","ac":68,"ac_name":"Nargund","booth":175,"booth_name":"Government Kannada Higher Primary School"},"geometry":{"type":"Point","coordinates":[75.68419,15.3979721]}},{"type":"Feature","properties":{"state":"Karnataka","district":8,"district_n":"GADAG","pc":3,"pc_name":"Bagalkot","ac":68,"ac_name":"Nargund","booth":177,"booth_name":"Government Kannada Higher Primary School (left Side)"},"geometry":{"type":"Point","coordinates":[75.65461,15.3912411]}},{"type":"Feature","properties":{"state":"Karnataka","district":8,"district_n":"GADAG","pc":3,"pc_name":"Bagalkot","ac":68,"ac_name":"Nargund","booth":182,"booth_name":"Government Kannada Model central Boys School"},"geometry":{"type":"Point","coordinates":[75.71403,15.3918428]}},{"type":"Feature","properties":{"state":"Karnataka","district":8,"district_n":"GADAG","pc":3,"pc_name":"Bagalkot","ac":68,"ac_name":"Nargund","booth":184,"booth_name":"Government Kannada Higher Primary Girls School New Building Room No 1"},"geometry":{"type":"Point","coordinates":[75.7773361,15.3890934]}},{"type":"Feature","properties":{"state":"Karnataka","district":8,"district_n":"GADAG","pc":3,"pc_name":"Bagalkot","ac":68,"ac_name":"Nargund","booth":188,"booth_name":"Government Kannada Higher Primary Girls School Old Building Roomno2"},"geometry":{"type":"Point","coordinates":[75.7174,15.3891306]}},{"type":"Feature","properties":{"state":"Karnataka","district":8,"district_n":"GADAG","pc":3,"pc_name":"Bagalkot","ac":68,"ac_name":"Nargund","booth":191,"booth_name":"Government Kannada Higher Primary School"},"geometry":{"type":"Point","coordinates":[75.67804,15.368022]}},{"type":"Feature","properties":{"state":"Karnataka","district":8,"district_n":"GADAG","pc":3,"pc_name":"Bagalkot","ac":68,"ac_name":"Nargund","booth":192,"booth_name":"Government Kannada Higher Primary School School Jalashanker Nagar"},"geometry":{"type":"Point","coordinates":[75.65811,15.3521585]}},{"type":"Feature","properties":{"state":"Karnataka","district":8,"district_n":"GADAG","pc":3,"pc_name":"Bagalkot","ac":68,"ac_name":"Nargund","booth":99,"booth_name":"Govt Higher Primary Urdu School Room No 1"},"geometry":{"type":"Point","coordinates":[75.52307,15.7028656]}},{"type":"Feature","properties":{"state":"Karnataka","district":8,"district_n":"GADAG","pc":3,"pc_name":"Bagalkot","ac":68,"ac_name":"Nargund","booth":100,"booth_name":"Govt Higher Primary Urdu School Room No 2"},"geometry":{"type":"Point","coordinates":[75.52307,15.7028122]}},{"type":"Feature","properties":{"state":"Karnataka","district":8,"district_n":"GADAG","pc":3,"pc_name":"Bagalkot","ac":68,"ac_name":"Nargund","booth":101,"booth_name":"Govt Kannada Kannada Higher Primary Boys School Right Part Room No 1"},"geometry":{"type":"Point","coordinates":[75.56797,15.6967945]}},{"type":"Feature","properties":{"state":"Karnataka","district":8,"district_n":"GADAG","pc":3,"pc_name":"Bagalkot","ac":68,"ac_name":"Nargund","booth":102,"booth_name":"Govt Kannada Kannada Higher Primary Boys School Right Part Room No 2"},"geometry":{"type":"Point","coordinates":[75.5681,15.6969509]}},{"type":"Feature","properties":{"state":"Karnataka","district":8,"district_n":"GADAG","pc":3,"pc_name":"Bagalkot","ac":68,"ac_name":"Nargund","booth":2,"booth_name":"Govt Jonior Higher Kannadada Boys School"},"geometry":{"type":"Point","coordinates":[75.4635544,15.858963]}},{"type":"Feature","properties":{"state":"Karnataka","district":8,"district_n":"GADAG","pc":3,"pc_name":"Bagalkot","ac":68,"ac_name":"Nargund","booth":3,"booth_name":"Govt Govt Govt Kannadada Higher Primary Boys School"},"geometry":{"type":"Point","coordinates":[75.4578552,15.8806057]}},{"type":"Feature","properties":{"state":"Karnataka","district":8,"district_n":"GADAG","pc":3,"pc_name":"Bagalkot","ac":68,"ac_name":"Nargund","booth":5,"booth_name":"Govt Kannad Higher Primary Girls School ( Nartha Part)"},"geometry":{"type":"Point","coordinates":[75.4957,15.8601389]}},{"type":"Feature","properties":{"state":"Karnataka","district":8,"district_n":"GADAG","pc":3,"pc_name":"Bagalkot","ac":68,"ac_name":"Nargund","booth":6,"booth_name":"Govt Model Primary Boys Boys School ( Nartha Part)"},"geometry":{"type":"Point","coordinates":[75.49406,15.8614807]}},{"type":"Feature","properties":{"state":"Karnataka","district":8,"district_n":"GADAG","pc":3,"pc_name":"Bagalkot","ac":68,"ac_name":"Nargund","booth":9,"booth_name":"Janata Coplony Lower School"},"geometry":{"type":"Point","coordinates":[75.47017,15.849575]}},{"type":"Feature","properties":{"state":"Karnataka","district":8,"district_n":"GADAG","pc":3,"pc_name":"Bagalkot","ac":68,"ac_name":"Nargund","booth":11,"booth_name":"Govt High Primary Kannada Boys School"},"geometry":{"type":"Point","coordinates":[75.51166,15.8548975]}},{"type":"Feature","properties":{"state":"Karnataka","district":8,"district_n":"GADAG","pc":3,"pc_name":"Bagalkot","ac":68,"ac_name":"Nargund","booth":15,"booth_name":"Govt Kannada Higher Higher Primary Primary Boys School School Room No1"},"geometry":{"type":"Point","coordinates":[75.41627,15.8366137]}},{"type":"Feature","properties":{"state":"Karnataka","district":8,"district_n":"GADAG","pc":3,"pc_name":"Bagalkot","ac":68,"ac_name":"Nargund","booth":16,"booth_name":"Govt Kannad Higher Primary Primary Boys Boys School School Room No 2"},"geometry":{"type":"Point","coordinates":[75.41487,15.83741]}},{"type":"Feature","properties":{"state":"Karnataka","district":8,"district_n":"GADAG","pc":3,"pc_name":"Bagalkot","ac":68,"ac_name":"Nargund","booth":20,"booth_name":"Gram Pancaayat Pancaayat Office Office (eas wing)"},"geometry":{"type":"Point","coordinates":[75.5379639,15.8273878]}},{"type":"Feature","properties":{"state":"Karnataka","district":8,"district_n":"GADAG","pc":3,"pc_name":"Bagalkot","ac":68,"ac_name":"Nargund","booth":22,"booth_name":"Govt Higher Kannada Girls Girls School"},"geometry":{"type":"Point","coordinates":[75.53713,15.82621]}},{"type":"Feature","properties":{"state":"Karnataka","district":8,"district_n":"GADAG","pc":3,"pc_name":"Bagalkot","ac":68,"ac_name":"Nargund","booth":23,"booth_name":"Govt Higher Primary Kannada Girls Girls School"},"geometry":{"type":"Point","coordinates":[75.5372,15.8260269]}},{"type":"Feature","properties":{"state":"Karnataka","district":8,"district_n":"GADAG","pc":3,"pc_name":"Bagalkot","ac":68,"ac_name":"Nargund","booth":27,"booth_name":"Govt Higher Primary Boys Boys School School School Right said"},"geometry":{"type":"Point","coordinates":[75.5859756,15.82351]}},{"type":"Feature","properties":{"state":"Karnataka","district":8,"district_n":"GADAG","pc":3,"pc_name":"Bagalkot","ac":68,"ac_name":"Nargund","booth":28,"booth_name":"Govt Kannada Higher Primary Boys Boys School School School Left said"},"geometry":{"type":"Point","coordinates":[75.58623,15.8235884]}},{"type":"Feature","properties":{"state":"Karnataka","district":8,"district_n":"GADAG","pc":3,"pc_name":"Bagalkot","ac":68,"ac_name":"Nargund","booth":32,"booth_name":"Govt Kannada Higher Primary Boys Boys School"},"geometry":{"type":"Point","coordinates":[75.70491,15.8218536]}},{"type":"Feature","properties":{"state":"Karnataka","district":8,"district_n":"GADAG","pc":3,"pc_name":"Bagalkot","ac":68,"ac_name":"Nargund","booth":33,"booth_name":"Govt Higher Primary Primary Boys School (north Part)"},"geometry":{"type":"Point","coordinates":[75.64951,15.827445]}},{"type":"Feature","properties":{"state":"Karnataka","district":8,"district_n":"GADAG","pc":3,"pc_name":"Bagalkot","ac":68,"ac_name":"Nargund","booth":37,"booth_name":"Govt Urdu Lower Primary School"},"geometry":{"type":"Point","coordinates":[75.6464,15.8256989]}},{"type":"Feature","properties":{"state":"Karnataka","district":8,"district_n":"GADAG","pc":3,"pc_name":"Bagalkot","ac":68,"ac_name":"Nargund","booth":38,"booth_name":"Gram Panchayat Office (left Part) Room"},"geometry":{"type":"Point","coordinates":[75.3648148,15.8246889]}},{"type":"Feature","properties":{"state":"Karnataka","district":8,"district_n":"GADAG","pc":3,"pc_name":"Bagalkot","ac":68,"ac_name":"Nargund","booth":39,"booth_name":"Gram Panchayat Office (meeting Hall)"},"geometry":{"type":"Point","coordinates":[75.64565,15.82524]}},{"type":"Feature","properties":{"state":"Karnataka","district":8,"district_n":"GADAG","pc":3,"pc_name":"Bagalkot","ac":68,"ac_name":"Nargund","booth":45,"booth_name":"Govt Higher Primary Kannada Boys School Room No 1"},"geometry":{"type":"Point","coordinates":[75.32755,15.7925329]}},{"type":"Feature","properties":{"state":"Karnataka","district":8,"district_n":"GADAG","pc":3,"pc_name":"Bagalkot","ac":68,"ac_name":"Nargund","booth":47,"booth_name":"Govt Kannada Higher Primary Boys School, Room No1, Benahal"},"geometry":{"type":"Point","coordinates":[75.68479,15.7898092]}},{"type":"Feature","properties":{"state":"Karnataka","district":8,"district_n":"GADAG","pc":3,"pc_name":"Bagalkot","ac":68,"ac_name":"Nargund","booth":51,"booth_name":"Villege Panchayat Office"},"geometry":{"type":"Point","coordinates":[75.34381,15.7852144]}},{"type":"Feature","properties":{"state":"Karnataka","district":8,"district_n":"GADAG","pc":3,"pc_name":"Bagalkot","ac":68,"ac_name":"Nargund","booth":52,"booth_name":"Govt Higher Primary Kannada Boys School"},"geometry":{"type":"Point","coordinates":[75.54456,15.781127]}},{"type":"Feature","properties":{"state":"Karnataka","district":8,"district_n":"GADAG","pc":3,"pc_name":"Bagalkot","ac":68,"ac_name":"Nargund","booth":53,"booth_name":"Govt Higher Primary Boys School"},"geometry":{"type":"Point","coordinates":[75.57537,15.7834034]}},{"type":"Feature","properties":{"state":"Karnataka","district":8,"district_n":"GADAG","pc":3,"pc_name":"Bagalkot","ac":68,"ac_name":"Nargund","booth":57,"booth_name":"Govt Kannada Higher Primary Boys School, New Building Room 1, Hunagundi"},"geometry":{"type":"Point","coordinates":[75.69089,15.7867565]}},{"type":"Feature","properties":{"state":"Karnataka","district":8,"district_n":"GADAG","pc":3,"pc_name":"Bagalkot","ac":68,"ac_name":"Nargund","booth":58,"booth_name":"Govt Kannada Primary Kannada Boys School Asuti"},"geometry":{"type":"Point","coordinates":[75.61139,15.7253809]}},{"type":"Feature","properties":{"state":"Karnataka","district":8,"district_n":"GADAG","pc":3,"pc_name":"Bagalkot","ac":68,"ac_name":"Nargund","booth":62,"booth_name":"Govt Higher Primary Kannada Boys School (right Part)"},"geometry":{"type":"Point","coordinates":[75.43825,15.7701464]}},{"type":"Feature","properties":{"state":"Karnataka","district":8,"district_n":"GADAG","pc":3,"pc_name":"Bagalkot","ac":68,"ac_name":"Nargund","booth":63,"booth_name":"Govt Higher Primary Kannada Boys School Left Part"},"geometry":{"type":"Point","coordinates":[75.4383,15.770319]}},{"type":"Feature","properties":{"state":"Karnataka","district":8,"district_n":"GADAG","pc":3,"pc_name":"Bagalkot","ac":68,"ac_name":"Nargund","booth":64,"booth_name":"Govt Govt Junior College, Room No No 1, Naragund"},"geometry":{"type":"Point","coordinates":[75.37866,15.7271757]}},{"type":"Feature","properties":{"state":"Karnataka","district":8,"district_n":"GADAG","pc":3,"pc_name":"Bagalkot","ac":68,"ac_name":"Nargund","booth":68,"booth_name":"Govt Higher Primary Kannada Girls School Room No 1"},"geometry":{"type":"Point","coordinates":[75.38308,15.7232065]}},{"type":"Feature","properties":{"state":"Karnataka","district":8,"district_n":"GADAG","pc":3,"pc_name":"Bagalkot","ac":68,"ac_name":"Nargund","booth":69,"booth_name":"Govt Kannada Higher Primary Girls School Room No 5"},"geometry":{"type":"Point","coordinates":[75.38293,15.7231464]}},{"type":"Feature","properties":{"state":"Karnataka","district":8,"district_n":"GADAG","pc":3,"pc_name":"Bagalkot","ac":68,"ac_name":"Nargund","booth":73,"booth_name":"Govt Higher Higher Primary Kannada Boys School No 4"},"geometry":{"type":"Point","coordinates":[75.38671,15.7295475]}},{"type":"Feature","properties":{"state":"Karnataka","district":8,"district_n":"GADAG","pc":3,"pc_name":"Bagalkot","ac":68,"ac_name":"Nargund","booth":74,"booth_name":"Kannada Model Higher Primary Primary Boys School, No 1, Room No No 1, Naragund"},"geometry":{"type":"Point","coordinates":[75.38726,15.719017]}},{"type":"Feature","properties":{"state":"Karnataka","district":8,"district_n":"GADAG","pc":3,"pc_name":"Bagalkot","ac":68,"ac_name":"Nargund","booth":79,"booth_name":"Govt Higher Primary Kannada Boys School Somapur"},"geometry":{"type":"Point","coordinates":[75.39315,15.7243843]}},{"type":"Feature","properties":{"state":"Karnataka","district":8,"district_n":"GADAG","pc":3,"pc_name":"Bagalkot","ac":68,"ac_name":"Nargund","booth":81,"booth_name":"Govt Higher Primary Kannada Boys School No3 Room No 3 Somapur"},"geometry":{"type":"Point","coordinates":[75.39241,15.7243824]}},{"type":"Feature","properties":{"state":"Karnataka","district":8,"district_n":"GADAG","pc":3,"pc_name":"Bagalkot","ac":68,"ac_name":"Nargund","booth":82,"booth_name":"Govt Higher Primary Kannada Boys School No3 Room No 4 Somapur"},"geometry":{"type":"Point","coordinates":[75.39327,15.7244911]}},{"type":"Feature","properties":{"state":"Karnataka","district":8,"district_n":"GADAG","pc":3,"pc_name":"Bagalkot","ac":68,"ac_name":"Nargund","booth":83,"booth_name":"A P M C Former Hall Old A P M C Building Naragund"},"geometry":{"type":"Point","coordinates":[75.3902054,15.7232409]}},{"type":"Feature","properties":{"state":"Karnataka","district":8,"district_n":"GADAG","pc":3,"pc_name":"Bagalkot","ac":68,"ac_name":"Nargund","booth":84,"booth_name":"Govt Higher Primary Kannada Boys School"},"geometry":{"type":"Point","coordinates":[75.5255,15.76207]}},{"type":"Feature","properties":{"state":"Karnataka","district":8,"district_n":"GADAG","pc":3,"pc_name":"Bagalkot","ac":68,"ac_name":"Nargund","booth":88,"booth_name":"Govt Higher Primary Kannada Boys School Old Building East Part"},"geometry":{"type":"Point","coordinates":[75.6705856,15.7425947]}},{"type":"Feature","properties":{"state":"Karnataka","district":8,"district_n":"GADAG","pc":3,"pc_name":"Bagalkot","ac":68,"ac_name":"Nargund","booth":95,"booth_name":"Govt Model Kannada Kannada Primary Boys School New Building North Part"},"geometry":{"type":"Point","coordinates":[75.51411,15.73183]}},{"type":"Feature","properties":{"state":"Karnataka","district":8,"district_n":"GADAG","pc":3,"pc_name":"Bagalkot","ac":68,"ac_name":"Nargund","booth":96,"booth_name":"Govt Model Kannada Kannada Primary Boys School New Building"},"geometry":{"type":"Point","coordinates":[75.5140457,15.7317867]}},{"type":"Feature","properties":{"state":"Karnataka","district":8,"district_n":"GADAG","pc":3,"pc_name":"Bagalkot","ac":68,"ac_name":"Nargund","booth":97,"booth_name":"Govt Kannada Kannada Higher Primary Boys School Right Part Room No 1"},"geometry":{"type":"Point","coordinates":[75.5234,15.7029047]}},{"type":"Feature","properties":{"state":"Karnataka","district":8,"district_n":"GADAG","pc":3,"pc_name":"Bagalkot","ac":68,"ac_name":"Nargund","booth":98,"booth_name":"Govt Kannada Kannada Higher Primary Boys School Left Part Room No 1"},"geometry":{"type":"Point","coordinates":[75.52326,15.7028246]}},{"type":"Feature","properties":{"state":"Karnataka","district":8,"district_n":"GADAG","pc":3,"pc_name":"Bagalkot","ac":68,"ac_name":"Nargund","booth":103,"booth_name":"Govt Kannada Kannada Higher Primary Boys School Right Part Room No 1"},"geometry":{"type":"Point","coordinates":[75.30061,15.7161121]}},{"type":"Feature","properties":{"state":"Karnataka","district":8,"district_n":"GADAG","pc":3,"pc_name":"Bagalkot","ac":68,"ac_name":"Nargund","booth":104,"booth_name":"Govt Kannada Kannada Higher Primary Boys School Right Part Room No 1 Kanakikoppa"},"geometry":{"type":"Point","coordinates":[75.28853,15.7129631]}},{"type":"Feature","properties":{"state":"Karnataka","district":8,"district_n":"GADAG","pc":3,"pc_name":"Bagalkot","ac":68,"ac_name":"Nargund","booth":105,"booth_name":"Govt Kannada Higher Primary Boys School Old Buildling (east Part)"},"geometry":{"type":"Point","coordinates":[75.62972,15.67018]}},{"type":"Feature","properties":{"state":"Karnataka","district":8,"district_n":"GADAG","pc":3,"pc_name":"Bagalkot","ac":68,"ac_name":"Nargund","booth":109,"booth_name":"Govt Kannada Primary Boys School"},"geometry":{"type":"Point","coordinates":[75.65842,15.6748734]}},{"type":"Feature","properties":{"state":"Karnataka","district":8,"district_n":"GADAG","pc":3,"pc_name":"Bagalkot","ac":68,"ac_name":"Nargund","booth":110,"booth_name":"Govt Model Primary Kannada Boys School New Buildling"},"geometry":{"type":"Point","coordinates":[75.5672,15.6692009]}},{"type":"Feature","properties":{"state":"Karnataka","district":8,"district_n":"GADAG","pc":3,"pc_name":"Bagalkot","ac":68,"ac_name":"Nargund","booth":114,"booth_name":"Shri Veerabhadreshwar High School (west Part)"},"geometry":{"type":"Point","coordinates":[75.5678253,15.667985]}},{"type":"Feature","properties":{"state":"Karnataka","district":8,"district_n":"GADAG","pc":3,"pc_name":"Bagalkot","ac":68,"ac_name":"Nargund","booth":116,"booth_name":"Govt Kannada Higher Primary Boys School"},"geometry":{"type":"Point","coordinates":[75.3087845,15.6928768]}},{"type":"Feature","properties":{"state":"Karnataka","district":8,"district_n":"GADAG","pc":3,"pc_name":"Bagalkot","ac":68,"ac_name":"Nargund","booth":117,"booth_name":"Govt Higher Primary Kannada Boys School"},"geometry":{"type":"Point","coordinates":[75.64461,15.6368876]}},{"type":"Feature","properties":{"state":"Karnataka","district":8,"district_n":"GADAG","pc":3,"pc_name":"Bagalkot","ac":68,"ac_name":"Nargund","booth":118,"booth_name":"Govt Higher Primary Kannada Boys School Surakod"},"geometry":{"type":"Point","coordinates":[75.47032,15.68843]}},{"type":"Feature","properties":{"state":"Karnataka","district":8,"district_n":"GADAG","pc":3,"pc_name":"Bagalkot","ac":68,"ac_name":"Nargund","booth":119,"booth_name":"Villege Chavadi Building"},"geometry":{"type":"Point","coordinates":[75.47044,15.688549]}},{"type":"Feature","properties":{"state":"Karnataka","district":8,"district_n":"GADAG","pc":3,"pc_name":"Bagalkot","ac":68,"ac_name":"Nargund","booth":121,"booth_name":"Govt Higher Primary Kannada Boys School"},"geometry":{"type":"Point","coordinates":[75.37218,15.6838531]}},{"type":"Feature","properties":{"state":"Karnataka","district":8,"district_n":"GADAG","pc":3,"pc_name":"Bagalkot","ac":68,"ac_name":"Nargund","booth":122,"booth_name":"Govt Higher Primary Kannada Boys School"},"geometry":{"type":"Point","coordinates":[75.33322,15.6836233]}},{"type":"Feature","properties":{"state":"Karnataka","district":8,"district_n":"GADAG","pc":3,"pc_name":"Bagalkot","ac":68,"ac_name":"Nargund","booth":126,"booth_name":"Govt Higher Primary Kannada Boys School Room no 1"},"geometry":{"type":"Point","coordinates":[75.44012,15.6761208]}},{"type":"Feature","properties":{"state":"Karnataka","district":8,"district_n":"GADAG","pc":3,"pc_name":"Bagalkot","ac":68,"ac_name":"Nargund","booth":130,"booth_name":"Kannada Boys Higher Primary School"},"geometry":{"type":"Point","coordinates":[75.64658,15.5848408]}},{"type":"Feature","properties":{"state":"Karnataka","district":8,"district_n":"GADAG","pc":3,"pc_name":"Bagalkot","ac":68,"ac_name":"Nargund","booth":133,"booth_name":"Govt Higher Primary Kannada Boys School Room No 2"},"geometry":{"type":"Point","coordinates":[75.60802,15.5891142]}},{"type":"Feature","properties":{"state":"Karnataka","district":8,"district_n":"GADAG","pc":3,"pc_name":"Bagalkot","ac":68,"ac_name":"Nargund","booth":134,"booth_name":"Govt Higher Primary Kannada Girls School"},"geometry":{"type":"Point","coordinates":[75.608345,15.5885468]}},{"type":"Feature","properties":{"state":"Karnataka","district":8,"district_n":"GADAG","pc":3,"pc_name":"Bagalkot","ac":68,"ac_name":"Nargund","booth":136,"booth_name":"Govt Higher Primary Kannada Boys School Room No 2"},"geometry":{"type":"Point","coordinates":[75.6334839,15.5717916]}},{"type":"Feature","properties":{"state":"Karnataka","district":8,"district_n":"GADAG","pc":3,"pc_name":"Bagalkot","ac":68,"ac_name":"Nargund","booth":137,"booth_name":"Govt Higher Primary Kannada Boys School Room No 1"},"geometry":{"type":"Point","coordinates":[75.5488358,15.5836306]}},{"type":"Feature","properties":{"state":"Karnataka","district":8,"district_n":"GADAG","pc":3,"pc_name":"Bagalkot","ac":68,"ac_name":"Nargund","booth":141,"booth_name":"Govt Kannada Higher Primary Boys School"},"geometry":{"type":"Point","coordinates":[75.67145,15.5588322]}},{"type":"Feature","properties":{"state":"Karnataka","district":8,"district_n":"GADAG","pc":3,"pc_name":"Bagalkot","ac":68,"ac_name":"Nargund","booth":142,"booth_name":"Govt Higher Primary Kannada Boys School"},"geometry":{"type":"Point","coordinates":[75.68849,15.5464058]}},{"type":"Feature","properties":{"state":"Karnataka","district":8,"district_n":"GADAG","pc":3,"pc_name":"Bagalkot","ac":68,"ac_name":"Nargund","booth":147,"booth_name":"Govt Kannada Boys Higher Primary School New Building"},"geometry":{"type":"Point","coordinates":[75.52829,15.5225372]}},{"type":"Feature","properties":{"state":"Karnataka","district":8,"district_n":"GADAG","pc":3,"pc_name":"Bagalkot","ac":68,"ac_name":"Nargund","booth":148,"booth_name":"Govt Higher Primary Kannada Girls School Room No 1"},"geometry":{"type":"Point","coordinates":[75.55762,15.5144768]}},{"type":"Feature","properties":{"state":"Karnataka","district":8,"district_n":"GADAG","pc":3,"pc_name":"Bagalkot","ac":68,"ac_name":"Nargund","booth":149,"booth_name":"Govt Higher Kannada Primary Girls School Room No 2"},"geometry":{"type":"Point","coordinates":[75.5573654,15.51459]}},{"type":"Feature","properties":{"state":"Karnataka","district":8,"district_n":"GADAG","pc":3,"pc_name":"Bagalkot","ac":68,"ac_name":"Nargund","booth":152,"booth_name":"Government Urdu Higher Primary School Room No9"},"geometry":{"type":"Point","coordinates":[75.55451,15.519412]}},{"type":"Feature","properties":{"state":"Karnataka","district":8,"district_n":"GADAG","pc":3,"pc_name":"Bagalkot","ac":68,"ac_name":"Nargund","booth":115,"booth_name":"Shri Veerabhadreshwar High School (west Part)belavanaki"},"geometry":{"type":"Point","coordinates":[75.568306,15.6678762]}},{"type":"Feature","properties":{"state":"Karnataka","district":8,"district_n":"GADAG","pc":3,"pc_name":"Bagalkot","ac":68,"ac_name":"Nargund","booth":111,"booth_name":"Govt Model Primary Kannada Boys School New Buildling (east Wing) Belavanaki"},"geometry":{"type":"Point","coordinates":[75.5670853,15.6694565]}},{"type":"Feature","properties":{"state":"Karnataka","district":8,"district_n":"GADAG","pc":3,"pc_name":"Bagalkot","ac":68,"ac_name":"Nargund","booth":108,"booth_name":"Govt Kannada Higher Primary Boys School New Buildling (east Part)room No 3 Mallapur"},"geometry":{"type":"Point","coordinates":[75.62956,15.669611]}},{"type":"Feature","properties":{"state":"Karnataka","district":8,"district_n":"GADAG","pc":3,"pc_name":"Bagalkot","ac":68,"ac_name":"Nargund","booth":92,"booth_name":"Govt Govt Kannada Higher Primary Boys School Room No 3 Y S Hadagali"},"geometry":{"type":"Point","coordinates":[75.52827,15.7214556]}},{"type":"Feature","properties":{"state":"Karnataka","district":8,"district_n":"GADAG","pc":3,"pc_name":"Bagalkot","ac":68,"ac_name":"Nargund","booth":56,"booth_name":"Govt Kannada Higher Primary Kannada Boys School Room No 3 Old Building"},"geometry":{"type":"Point","coordinates":[75.58963,15.7777081]}},{"type":"Feature","properties":{"state":"Karnataka","district":8,"district_n":"GADAG","pc":3,"pc_name":"Bagalkot","ac":68,"ac_name":"Nargund","booth":46,"booth_name":"Govt Higher Primary Kannada Boys School Room No 3"},"geometry":{"type":"Point","coordinates":[75.32751,15.7927132]}},{"type":"Feature","properties":{"state":"Karnataka","district":8,"district_n":"GADAG","pc":3,"pc_name":"Bagalkot","ac":68,"ac_name":"Nargund","booth":44,"booth_name":"Govt Higher Primary Kannada Boys School Room No 3 Benakanakoppa"},"geometry":{"type":"Point","coordinates":[75.33908,15.7918415]}},{"type":"Feature","properties":{"state":"Karnataka","district":8,"district_n":"GADAG","pc":3,"pc_name":"Bagalkot","ac":68,"ac_name":"Nargund","booth":19,"booth_name":"Tontadarya Govt Govt Model Central Central School, Room No No 3, Shirol"},"geometry":{"type":"Point","coordinates":[75.53799,15.8273382]}},{"type":"Feature","properties":{"state":"Karnataka","district":8,"district_n":"GADAG","pc":3,"pc_name":"Bagalkot","ac":68,"ac_name":"Nargund","booth":139,"booth_name":"Govt Higher Primary Kannada Boys School Room No 3"},"geometry":{"type":"Point","coordinates":[75.54876,15.5834694]}},{"type":"Feature","properties":{"state":"Karnataka","district":8,"district_n":"GADAG","pc":3,"pc_name":"Bagalkot","ac":68,"ac_name":"Nargund","booth":140,"booth_name":"Govt Higher Primary Kannada Boys School"},"geometry":{"type":"Point","coordinates":[75.648674,15.5794687]}},{"type":"Feature","properties":{"state":"Karnataka","district":8,"district_n":"GADAG","pc":3,"pc_name":"Bagalkot","ac":68,"ac_name":"Nargund","booth":17,"booth_name":"Govt Higher Primary Primary Boys Boys School Room No 2"},"geometry":{"type":"Point","coordinates":[75.5282745,15.8288345]}},{"type":"Feature","properties":{"state":"Karnataka","district":8,"district_n":"GADAG","pc":3,"pc_name":"Bagalkot","ac":68,"ac_name":"Nargund","booth":18,"booth_name":"Govt Model Higher Primary Primary Boys Boys School No1"},"geometry":{"type":"Point","coordinates":[75.53785,15.827179]}},{"type":"Feature","properties":{"state":"Karnataka","district":8,"district_n":"GADAG","pc":3,"pc_name":"Bagalkot","ac":68,"ac_name":"Nargund","booth":24,"booth_name":"Govt Higher Kannada Boys Boys School"},"geometry":{"type":"Point","coordinates":[75.55975,15.8264761]}},{"type":"Feature","properties":{"state":"Karnataka","district":8,"district_n":"GADAG","pc":3,"pc_name":"Bagalkot","ac":68,"ac_name":"Nargund","booth":25,"booth_name":"Govt Higher Kannada Boys Boys School"},"geometry":{"type":"Point","coordinates":[75.6699142,15.8248768]}},{"type":"Feature","properties":{"state":"Karnataka","district":8,"district_n":"GADAG","pc":3,"pc_name":"Bagalkot","ac":68,"ac_name":"Nargund","booth":26,"booth_name":"Grama Chaavadi Building"},"geometry":{"type":"Point","coordinates":[75.5845642,15.8255033]}},{"type":"Feature","properties":{"state":"Karnataka","district":8,"district_n":"GADAG","pc":3,"pc_name":"Bagalkot","ac":68,"ac_name":"Nargund","booth":29,"booth_name":"Govt Kannada Higher Primary Boys Boys School School School Right wing"},"geometry":{"type":"Point","coordinates":[75.6249161,15.8234367]}},{"type":"Feature","properties":{"state":"Karnataka","district":8,"district_n":"GADAG","pc":3,"pc_name":"Bagalkot","ac":68,"ac_name":"Nargund","booth":30,"booth_name":"Govt Kannada Higher Primary Kannada Boys School Holemannur Room No 8 (left Part)"},"geometry":{"type":"Point","coordinates":[75.6250839,15.823451]}},{"type":"Feature","properties":{"state":"Karnataka","district":8,"district_n":"GADAG","pc":3,"pc_name":"Bagalkot","ac":68,"ac_name":"Nargund","booth":31,"booth_name":"Govt Kannada Higher Primary Boys Boys School"},"geometry":{"type":"Point","coordinates":[75.63295,15.8241615]}},{"type":"Feature","properties":{"state":"Karnataka","district":8,"district_n":"GADAG","pc":3,"pc_name":"Bagalkot","ac":68,"ac_name":"Nargund","booth":41,"booth_name":"Govt Kannada Highern Primary Boys School"},"geometry":{"type":"Point","coordinates":[75.68482,15.8271112]}},{"type":"Feature","properties":{"state":"Karnataka","district":8,"district_n":"GADAG","pc":3,"pc_name":"Bagalkot","ac":68,"ac_name":"Nargund","booth":42,"booth_name":"Govt Higherprimary Kannada Boys School"},"geometry":{"type":"Point","coordinates":[75.56032,15.8095179]}},{"type":"Feature","properties":{"state":"Karnataka","district":8,"district_n":"GADAG","pc":3,"pc_name":"Bagalkot","ac":68,"ac_name":"Nargund","booth":43,"booth_name":"Govt Higher Primary Kannada Boys School Room No 1"},"geometry":{"type":"Point","coordinates":[75.33925,15.7919865]}},{"type":"Feature","properties":{"state":"Karnataka","district":8,"district_n":"GADAG","pc":3,"pc_name":"Bagalkot","ac":68,"ac_name":"Nargund","booth":48,"booth_name":"Govt Kannada Higher Primary Boys School"},"geometry":{"type":"Point","coordinates":[75.37623,15.7884645]}},{"type":"Feature","properties":{"state":"Karnataka","district":8,"district_n":"GADAG","pc":3,"pc_name":"Bagalkot","ac":68,"ac_name":"Nargund","booth":49,"booth_name":"Govt Kannada Higher Primary Boys School"},"geometry":{"type":"Point","coordinates":[75.34334,15.7851353]}},{"type":"Feature","properties":{"state":"Karnataka","district":8,"district_n":"GADAG","pc":3,"pc_name":"Bagalkot","ac":68,"ac_name":"Nargund","booth":50,"booth_name":"Govt Kannada Higher Primary Boys School"},"geometry":{"type":"Point","coordinates":[75.34382,15.78529]}},{"type":"Feature","properties":{"state":"Karnataka","district":8,"district_n":"GADAG","pc":3,"pc_name":"Bagalkot","ac":68,"ac_name":"Nargund","booth":35,"booth_name":"Govt Model Primary Kannada Boys Schooleast wing"},"geometry":{"type":"Point","coordinates":[75.64968,15.8274975]}},{"type":"Feature","properties":{"state":"Karnataka","district":8,"district_n":"GADAG","pc":3,"pc_name":"Bagalkot","ac":68,"ac_name":"Nargund","booth":161,"booth_name":"Government Kannada Higher Primary School"},"geometry":{"type":"Point","coordinates":[75.51353,15.495945]}},{"type":"Feature","properties":{"state":"Karnataka","district":8,"district_n":"GADAG","pc":3,"pc_name":"Bagalkot","ac":68,"ac_name":"Nargund","booth":163,"booth_name":"Government Kannada Higher Primary School"},"geometry":{"type":"Point","coordinates":[75.65311,15.4786272]}},{"type":"Feature","properties":{"state":"Karnataka","district":8,"district_n":"GADAG","pc":3,"pc_name":"Bagalkot","ac":68,"ac_name":"Nargund","booth":164,"booth_name":"Kannada Boys Higher Primary School"},"geometry":{"type":"Point","coordinates":[75.66678,15.4657946]}},{"type":"Feature","properties":{"state":"Karnataka","district":8,"district_n":"GADAG","pc":3,"pc_name":"Bagalkot","ac":68,"ac_name":"Nargund","booth":4,"booth_name":"Anganawadi Center"},"geometry":{"type":"Point","coordinates":[75.4958649,15.8571873]}},{"type":"Feature","properties":{"state":"Karnataka","district":8,"district_n":"GADAG","pc":3,"pc_name":"Bagalkot","ac":68,"ac_name":"Nargund","booth":12,"booth_name":"Govt Govt Higher Primary Boys School"},"geometry":{"type":"Point","coordinates":[75.3819351,15.8377686]}},{"type":"Feature","properties":{"state":"Karnataka","district":8,"district_n":"GADAG","pc":3,"pc_name":"Bagalkot","ac":68,"ac_name":"Nargund","booth":13,"booth_name":"Govt Higher Primary Kannada Boys School"},"geometry":{"type":"Point","coordinates":[75.51568,15.8373795]}},{"type":"Feature","properties":{"state":"Karnataka","district":8,"district_n":"GADAG","pc":3,"pc_name":"Bagalkot","ac":68,"ac_name":"Nargund","booth":14,"booth_name":"Govt Higher Primary School"},"geometry":{"type":"Point","coordinates":[75.66649,15.8327856]}},{"type":"Feature","properties":{"state":"Karnataka","district":8,"district_n":"GADAG","pc":3,"pc_name":"Bagalkot","ac":68,"ac_name":"Nargund","booth":112,"booth_name":"Govt Urdu Higher Primary Primary Boys School"},"geometry":{"type":"Point","coordinates":[75.56652,15.6686459]}},{"type":"Feature","properties":{"state":"Karnataka","district":8,"district_n":"GADAG","pc":3,"pc_name":"Bagalkot","ac":68,"ac_name":"Nargund","booth":113,"booth_name":"Govt Higher Primary Kannada Girls School"},"geometry":{"type":"Point","coordinates":[75.56678,15.6689558]}},{"type":"Feature","properties":{"state":"Karnataka","district":8,"district_n":"GADAG","pc":3,"pc_name":"Bagalkot","ac":68,"ac_name":"Nargund","booth":59,"booth_name":"Govt Higher Primary Kannada Boys School (right Part)"},"geometry":{"type":"Point","coordinates":[75.54653,15.7233524]}},{"type":"Feature","properties":{"state":"Karnataka","district":8,"district_n":"GADAG","pc":3,"pc_name":"Bagalkot","ac":68,"ac_name":"Nargund","booth":60,"booth_name":"Govt Higher Primary Kannada Boys School (right Part)"},"geometry":{"type":"Point","coordinates":[75.54653,15.7224169]}},{"type":"Feature","properties":{"state":"Karnataka","district":8,"district_n":"GADAG","pc":3,"pc_name":"Bagalkot","ac":68,"ac_name":"Nargund","booth":61,"booth_name":"Govt Higher Primary Kannada Boys School (right Part)"},"geometry":{"type":"Point","coordinates":[75.53071,15.7717886]}},{"type":"Feature","properties":{"state":"Karnataka","district":8,"district_n":"GADAG","pc":3,"pc_name":"Bagalkot","ac":68,"ac_name":"Nargund","booth":75,"booth_name":"Kannada Medium Model Higher Primary Boys School No 1 Room No 3"},"geometry":{"type":"Point","coordinates":[75.38741,15.7190294]}},{"type":"Feature","properties":{"state":"Karnataka","district":8,"district_n":"GADAG","pc":3,"pc_name":"Bagalkot","ac":68,"ac_name":"Nargund","booth":76,"booth_name":"Kasaba Agricultural Co Operative Society Office"},"geometry":{"type":"Point","coordinates":[75.38699,15.7209349]}},{"type":"Feature","properties":{"state":"Karnataka","district":8,"district_n":"GADAG","pc":3,"pc_name":"Bagalkot","ac":68,"ac_name":"Nargund","booth":77,"booth_name":"Primary School Teachers Co operative Society Building"},"geometry":{"type":"Point","coordinates":[75.38701,15.7195168]}},{"type":"Feature","properties":{"state":"Karnataka","district":8,"district_n":"GADAG","pc":3,"pc_name":"Bagalkot","ac":68,"ac_name":"Nargund","booth":78,"booth_name":"Karnataka State Govt Employes Society Building Naragund"},"geometry":{"type":"Point","coordinates":[75.38549,15.7173367]}},{"type":"Feature","properties":{"state":"Karnataka","district":8,"district_n":"GADAG","pc":3,"pc_name":"Bagalkot","ac":68,"ac_name":"Nargund","booth":85,"booth_name":"Govt Higher Primary Boys School"},"geometry":{"type":"Point","coordinates":[75.64188,15.7618008]}},{"type":"Feature","properties":{"state":"Karnataka","district":8,"district_n":"GADAG","pc":3,"pc_name":"Bagalkot","ac":68,"ac_name":"Nargund","booth":10,"booth_name":"Govt Higher primary kannada boys school Janata Coplony(left wing), Konnur"},"geometry":{"type":"Point","coordinates":[75.49014,15.849577]}},{"type":"Feature","properties":{"state":"Karnataka","district":8,"district_n":"GADAG","pc":3,"pc_name":"Bagalkot","ac":68,"ac_name":"Nargund","booth":189,"booth_name":"Gram Panchayat Office"},"geometry":{"type":"Point","coordinates":[75.71828,15.3890324]}},{"type":"Feature","properties":{"state":"Karnataka","district":8,"district_n":"GADAG","pc":3,"pc_name":"Bagalkot","ac":68,"ac_name":"Nargund","booth":190,"booth_name":"Grama Panchayat Office Attimabbe Rangamandir"},"geometry":{"type":"Point","coordinates":[75.71822,15.3888054]}},{"type":"Feature","properties":{"state":"Karnataka","district":8,"district_n":"GADAG","pc":3,"pc_name":"Bagalkot","ac":68,"ac_name":"Nargund","booth":187,"booth_name":"Government Kannada Lower Primary School Room No 3 Lakkundi"},"geometry":{"type":"Point","coordinates":[75.72136,15.3889551]}},{"type":"Feature","properties":{"state":"Karnataka","district":8,"district_n":"GADAG","pc":3,"pc_name":"Bagalkot","ac":68,"ac_name":"Nargund","booth":185,"booth_name":"Government Kannada Higher Primary Girls School New Building Room No 3 Lakkundi"},"geometry":{"type":"Point","coordinates":[75.71733,15.3892937]}},{"type":"Feature","properties":{"state":"Karnataka","district":8,"district_n":"GADAG","pc":3,"pc_name":"Bagalkot","ac":68,"ac_name":"Nargund","booth":183,"booth_name":"Government Kannada Model central Boys School (old Building),room No 7,lakkundi"},"geometry":{"type":"Point","coordinates":[75.71424,15.3918762]}},{"type":"Feature","properties":{"state":"Karnataka","district":8,"district_n":"GADAG","pc":3,"pc_name":"Bagalkot","ac":68,"ac_name":"Nargund","booth":181,"booth_name":"Government Kannada Model Central Boys School(new Building),room No 5 Lankkundi"},"geometry":{"type":"Point","coordinates":[75.71389,15.3916092]}},{"type":"Feature","properties":{"state":"Karnataka","district":8,"district_n":"GADAG","pc":3,"pc_name":"Bagalkot","ac":68,"ac_name":"Nargund","booth":179,"booth_name":"Government Kannada Higher Primary School (midal Part) Adavisopaur"},"geometry":{"type":"Point","coordinates":[75.65458,15.3909664]}},{"type":"Feature","properties":{"state":"Karnataka","district":8,"district_n":"GADAG","pc":3,"pc_name":"Bagalkot","ac":68,"ac_name":"Nargund","booth":7,"booth_name":"Govt Model Primary Boys School (east Part)"},"geometry":{"type":"Point","coordinates":[75.49413,15.8613987]}},{"type":"Feature","properties":{"state":"Karnataka","district":8,"district_n":"GADAG","pc":3,"pc_name":"Bagalkot","ac":68,"ac_name":"Nargund","booth":8,"booth_name":"Govt Model Primary Boys School School School ( Midal Part)"},"geometry":{"type":"Point","coordinates":[75.79429,15.8613892]}},{"type":"Feature","properties":{"state":"Karnataka","district":8,"district_n":"GADAG","pc":3,"pc_name":"Bagalkot","ac":68,"ac_name":"Nargund","booth":47,"booth_name":"Govt Kannada Higher Primary Boys School, Room No3, Benahal"},"geometry":{"type":"Point","coordinates":[75.32751,15.7927132]}},{"type":"Feature","properties":{"state":"Karnataka","district":8,"district_n":"GADAG","pc":3,"pc_name":"Bagalkot","ac":68,"ac_name":"Nargund","booth":57,"booth_name":"Govt Kannada Higher Primary Boys School, New Building Building Room 3,hunagundi"},"geometry":{"type":"Point","coordinates":[75.58963,15.7777081]}},{"type":"Feature","properties":{"state":"Karnataka","district":8,"district_n":"GADAG","pc":3,"pc_name":"Bagalkot","ac":68,"ac_name":"Nargund","booth":64,"booth_name":"Govt Govt Junior College, Room No No 3, Naragund"},"geometry":{"type":"Point","coordinates":[75.4383,15.770319]}},{"type":"Feature","properties":{"state":"Karnataka","district":8,"district_n":"GADAG","pc":3,"pc_name":"Bagalkot","ac":68,"ac_name":"Nargund","booth":74,"booth_name":"Kannada Model Higher Primary Primary Boys School, No 1, Room No No 5, Naragund"},"geometry":{"type":"Point","coordinates":[75.38726,15.719017]}},{"type":"Feature","properties":{"state":"Karnataka","district":8,"district_n":"GADAG","pc":3,"pc_name":"Bagalkot","ac":68,"ac_name":"Nargund","booth":90,"booth_name":"Govt Higher Higher Primary Kannada Boys School"},"geometry":{"type":"Point","coordinates":[75.51945,15.7532358]}},{"type":"Feature","properties":{"state":"Karnataka","district":8,"district_n":"GADAG","pc":3,"pc_name":"Bagalkot","ac":68,"ac_name":"Nargund","booth":91,"booth_name":"Govt Govt Kannada Higher Primary Boys School"},"geometry":{"type":"Point","coordinates":[75.52816,15.7213116]}},{"type":"Feature","properties":{"state":"Karnataka","district":8,"district_n":"GADAG","pc":3,"pc_name":"Bagalkot","ac":68,"ac_name":"Nargund","booth":36,"booth_name":"Govt Model Primary Boys School (west Part Building) Holealur"},"geometry":{"type":"Point","coordinates":[75.64589,15.8257179]}},{"type":"Feature","properties":{"state":"Karnataka","district":8,"district_n":"GADAG","pc":3,"pc_name":"Bagalkot","ac":68,"ac_name":"Nargund","booth":120,"booth_name":"Govt Govt Kannada Higher Primary Boys School, Room No 5 5 5 5 Surkod"},"geometry":{"type":"Point","coordinates":[75.47054,15.6885014]}},{"type":"Feature","properties":{"state":"Karnataka","district":8,"district_n":"GADAG","pc":3,"pc_name":"Bagalkot","ac":68,"ac_name":"Nargund","booth":89,"booth_name":"Govt Higher Primary Kannada Boys School Old Building West Part, Hullur"},"geometry":{"type":"Point","coordinates":[75.67074,15.74156]}},{"type":"Feature","properties":{"state":"Karnataka","district":8,"district_n":"GADAG","pc":3,"pc_name":"Bagalkot","ac":68,"ac_name":"Nargund","booth":87,"booth_name":"Govt Higher Primary Kannada Boys School North wing Part Old Building Room No 3 hullur"},"geometry":{"type":"Point","coordinates":[75.67036,15.7416973]}},{"type":"Feature","properties":{"state":"Karnataka","district":8,"district_n":"GADAG","pc":3,"pc_name":"Bagalkot","ac":68,"ac_name":"Nargund","booth":80,"booth_name":"Govt Higher Primary Kannada Boys School Room No 6 Somapur"},"geometry":{"type":"Point","coordinates":[75.39327,15.7243328]}},{"type":"Feature","properties":{"state":"Karnataka","district":8,"district_n":"GADAG","pc":3,"pc_name":"Bagalkot","ac":68,"ac_name":"Nargund","booth":40,"booth_name":"Govt Higher Primary Girls School Room No 3, Hole Alur"},"geometry":{"type":"Point","coordinates":[75.64597,15.8250971]}},{"type":"Feature","properties":{"state":"Karnataka","district":8,"district_n":"GADAG","pc":3,"pc_name":"Bagalkot","ac":68,"ac_name":"Nargund","booth":34,"booth_name":"Shri Kalmeshwar P U U College Room No 4, 4, 4, Hole Alur"},"geometry":{"type":"Point","coordinates":[75.6496,15.8275156]}},{"type":"Feature","properties":{"state":"Karnataka","district":8,"district_n":"GADAG","pc":3,"pc_name":"Bagalkot","ac":68,"ac_name":"Nargund","booth":21,"booth_name":"Gram Pancaayat Pancaayat Office, Shirol"},"geometry":{"type":"Point","coordinates":[75.54121,15.8277483]}},{"type":"Feature","properties":{"state":"Karnataka","district":8,"district_n":"GADAG","pc":3,"pc_name":"Bagalkot","ac":68,"ac_name":"Nargund","booth":65,"booth_name":"Govt Pre University College Room No 1"},"geometry":{"type":"Point","coordinates":[75.3821945,15.7229662]}},{"type":"Feature","properties":{"state":"Karnataka","district":8,"district_n":"GADAG","pc":3,"pc_name":"Bagalkot","ac":68,"ac_name":"Nargund","booth":66,"booth_name":"Govt Pre University College Room No 3"},"geometry":{"type":"Point","coordinates":[75.38102,15.7187462]}},{"type":"Feature","properties":{"state":"Karnataka","district":8,"district_n":"GADAG","pc":3,"pc_name":"Bagalkot","ac":68,"ac_name":"Nargund","booth":67,"booth_name":"Shri Shiddeshwar Govt First Grade College New Building"},"geometry":{"type":"Point","coordinates":[75.38127,15.7174358]}},{"type":"Feature","properties":{"state":"Karnataka","district":8,"district_n":"GADAG","pc":3,"pc_name":"Bagalkot","ac":68,"ac_name":"Nargund","booth":70,"booth_name":"Dandapur Villege Accountant Office Tmc Building Naragund"},"geometry":{"type":"Point","coordinates":[75.38372,15.723341]}},{"type":"Feature","properties":{"state":"Karnataka","district":8,"district_n":"GADAG","pc":3,"pc_name":"Bagalkot","ac":68,"ac_name":"Nargund","booth":71,"booth_name":"Govt Model Higher Primary Kannada Boys School No 2 Room No 1"},"geometry":{"type":"Point","coordinates":[75.38269,15.7231455]}},{"type":"Feature","properties":{"state":"Karnataka","district":8,"district_n":"GADAG","pc":3,"pc_name":"Bagalkot","ac":68,"ac_name":"Nargund","booth":72,"booth_name":"Govt Model Higher Primary Kannada Boys School No 2 Room No 4"},"geometry":{"type":"Point","coordinates":[75.38228,15.7229033]}},{"type":"Feature","properties":{"state":"Karnataka","district":8,"district_n":"GADAG","pc":3,"pc_name":"Bagalkot","ac":68,"ac_name":"Nargund","booth":124,"booth_name":"Govt Higher Primary Kannada Boys School (right Part)"},"geometry":{"type":"Point","coordinates":[75.3525848,15.6780853]}},{"type":"Feature","properties":{"state":"Karnataka","district":8,"district_n":"GADAG","pc":3,"pc_name":"Bagalkot","ac":68,"ac_name":"Nargund","booth":125,"booth_name":"Govt Primary Kannada Boys School (left Part)"},"geometry":{"type":"Point","coordinates":[75.35269,15.6783848]}},{"type":"Feature","properties":{"state":"Karnataka","district":8,"district_n":"GADAG","pc":3,"pc_name":"Bagalkot","ac":68,"ac_name":"Nargund","booth":1,"booth_name":"Govt Kannada Hgher Primery Boys School"},"geometry":{"type":"Point","coordinates":[75.47847,15.8630066]}},{"type":"Feature","properties":{"state":"Karnataka","district":8,"district_n":"GADAG","pc":3,"pc_name":"Bagalkot","ac":68,"ac_name":"Nargund","booth":153,"booth_name":"Government Urdu Higher Primary School (r C C C Building), Room No5 Hombal"},"geometry":{"type":"Point","coordinates":[75.55461,15.5193424]}},{"type":"Feature","properties":{"state":"Karnataka","district":8,"district_n":"GADAG","pc":3,"pc_name":"Bagalkot","ac":68,"ac_name":"Nargund","booth":145,"booth_name":"Govt Kannada Boys Higher Primary School Room No 3 Yarebeleri"},"geometry":{"type":"Point","coordinates":[75.70836,15.5390711]}},{"type":"Feature","properties":{"state":"Karnataka","district":8,"district_n":"GADAG","pc":3,"pc_name":"Bagalkot","ac":68,"ac_name":"Nargund","booth":143,"booth_name":"Govt Higher Primary Kannada Boys School Room No 3 Kuradagi"},"geometry":{"type":"Point","coordinates":[75.68887,15.5464993]}},{"type":"Feature","properties":{"state":"Karnataka","district":8,"district_n":"GADAG","pc":3,"pc_name":"Bagalkot","ac":68,"ac_name":"Nargund","booth":138,"booth_name":"Govt Higher Primary Kannada Boys School Room No 5 Lingadal"},"geometry":{"type":"Point","coordinates":[75.54855,15.5834551]}},{"type":"Feature","properties":{"state":"Karnataka","district":8,"district_n":"GADAG","pc":3,"pc_name":"Bagalkot","ac":68,"ac_name":"Nargund","booth":93,"booth_name":"Govt Govt Kannada Higher Primary Boys School"},"geometry":{"type":"Point","coordinates":[75.44605,15.72627]}},{"type":"Feature","properties":{"state":"Karnataka","district":8,"district_n":"GADAG","pc":3,"pc_name":"Bagalkot","ac":68,"ac_name":"Nargund","booth":94,"booth_name":"Govt Model Kannada Kannada Primary Boys School New Building Left Part"},"geometry":{"type":"Point","coordinates":[75.51405,15.73186]}},{"type":"Feature","properties":{"state":"Karnataka","district":8,"district_n":"GADAG","pc":3,"pc_name":"Bagalkot","ac":68,"ac_name":"Nargund","booth":154,"booth_name":"Government Kannadahigher primary School Room No 1"},"geometry":{"type":"Point","coordinates":[75.65537,15.5183229]}},{"type":"Feature","properties":{"state":"Karnataka","district":8,"district_n":"GADAG","pc":3,"pc_name":"Bagalkot","ac":68,"ac_name":"Nargund","booth":155,"booth_name":"Government Kannada hiher Primary School Room No4"},"geometry":{"type":"Point","coordinates":[75.65517,15.51838]}},{"type":"Feature","properties":{"state":"Karnataka","district":8,"district_n":"GADAG","pc":3,"pc_name":"Bagalkot","ac":68,"ac_name":"Nargund","booth":131,"booth_name":"Govt Higher Primary Kannada Boys School"},"geometry":{"type":"Point","coordinates":[75.40629,15.6629152]}},{"type":"Feature","properties":{"state":"Karnataka","district":8,"district_n":"GADAG","pc":3,"pc_name":"Bagalkot","ac":68,"ac_name":"Nargund","booth":178,"booth_name":"Government Kannada Higher Primary School"},"geometry":{"type":"Point","coordinates":[75.65463,15.391345]}},{"type":"Feature","properties":{"state":"Karnataka","district":8,"district_n":"GADAG","pc":3,"pc_name":"Bagalkot","ac":68,"ac_name":"Nargund","booth":180,"booth_name":"Government Kannada Mopdel Central Boys School"},"geometry":{"type":"Point","coordinates":[75.7138062,15.3918161]}},{"type":"Feature","properties":{"state":"Karnataka","district":8,"district_n":"GADAG","pc":3,"pc_name":"Bagalkot","ac":68,"ac_name":"Nargund","booth":186,"booth_name":"Government Kannada Higher Primary Girls School Old Building Room No 1"},"geometry":{"type":"Point","coordinates":[75.72118,15.3892326]}},{"type":"Feature","properties":{"state":"Karnataka","district":8,"district_n":"GADAG","pc":3,"pc_name":"Bagalkot","ac":68,"ac_name":"Nargund","booth":127,"booth_name":"Govt Higher Primary Kannada Boys School"},"geometry":{"type":"Point","coordinates":[75.41088,15.6717854]}},{"type":"Feature","properties":{"state":"Karnataka","district":8,"district_n":"GADAG","pc":3,"pc_name":"Bagalkot","ac":68,"ac_name":"Nargund","booth":128,"booth_name":"Govt P U College"},"geometry":{"type":"Point","coordinates":[75.40858,15.6658125]}},{"type":"Feature","properties":{"state":"Karnataka","district":8,"district_n":"GADAG","pc":3,"pc_name":"Bagalkot","ac":68,"ac_name":"Nargund","booth":129,"booth_name":"Villege Panchayat Office Building D S Hadagali"},"geometry":{"type":"Point","coordinates":[75.648056,15.5853062]}},{"type":"Feature","properties":{"state":"Karnataka","district":8,"district_n":"GADAG","pc":3,"pc_name":"Bagalkot","ac":68,"ac_name":"Nargund","booth":135,"booth_name":"Govt Higher Primary Kannada Boys School Room No 1 Kadadi"},"geometry":{"type":"Point","coordinates":[75.63375,15.5875254]}},{"type":"Feature","properties":{"state":"Karnataka","district":8,"district_n":"GADAG","pc":3,"pc_name":"Bagalkot","ac":68,"ac_name":"Nargund","booth":54,"booth_name":"Govt Higher Primary Kannada Boys School New Building"},"geometry":{"type":"Point","coordinates":[75.5897751,15.777916]}},{"type":"Feature","properties":{"state":"Karnataka","district":8,"district_n":"GADAG","pc":3,"pc_name":"Bagalkot","ac":68,"ac_name":"Nargund","booth":55,"booth_name":"Govt Kannada Higher Primary Boys School Room No1 Old Building"},"geometry":{"type":"Point","coordinates":[75.5895,15.7776823]}},{"type":"Feature","properties":{"state":"Karnataka","district":8,"district_n":"GADAG","pc":3,"pc_name":"Bagalkot","ac":68,"ac_name":"Nargund","booth":144,"booth_name":"Govt Kannada Boys Higher Primary School"},"geometry":{"type":"Point","coordinates":[75.70836,15.539176]}},{"type":"Feature","properties":{"state":"Karnataka","district":8,"district_n":"GADAG","pc":3,"pc_name":"Bagalkot","ac":68,"ac_name":"Nargund","booth":146,"booth_name":"Kannada Higher Primary School"},"geometry":{"type":"Point","coordinates":[75.72052,15.5255928]}},{"type":"Feature","properties":{"state":"Karnataka","district":8,"district_n":"GADAG","pc":3,"pc_name":"Bagalkot","ac":68,"ac_name":"Nargund","booth":150,"booth_name":"Govt Model Primary Boys School Room No 9"},"geometry":{"type":"Point","coordinates":[75.55392,15.519453]}},{"type":"Feature","properties":{"state":"Karnataka","district":8,"district_n":"GADAG","pc":3,"pc_name":"Bagalkot","ac":68,"ac_name":"Nargund","booth":151,"booth_name":"Govt Urdu Higher Higher Primary School Room No 1"},"geometry":{"type":"Point","coordinates":[75.55466,15.5194588]}},{"type":"Feature","properties":{"state":"Karnataka","district":8,"district_n":"GADAG","pc":3,"pc_name":"Bagalkot","ac":68,"ac_name":"Nargund","booth":157,"booth_name":"Government Kannada hiher Primary School"},"geometry":{"type":"Point","coordinates":[75.6675,15.5197945]}},{"type":"Feature","properties":{"state":"Karnataka","district":8,"district_n":"GADAG","pc":3,"pc_name":"Bagalkot","ac":68,"ac_name":"Nargund","booth":158,"booth_name":"Kannada Higher Primary School Room No"},"geometry":{"type":"Point","coordinates":[75.71684,15.5139732]}},{"type":"Feature","properties":{"state":"Karnataka","district":8,"district_n":"GADAG","pc":3,"pc_name":"Bagalkot","ac":68,"ac_name":"Nargund","booth":193,"booth_name":"Government Kannada Higher Primary School School Balaji Nagarpapanashi Tanda)"},"geometry":{"type":"Point","coordinates":[75.6628647,15.3546743]}},{"type":"Feature","properties":{"state":"Karnataka","district":8,"district_n":"GADAG","pc":3,"pc_name":"Bagalkot","ac":68,"ac_name":"Nargund","booth":123,"booth_name":"Govt Higher Primary Kannada Boys School Room no 5 Jagapur"},"geometry":{"type":"Point","coordinates":[75.33325,15.68337]}},{"type":"Feature","properties":{"state":"Karnataka","district":8,"district_n":"GADAG","pc":3,"pc_name":"Bagalkot","ac":68,"ac_name":"Nargund","booth":176,"booth_name":"Government Kannada Higher Primary School Room No 3 Sambhapur"},"geometry":{"type":"Point","coordinates":[75.6837158,15.398138]}},{"type":"Feature","properties":{"state":"Karnataka","district":8,"district_n":"GADAG","pc":3,"pc_name":"Bagalkot","ac":68,"ac_name":"Nargund","booth":174,"booth_name":"Government Kannada Higher Primary School(midal Part) Hatalageri"},"geometry":{"type":"Point","coordinates":[75.68843,15.4176378]}},{"type":"Feature","properties":{"state":"Karnataka","district":8,"district_n":"GADAG","pc":3,"pc_name":"Bagalkot","ac":68,"ac_name":"Nargund","booth":170,"booth_name":"Government Kannada Higher Primary School Room 3 Shagoti"},"geometry":{"type":"Point","coordinates":[75.5128,15.4425287]}},{"type":"Feature","properties":{"state":"Karnataka","district":8,"district_n":"GADAG","pc":3,"pc_name":"Bagalkot","ac":68,"ac_name":"Nargund","booth":162,"booth_name":"Government Kannada Higher Primary School (left Wing) Belahod"},"geometry":{"type":"Point","coordinates":[75.51376,15.4952593]}},{"type":"Feature","properties":{"state":"Karnataka","district":8,"district_n":"GADAG","pc":3,"pc_name":"Bagalkot","ac":68,"ac_name":"Nargund","booth":156,"booth_name":"Government Kannada hiher Primary School Room No3 Huilgol"},"geometry":{"type":"Point","coordinates":[75.655304,15.5183277]}},{"type":"Feature","properties":{"state":"Karnataka","district":8,"district_n":"GADAG","pc":3,"pc_name":"Bagalkot","ac":68,"ac_name":"Nargund","booth":86,"booth_name":"Govt Higher Primary Kannada Boys School North wing Part Old Building"},"geometry":{"type":"Point","coordinates":[75.67031,15.74156]}},{"type":"Feature","properties":{"state":"Karnataka","district":8,"district_n":"GADAG","pc":3,"pc_name":"Bagalkot","ac":68,"ac_name":"Nargund","booth":167,"booth_name":"Government Kannada Higher Primary School Room No 3"},"geometry":{"type":"Point","coordinates":[75.52879,15.4633064]}},{"type":"Feature","properties":{"state":"Karnataka","district":8,"district_n":"GADAG","pc":3,"pc_name":"Bagalkot","ac":68,"ac_name":"Nargund","booth":168,"booth_name":"Government Kannada Higher Primary School Room No 1(new Building)"},"geometry":{"type":"Point","coordinates":[75.6601944,15.4542789]}},{"type":"Feature","properties":{"state":"Karnataka","district":8,"district_n":"GADAG","pc":3,"pc_name":"Bagalkot","ac":68,"ac_name":"Nargund","booth":172,"booth_name":"Government Kannada Higher Primary School (left part)"},"geometry":{"type":"Point","coordinates":[75.6882,15.4171324]}},{"type":"Feature","properties":{"state":"Karnataka","district":8,"district_n":"GADAG","pc":3,"pc_name":"Bagalkot","ac":68,"ac_name":"Nargund","booth":173,"booth_name":"Government Kannada Higher Primary School"},"geometry":{"type":"Point","coordinates":[75.68834,15.417347]}},{"type":"Feature","properties":{"state":"Karnataka","district":8,"district_n":"GADAG","pc":3,"pc_name":"Bagalkot","ac":68,"ac_name":"Nargund","booth":106,"booth_name":"Govt Kannada Higher Primary Boys School Old Buildling (west Part)"},"geometry":{"type":"Point","coordinates":[75.6296158,15.6701775]}},{"type":"Feature","properties":{"state":"Karnataka","district":8,"district_n":"GADAG","pc":3,"pc_name":"Bagalkot","ac":68,"ac_name":"Nargund","booth":107,"booth_name":"Govt Kannada Higher Primary Boys School New Buildling (east Part)"},"geometry":{"type":"Point","coordinates":[75.62949,15.6702137]}}]}