{"type":"FeatureCollection","features":[{"type":"Feature","properties":{"state":"Karnataka","district":12,"district_n":"BELLARY","pc":9,"pc_name":"Bellary","ac":89,"ac_name":"Hagaribommanahalli","booth":17,"booth_name":"Government Higher Primary School Nakaralu Tanda"},"geometry":{"type":"Point","coordinates":[76.24669,15.1535749]}},{"type":"Feature","properties":{"state":"Karnataka","district":12,"district_n":"BELLARY","pc":9,"pc_name":"Bellary","ac":89,"ac_name":"Hagaribommanahalli","booth":19,"booth_name":"Grama Panchayat Office Thambrahalli"},"geometry":{"type":"Point","coordinates":[76.15257,15.1515551]}},{"type":"Feature","properties":{"state":"Karnataka","district":12,"district_n":"BELLARY","pc":9,"pc_name":"Bellary","ac":89,"ac_name":"Hagaribommanahalli","booth":20,"booth_name":"\"samudaaya Bhavana Bhavana Thambrahalli\""},"geometry":{"type":"Point","coordinates":[76.15335,15.152853]}},{"type":"Feature","properties":{"state":"Karnataka","district":12,"district_n":"BELLARY","pc":9,"pc_name":"Bellary","ac":89,"ac_name":"Hagaribommanahalli","booth":22,"booth_name":"Government Model Higher Primary School, Tambra Halli"},"geometry":{"type":"Point","coordinates":[76.14885,15.1532412]}},{"type":"Feature","properties":{"state":"Karnataka","district":12,"district_n":"BELLARY","pc":9,"pc_name":"Bellary","ac":89,"ac_name":"Hagaribommanahalli","booth":23,"booth_name":"Government Lower Lower Primary School, Tambra Halli North wing"},"geometry":{"type":"Point","coordinates":[76.167244,15.1710224]}},{"type":"Feature","properties":{"state":"Karnataka","district":12,"district_n":"BELLARY","pc":9,"pc_name":"Bellary","ac":89,"ac_name":"Hagaribommanahalli","booth":25,"booth_name":"Government Higher Primary School, Chikkasobati"},"geometry":{"type":"Point","coordinates":[76.16135,15.0899649]}},{"type":"Feature","properties":{"state":"Karnataka","district":12,"district_n":"BELLARY","pc":9,"pc_name":"Bellary","ac":89,"ac_name":"Hagaribommanahalli","booth":26,"booth_name":"Government Higer Primary School, Yedramanahalli"},"geometry":{"type":"Point","coordinates":[76.15579,15.10751]}},{"type":"Feature","properties":{"state":"Karnataka","district":12,"district_n":"BELLARY","pc":9,"pc_name":"Bellary","ac":89,"ac_name":"Hagaribommanahalli","booth":28,"booth_name":"Government Higher Primary School, Bachigondanahalli 2"},"geometry":{"type":"Point","coordinates":[76.18361,15.1219215]}},{"type":"Feature","properties":{"state":"Karnataka","district":12,"district_n":"BELLARY","pc":9,"pc_name":"Bellary","ac":89,"ac_name":"Hagaribommanahalli","booth":29,"booth_name":"Government Higher Primary School, Bachigondanahalli 1"},"geometry":{"type":"Point","coordinates":[76.18178,15.14243]}},{"type":"Feature","properties":{"state":"Karnataka","district":12,"district_n":"BELLARY","pc":9,"pc_name":"Bellary","ac":89,"ac_name":"Hagaribommanahalli","booth":31,"booth_name":"Government Higher Primary School (east Wing) Chilgodu"},"geometry":{"type":"Point","coordinates":[76.15444,15.1275845]}},{"type":"Feature","properties":{"state":"Karnataka","district":12,"district_n":"BELLARY","pc":9,"pc_name":"Bellary","ac":89,"ac_name":"Hagaribommanahalli","booth":34,"booth_name":"Government Higher Primary School, 112 Venkatapura"},"geometry":{"type":"Point","coordinates":[76.35006,15.1827526]}},{"type":"Feature","properties":{"state":"Karnataka","district":12,"district_n":"BELLARY","pc":9,"pc_name":"Bellary","ac":89,"ac_name":"Hagaribommanahalli","booth":37,"booth_name":"\"government Higher Primary School, 114 Danapura (room No 1)\""},"geometry":{"type":"Point","coordinates":[76.3680649,15.1765213]}},{"type":"Feature","properties":{"state":"Karnataka","district":12,"district_n":"BELLARY","pc":9,"pc_name":"Bellary","ac":89,"ac_name":"Hagaribommanahalli","booth":40,"booth_name":"\"government Lower Primary School, Hanumana Halli Halli (room No 1)\""},"geometry":{"type":"Point","coordinates":[76.37888,15.1833649]}},{"type":"Feature","properties":{"state":"Karnataka","district":12,"district_n":"BELLARY","pc":9,"pc_name":"Bellary","ac":89,"ac_name":"Hagaribommanahalli","booth":42,"booth_name":"Government Higher Primary School New building Ayyanahalli"},"geometry":{"type":"Point","coordinates":[76.34431,15.1737585]}},{"type":"Feature","properties":{"state":"Karnataka","district":12,"district_n":"BELLARY","pc":9,"pc_name":"Bellary","ac":89,"ac_name":"Hagaribommanahalli","booth":43,"booth_name":"Government Higher Primary School, Nandi Bandi"},"geometry":{"type":"Point","coordinates":[76.3184357,15.1450987]}},{"type":"Feature","properties":{"state":"Karnataka","district":12,"district_n":"BELLARY","pc":9,"pc_name":"Bellary","ac":89,"ac_name":"Hagaribommanahalli","booth":45,"booth_name":"\"government \"government Model Boys Higher Primary School, Mariyammanahalli Mariyammanahalli (room No No 2)\""},"geometry":{"type":"Point","coordinates":[76.354,15.1613617]}},{"type":"Feature","properties":{"state":"Karnataka","district":12,"district_n":"BELLARY","pc":9,"pc_name":"Bellary","ac":89,"ac_name":"Hagaribommanahalli","booth":5,"booth_name":"Government Lower Primary School , Seeganahalli 2"},"geometry":{"type":"Point","coordinates":[76.14183,15.1646481]}},{"type":"Feature","properties":{"state":"Karnataka","district":12,"district_n":"BELLARY","pc":9,"pc_name":"Bellary","ac":89,"ac_name":"Hagaribommanahalli","booth":6,"booth_name":"Government Higher Primary School , Seeganahalli 1"},"geometry":{"type":"Point","coordinates":[76.14994,15.16178]}},{"type":"Feature","properties":{"state":"Karnataka","district":12,"district_n":"BELLARY","pc":9,"pc_name":"Bellary","ac":89,"ac_name":"Hagaribommanahalli","booth":8,"booth_name":"\"government Higher Primary School Muthukur (room No 1)\""},"geometry":{"type":"Point","coordinates":[76.18398,15.2116632]}},{"type":"Feature","properties":{"state":"Karnataka","district":12,"district_n":"BELLARY","pc":9,"pc_name":"Bellary","ac":89,"ac_name":"Hagaribommanahalli","booth":11,"booth_name":"\"government Higher Primary School, Narayana Devar kere( Ladakanabhavi) (room No 1)\""},"geometry":{"type":"Point","coordinates":[76.28391,15.16565]}},{"type":"Feature","properties":{"state":"Karnataka","district":12,"district_n":"BELLARY","pc":9,"pc_name":"Bellary","ac":89,"ac_name":"Hagaribommanahalli","booth":14,"booth_name":"Government Lower Primary School Kenchatanahalli"},"geometry":{"type":"Point","coordinates":[76.30033,15.1467247]}},{"type":"Feature","properties":{"state":"Karnataka","district":12,"district_n":"BELLARY","pc":9,"pc_name":"Bellary","ac":89,"ac_name":"Hagaribommanahalli","booth":2,"booth_name":"Government Lower Primary School Krishnapura"},"geometry":{"type":"Point","coordinates":[76.12579,15.1562309]}},{"type":"Feature","properties":{"state":"Karnataka","district":12,"district_n":"BELLARY","pc":9,"pc_name":"Bellary","ac":89,"ac_name":"Hagaribommanahalli","booth":3,"booth_name":"Government Higher Primery School Bannigola"},"geometry":{"type":"Point","coordinates":[76.13393,15.1713781]}},{"type":"Feature","properties":{"state":"Karnataka","district":12,"district_n":"BELLARY","pc":9,"pc_name":"Bellary","ac":89,"ac_name":"Hagaribommanahalli","booth":4,"booth_name":"Grama Panchayath Office ,bannigol"},"geometry":{"type":"Point","coordinates":[76.1319351,15.170413]}},{"type":"Feature","properties":{"state":"Karnataka","district":12,"district_n":"BELLARY","pc":9,"pc_name":"Bellary","ac":89,"ac_name":"Hagaribommanahalli","booth":7,"booth_name":"Government Higher Primary School, Telegoli"},"geometry":{"type":"Point","coordinates":[76.18398,15.2116632]}},{"type":"Feature","properties":{"state":"Karnataka","district":12,"district_n":"BELLARY","pc":9,"pc_name":"Bellary","ac":89,"ac_name":"Hagaribommanahalli","booth":30,"booth_name":"Government Higher Primary School, Adavi Ananda Devana Halli"},"geometry":{"type":"Point","coordinates":[76.20332,15.1283321]}},{"type":"Feature","properties":{"state":"Karnataka","district":12,"district_n":"BELLARY","pc":9,"pc_name":"Bellary","ac":89,"ac_name":"Hagaribommanahalli","booth":10,"booth_name":"\"government Higher Primary School School Kithanur (room No 2)\""},"geometry":{"type":"Point","coordinates":[76.19526,15.1844215]}},{"type":"Feature","properties":{"state":"Karnataka","district":12,"district_n":"BELLARY","pc":9,"pc_name":"Bellary","ac":89,"ac_name":"Hagaribommanahalli","booth":16,"booth_name":"\"government Higher Primary School Uppanayakanahalli Uppanayakanahalli (room No 1)\""},"geometry":{"type":"Point","coordinates":[76.25744,15.1295481]}},{"type":"Feature","properties":{"state":"Karnataka","district":12,"district_n":"BELLARY","pc":9,"pc_name":"Bellary","ac":89,"ac_name":"Hagaribommanahalli","booth":27,"booth_name":"Government Higher Primary School Hagarikyadigihalli"},"geometry":{"type":"Point","coordinates":[76.16966,15.1197233]}},{"type":"Feature","properties":{"state":"Karnataka","district":12,"district_n":"BELLARY","pc":9,"pc_name":"Bellary","ac":89,"ac_name":"Hagaribommanahalli","booth":33,"booth_name":"\"government Higher Primary School Ankasamudra Ankasamudra (room No 1)\""},"geometry":{"type":"Point","coordinates":[76.22321,15.1310244]}},{"type":"Feature","properties":{"state":"Karnataka","district":12,"district_n":"BELLARY","pc":9,"pc_name":"Bellary","ac":89,"ac_name":"Hagaribommanahalli","booth":36,"booth_name":"Government Lower Primary School, Galemman Gudi"},"geometry":{"type":"Point","coordinates":[76.37688,15.1905832]}},{"type":"Feature","properties":{"state":"Karnataka","district":12,"district_n":"BELLARY","pc":9,"pc_name":"Bellary","ac":89,"ac_name":"Hagaribommanahalli","booth":39,"booth_name":"\"anganavadi Kendra , , Hampinakatti \""},"geometry":{"type":"Point","coordinates":[76.35148,15.1830492]}},{"type":"Feature","properties":{"state":"Karnataka","district":12,"district_n":"BELLARY","pc":9,"pc_name":"Bellary","ac":89,"ac_name":"Hagaribommanahalli","booth":35,"booth_name":"Government Higher Primary School Vyasana Keri"},"geometry":{"type":"Point","coordinates":[76.3559341,15.1955519]}},{"type":"Feature","properties":{"state":"Karnataka","district":12,"district_n":"BELLARY","pc":9,"pc_name":"Bellary","ac":89,"ac_name":"Hagaribommanahalli","booth":38,"booth_name":"\"grama Panchayath Office Danapura \""},"geometry":{"type":"Point","coordinates":[76.36751,15.175787]}},{"type":"Feature","properties":{"state":"Karnataka","district":12,"district_n":"BELLARY","pc":9,"pc_name":"Bellary","ac":89,"ac_name":"Hagaribommanahalli","booth":41,"booth_name":"\"government Higher Primary School, Hanumana Halli Halli (room No 2)\""},"geometry":{"type":"Point","coordinates":[76.37877,15.1835175]}},{"type":"Feature","properties":{"state":"Karnataka","district":12,"district_n":"BELLARY","pc":9,"pc_name":"Bellary","ac":89,"ac_name":"Hagaribommanahalli","booth":12,"booth_name":"Government Higher Primary School, Lokappan Hola"},"geometry":{"type":"Point","coordinates":[76.32606,15.1742868]}},{"type":"Feature","properties":{"state":"Karnataka","district":12,"district_n":"BELLARY","pc":9,"pc_name":"Bellary","ac":89,"ac_name":"Hagaribommanahalli","booth":15,"booth_name":"Government Higher Primary School, Marabbihal"},"geometry":{"type":"Point","coordinates":[76.2756,15.134059]}},{"type":"Feature","properties":{"state":"Karnataka","district":12,"district_n":"BELLARY","pc":9,"pc_name":"Bellary","ac":89,"ac_name":"Hagaribommanahalli","booth":1,"booth_name":"Government Lower Primary School Basarakodu tanda"},"geometry":{"type":"Point","coordinates":[76.11709,15.1295462]}},{"type":"Feature","properties":{"state":"Karnataka","district":12,"district_n":"BELLARY","pc":9,"pc_name":"Bellary","ac":89,"ac_name":"Hagaribommanahalli","booth":9,"booth_name":"\"government Higher Primary School School Kithanur Kithanur (room No 1)\""},"geometry":{"type":"Point","coordinates":[76.19536,15.18452]}},{"type":"Feature","properties":{"state":"Karnataka","district":12,"district_n":"BELLARY","pc":9,"pc_name":"Bellary","ac":89,"ac_name":"Hagaribommanahalli","booth":18,"booth_name":"Government Lower Primary School, Marabbihalu Thanda"},"geometry":{"type":"Point","coordinates":[76.27901,15.1355686]}},{"type":"Feature","properties":{"state":"Karnataka","district":12,"district_n":"BELLARY","pc":9,"pc_name":"Bellary","ac":89,"ac_name":"Hagaribommanahalli","booth":24,"booth_name":"Government Lower Primary School, Hire sobati"},"geometry":{"type":"Point","coordinates":[76.15558,15.0931673]}},{"type":"Feature","properties":{"state":"Karnataka","district":12,"district_n":"BELLARY","pc":9,"pc_name":"Bellary","ac":89,"ac_name":"Hagaribommanahalli","booth":21,"booth_name":"Government Model Higher Primary School, Tambra Halli (n W )"},"geometry":{"type":"Point","coordinates":[76.14885,15.1532412]}},{"type":"Feature","properties":{"state":"Karnataka","district":12,"district_n":"BELLARY","pc":9,"pc_name":"Bellary","ac":89,"ac_name":"Hagaribommanahalli","booth":32,"booth_name":"Government Higher Primary School (west Wing) Chilgodu"},"geometry":{"type":"Point","coordinates":[76.15444,15.1275845]}},{"type":"Feature","properties":{"state":"Karnataka","district":12,"district_n":"BELLARY","pc":9,"pc_name":"Bellary","ac":89,"ac_name":"Hagaribommanahalli","booth":44,"booth_name":"\"government Model Boys Higher Primary School, Mariyammanahalli (room No No 1)\""},"geometry":{"type":"Point","coordinates":[76.3540344,15.1614332]}},{"type":"Feature","properties":{"state":"Karnataka","district":12,"district_n":"BELLARY","pc":9,"pc_name":"Bellary","ac":89,"ac_name":"Hagaribommanahalli","booth":13,"booth_name":"Government Higher Primary School School Varadapura"},"geometry":{"type":"Point","coordinates":[76.29651,15.1409569]}}]}