{"type":"FeatureCollection","features":[{"type":"Feature","properties":{"state":"Karnataka","district":12,"district_n":"BELLARY","pc":9,"pc_name":"Bellary","ac":90,"ac_name":"Vijayanagara","booth":55,"booth_name":"Ul Arribic School, Room 2, Amravathi Road"},"geometry":{"type":"Point","coordinates":[76.38419,15.2696447]}},{"type":"Feature","properties":{"state":"Karnataka","district":12,"district_n":"BELLARY","pc":9,"pc_name":"Bellary","ac":90,"ac_name":"Vijayanagara","booth":127,"booth_name":"Government Higher Primary School, New Building, Room 2, Ambedkar Nagar, Kamalapura"},"geometry":{"type":"Point","coordinates":[76.47754,15.3062925]}},{"type":"Feature","properties":{"state":"Karnataka","district":12,"district_n":"BELLARY","pc":9,"pc_name":"Bellary","ac":90,"ac_name":"Vijayanagara","booth":105,"booth_name":"Valmki High School, Room 1, 1, Near Taluk Panchayat, Hospet"},"geometry":{"type":"Point","coordinates":[76.3871155,15.2627344]}},{"type":"Feature","properties":{"state":"Karnataka","district":12,"district_n":"BELLARY","pc":9,"pc_name":"Bellary","ac":90,"ac_name":"Vijayanagara","booth":61,"booth_name":"Katta Ashoka Maths Achademy , Room 1 , Hospet"},"geometry":{"type":"Point","coordinates":[76.3926849,15.2680187]}},{"type":"Feature","properties":{"state":"Karnataka","district":12,"district_n":"BELLARY","pc":9,"pc_name":"Bellary","ac":90,"ac_name":"Vijayanagara","booth":60,"booth_name":"Community Hall, Jigalikatti Area, Hospet"},"geometry":{"type":"Point","coordinates":[76.39229,15.2696972]}},{"type":"Feature","properties":{"state":"Karnataka","district":12,"district_n":"BELLARY","pc":9,"pc_name":"Bellary","ac":90,"ac_name":"Vijayanagara","booth":40,"booth_name":"Government Higher Primary School,labour Colony, (east Wing) T B Dam"},"geometry":{"type":"Point","coordinates":[76.35381,15.2600927]}},{"type":"Feature","properties":{"state":"Karnataka","district":12,"district_n":"BELLARY","pc":9,"pc_name":"Bellary","ac":90,"ac_name":"Vijayanagara","booth":46,"booth_name":"Government Modle Higher Primary School Behind Socity Socity (south Wing) Amaravathi"},"geometry":{"type":"Point","coordinates":[76.374,15.2709761]}},{"type":"Feature","properties":{"state":"Karnataka","district":12,"district_n":"BELLARY","pc":9,"pc_name":"Bellary","ac":90,"ac_name":"Vijayanagara","booth":120,"booth_name":"Grama Panchayath Office, Nagenahalli"},"geometry":{"type":"Point","coordinates":[76.40358,15.29884]}},{"type":"Feature","properties":{"state":"Karnataka","district":12,"district_n":"BELLARY","pc":9,"pc_name":"Bellary","ac":90,"ac_name":"Vijayanagara","booth":37,"booth_name":"Vishweshwaraiah, Government Higher Primary Urdu School, North wing, Room 3 Chittawadigi"},"geometry":{"type":"Point","coordinates":[76.3744049,15.2802725]}},{"type":"Feature","properties":{"state":"Karnataka","district":12,"district_n":"BELLARY","pc":9,"pc_name":"Bellary","ac":90,"ac_name":"Vijayanagara","booth":115,"booth_name":"Government Lower Primary School, New Building,ippatheri Magani (right Wing)"},"geometry":{"type":"Point","coordinates":[76.36594,15.3131094]}},{"type":"Feature","properties":{"state":"Karnataka","district":12,"district_n":"BELLARY","pc":9,"pc_name":"Bellary","ac":90,"ac_name":"Vijayanagara","booth":80,"booth_name":"Government Higher Urdu Primary School, Sardar Moula Mandal Batti Oni, Hospet"},"geometry":{"type":"Point","coordinates":[76.38503,15.2666016]}},{"type":"Feature","properties":{"state":"Karnataka","district":12,"district_n":"BELLARY","pc":9,"pc_name":"Bellary","ac":90,"ac_name":"Vijayanagara","booth":112,"booth_name":"Bapuji Government Higher Primary School, Room 2, Harijanakeri, Hospet"},"geometry":{"type":"Point","coordinates":[76.39005,15.2638731]}},{"type":"Feature","properties":{"state":"Karnataka","district":12,"district_n":"BELLARY","pc":9,"pc_name":"Bellary","ac":90,"ac_name":"Vijayanagara","booth":150,"booth_name":"Government Higher Primary School, Seetharama Seetharama Thanda"},"geometry":{"type":"Point","coordinates":[76.50879,15.3065157]}},{"type":"Feature","properties":{"state":"Karnataka","district":12,"district_n":"BELLARY","pc":9,"pc_name":"Bellary","ac":90,"ac_name":"Vijayanagara","booth":161,"booth_name":"Government Lower Lower Primary School, Shankaranagar"},"geometry":{"type":"Point","coordinates":[76.44442,15.2411709]}},{"type":"Feature","properties":{"state":"Karnataka","district":12,"district_n":"BELLARY","pc":9,"pc_name":"Bellary","ac":90,"ac_name":"Vijayanagara","booth":141,"booth_name":"Government Higher Primary School, (left Wing) Hampi"},"geometry":{"type":"Point","coordinates":[76.46181,15.334322]}},{"type":"Feature","properties":{"state":"Karnataka","district":12,"district_n":"BELLARY","pc":9,"pc_name":"Bellary","ac":90,"ac_name":"Vijayanagara","booth":123,"booth_name":"Grama Panchayath Office, Kallahalli"},"geometry":{"type":"Point","coordinates":[76.4064941,15.2204876]}},{"type":"Feature","properties":{"state":"Karnataka","district":12,"district_n":"BELLARY","pc":9,"pc_name":"Bellary","ac":90,"ac_name":"Vijayanagara","booth":63,"booth_name":"Katta Krishnavenamma Higher Primary School, Room 1, 1, Hospet"},"geometry":{"type":"Point","coordinates":[76.3940048,15.2685232]}},{"type":"Feature","properties":{"state":"Karnataka","district":12,"district_n":"BELLARY","pc":9,"pc_name":"Bellary","ac":90,"ac_name":"Vijayanagara","booth":66,"booth_name":"Nethaji Higher Primary School, Aravindanagar, Hospet"},"geometry":{"type":"Point","coordinates":[76.4008942,15.2682762]}},{"type":"Feature","properties":{"state":"Karnataka","district":12,"district_n":"BELLARY","pc":9,"pc_name":"Bellary","ac":90,"ac_name":"Vijayanagara","booth":9,"booth_name":"Vivekananda Govt Higher Primary School (south Wing) Hospet"},"geometry":{"type":"Point","coordinates":[76.38861,15.275589]}},{"type":"Feature","properties":{"state":"Karnataka","district":12,"district_n":"BELLARY","pc":9,"pc_name":"Bellary","ac":90,"ac_name":"Vijayanagara","booth":23,"booth_name":"Government High School, East wing, New Building Anantha Sayana Gudi"},"geometry":{"type":"Point","coordinates":[76.4076157,15.2693481]}},{"type":"Feature","properties":{"state":"Karnataka","district":12,"district_n":"BELLARY","pc":9,"pc_name":"Bellary","ac":90,"ac_name":"Vijayanagara","booth":17,"booth_name":"Government Pre University College for Girls (west Wing ) ) Hospet"},"geometry":{"type":"Point","coordinates":[76.3902359,15.2742319]}},{"type":"Feature","properties":{"state":"Karnataka","district":12,"district_n":"BELLARY","pc":9,"pc_name":"Bellary","ac":90,"ac_name":"Vijayanagara","booth":29,"booth_name":"Sharada Higher Primary School, Room 1, Hospet"},"geometry":{"type":"Point","coordinates":[76.3954849,15.2715015]}},{"type":"Feature","properties":{"state":"Karnataka","district":12,"district_n":"BELLARY","pc":9,"pc_name":"Bellary","ac":90,"ac_name":"Vijayanagara","booth":57,"booth_name":"Sub Registar Office , Hospet"},"geometry":{"type":"Point","coordinates":[76.38877,15.2710819]}},{"type":"Feature","properties":{"state":"Karnataka","district":12,"district_n":"BELLARY","pc":9,"pc_name":"Bellary","ac":90,"ac_name":"Vijayanagara","booth":69,"booth_name":"Tmaes Politechnic College, Bellary Road, Hospet"},"geometry":{"type":"Point","coordinates":[76.40107,15.2635736]}},{"type":"Feature","properties":{"state":"Karnataka","district":12,"district_n":"BELLARY","pc":9,"pc_name":"Bellary","ac":90,"ac_name":"Vijayanagara","booth":72,"booth_name":"Sri Kottureswara D Ed College, Room 1 , J N Halli Road, Hospet"},"geometry":{"type":"Point","coordinates":[76.3974838,15.2615089]}},{"type":"Feature","properties":{"state":"Karnataka","district":12,"district_n":"BELLARY","pc":9,"pc_name":"Bellary","ac":90,"ac_name":"Vijayanagara","booth":83,"booth_name":"Angavadi Kendra 2, Chapparadahalli, Hospet"},"geometry":{"type":"Point","coordinates":[76.38387,15.2683468]}},{"type":"Feature","properties":{"state":"Karnataka","district":12,"district_n":"BELLARY","pc":9,"pc_name":"Bellary","ac":90,"ac_name":"Vijayanagara","booth":86,"booth_name":"Mother Theresa English Medium School, School, Room No 2 , Hospet"},"geometry":{"type":"Point","coordinates":[76.3779755,15.2674208]}},{"type":"Feature","properties":{"state":"Karnataka","district":12,"district_n":"BELLARY","pc":9,"pc_name":"Bellary","ac":90,"ac_name":"Vijayanagara","booth":106,"booth_name":"Valmki High School, Room 2, 2, Near Taluk Panchayat, Hospet"},"geometry":{"type":"Point","coordinates":[76.387146,15.2627373]}},{"type":"Feature","properties":{"state":"Karnataka","district":12,"district_n":"BELLARY","pc":9,"pc_name":"Bellary","ac":90,"ac_name":"Vijayanagara","booth":89,"booth_name":"A P M C Office, (office Room) Hospet"},"geometry":{"type":"Point","coordinates":[76.3782043,15.2612972]}},{"type":"Feature","properties":{"state":"Karnataka","district":12,"district_n":"BELLARY","pc":9,"pc_name":"Bellary","ac":90,"ac_name":"Vijayanagara","booth":103,"booth_name":"Valmiki Government Lower Primary, School, West wing, Talawarakere, Talawarakere, Hospet"},"geometry":{"type":"Point","coordinates":[76.38672,15.2658548]}},{"type":"Feature","properties":{"state":"Karnataka","district":12,"district_n":"BELLARY","pc":9,"pc_name":"Bellary","ac":90,"ac_name":"Vijayanagara","booth":109,"booth_name":"Government Model Higher Primary Old K R Naidu School, (south Wing) Devanagpet Hospet"},"geometry":{"type":"Point","coordinates":[76.39053,15.2654352]}},{"type":"Feature","properties":{"state":"Karnataka","district":12,"district_n":"BELLARY","pc":9,"pc_name":"Bellary","ac":90,"ac_name":"Vijayanagara","booth":101,"booth_name":"Sharada Sishu Vihara, Near Bellary Durugamma Temple, Hospet"},"geometry":{"type":"Point","coordinates":[76.3875,15.26752]}},{"type":"Feature","properties":{"state":"Karnataka","district":12,"district_n":"BELLARY","pc":9,"pc_name":"Bellary","ac":90,"ac_name":"Vijayanagara","booth":100,"booth_name":"Government Higher Primary Old Tyagur School, Bellary Durgamma Temple, Hospet"},"geometry":{"type":"Point","coordinates":[76.38791,15.2673149]}},{"type":"Feature","properties":{"state":"Karnataka","district":12,"district_n":"BELLARY","pc":9,"pc_name":"Bellary","ac":90,"ac_name":"Vijayanagara","booth":129,"booth_name":"Government Higher Primary School, H P C C Kamalapur"},"geometry":{"type":"Point","coordinates":[76.49344,15.3102684]}},{"type":"Feature","properties":{"state":"Karnataka","district":12,"district_n":"BELLARY","pc":9,"pc_name":"Bellary","ac":90,"ac_name":"Vijayanagara","booth":132,"booth_name":"Town Panchayath Office, Kamalapur"},"geometry":{"type":"Point","coordinates":[76.47516,15.3043823]}},{"type":"Feature","properties":{"state":"Karnataka","district":12,"district_n":"BELLARY","pc":9,"pc_name":"Bellary","ac":90,"ac_name":"Vijayanagara","booth":143,"booth_name":"Angavadi Kendra, Kaddirampura Thanda"},"geometry":{"type":"Point","coordinates":[76.45049,15.31242]}},{"type":"Feature","properties":{"state":"Karnataka","district":12,"district_n":"BELLARY","pc":9,"pc_name":"Bellary","ac":90,"ac_name":"Vijayanagara","booth":152,"booth_name":"Government Lower Primary School, Hosa Chinnapura"},"geometry":{"type":"Point","coordinates":[76.54128,15.28324]}},{"type":"Feature","properties":{"state":"Karnataka","district":12,"district_n":"BELLARY","pc":9,"pc_name":"Bellary","ac":90,"ac_name":"Vijayanagara","booth":163,"booth_name":"Gramapanchayath Office, Left Wing, Papinayakanahalli"},"geometry":{"type":"Point","coordinates":[76.48678,15.2399006]}},{"type":"Feature","properties":{"state":"Karnataka","district":12,"district_n":"BELLARY","pc":9,"pc_name":"Bellary","ac":90,"ac_name":"Vijayanagara","booth":166,"booth_name":"Government Government Higher Primary School, Gundlavaddigere"},"geometry":{"type":"Point","coordinates":[76.52056,15.2293224]}},{"type":"Feature","properties":{"state":"Karnataka","district":12,"district_n":"BELLARY","pc":9,"pc_name":"Bellary","ac":90,"ac_name":"Vijayanagara","booth":146,"booth_name":"Government Lower Lower Primary School, School, 76venkatapura Camp"},"geometry":{"type":"Point","coordinates":[76.50852,15.3255148]}},{"type":"Feature","properties":{"state":"Karnataka","district":12,"district_n":"BELLARY","pc":9,"pc_name":"Bellary","ac":90,"ac_name":"Vijayanagara","booth":126,"booth_name":"Government Urdu Higher Primary School, Kamalapura"},"geometry":{"type":"Point","coordinates":[76.47821,15.3066978]}},{"type":"Feature","properties":{"state":"Karnataka","district":12,"district_n":"BELLARY","pc":9,"pc_name":"Bellary","ac":90,"ac_name":"Vijayanagara","booth":74,"booth_name":"Government Higher Primary School, Valmiki Nagar, Room 1 Kariganoor"},"geometry":{"type":"Point","coordinates":[76.42817,15.2542009]}},{"type":"Feature","properties":{"state":"Karnataka","district":12,"district_n":"BELLARY","pc":9,"pc_name":"Bellary","ac":90,"ac_name":"Vijayanagara","booth":76,"booth_name":"Dr Ambedkar Government Higher Primary School, Room 2, Jambunatha Road, Hospet"},"geometry":{"type":"Point","coordinates":[76.3944244,15.2656364]}},{"type":"Feature","properties":{"state":"Karnataka","district":12,"district_n":"BELLARY","pc":9,"pc_name":"Bellary","ac":90,"ac_name":"Vijayanagara","booth":77,"booth_name":"Thilak Government Higher Primary (urdu) School, Kanchugarapet, Hospet"},"geometry":{"type":"Point","coordinates":[76.3926849,15.2664757]}},{"type":"Feature","properties":{"state":"Karnataka","district":12,"district_n":"BELLARY","pc":9,"pc_name":"Bellary","ac":90,"ac_name":"Vijayanagara","booth":164,"booth_name":"Government Government Higher Primary School, Room 1, Papinayakanahalli"},"geometry":{"type":"Point","coordinates":[76.4889755,15.2379608]}},{"type":"Feature","properties":{"state":"Karnataka","district":12,"district_n":"BELLARY","pc":9,"pc_name":"Bellary","ac":90,"ac_name":"Vijayanagara","booth":64,"booth_name":"Geetha Government Higher Primary Primary School,new Building, Moorugori, Hospet"},"geometry":{"type":"Point","coordinates":[76.393425,15.27051]}},{"type":"Feature","properties":{"state":"Karnataka","district":12,"district_n":"BELLARY","pc":9,"pc_name":"Bellary","ac":90,"ac_name":"Vijayanagara","booth":75,"booth_name":"Dr Ambedkar Government Higher Primary School, Room 1 Jambunatha Road, Hospet"},"geometry":{"type":"Point","coordinates":[76.394455,15.2656012]}},{"type":"Feature","properties":{"state":"Karnataka","district":12,"district_n":"BELLARY","pc":9,"pc_name":"Bellary","ac":90,"ac_name":"Vijayanagara","booth":158,"booth_name":"Government Government Higher Primary School, New Building, Hosa Malapanagudi"},"geometry":{"type":"Point","coordinates":[76.4379044,15.2893953]}},{"type":"Feature","properties":{"state":"Karnataka","district":12,"district_n":"BELLARY","pc":9,"pc_name":"Bellary","ac":90,"ac_name":"Vijayanagara","booth":155,"booth_name":"Government Government Higher Primary School, Left Wing, Malapanagudi"},"geometry":{"type":"Point","coordinates":[76.42718,15.2842751]}},{"type":"Feature","properties":{"state":"Karnataka","district":12,"district_n":"BELLARY","pc":9,"pc_name":"Bellary","ac":90,"ac_name":"Vijayanagara","booth":96,"booth_name":"Office of the Rto , Harihar Road, Hospet"},"geometry":{"type":"Point","coordinates":[76.37652,15.2585831]}},{"type":"Feature","properties":{"state":"Karnataka","district":12,"district_n":"BELLARY","pc":9,"pc_name":"Bellary","ac":90,"ac_name":"Vijayanagara","booth":97,"booth_name":"Jecess English Medium High School, Nehru colony, Hospet"},"geometry":{"type":"Point","coordinates":[76.38469,15.2630262]}},{"type":"Feature","properties":{"state":"Karnataka","district":12,"district_n":"BELLARY","pc":9,"pc_name":"Bellary","ac":90,"ac_name":"Vijayanagara","booth":168,"booth_name":"Government Model Higher Primary School (middle Room), Byluvaddigere"},"geometry":{"type":"Point","coordinates":[76.52537,15.24356]}},{"type":"Feature","properties":{"state":"Karnataka","district":12,"district_n":"BELLARY","pc":9,"pc_name":"Bellary","ac":90,"ac_name":"Vijayanagara","booth":43,"booth_name":"Government Higher Primary School, Nishani Camp, T B Dam (near Kendriya Vidyalaya)"},"geometry":{"type":"Point","coordinates":[76.35303,15.2664919]}},{"type":"Feature","properties":{"state":"Karnataka","district":12,"district_n":"BELLARY","pc":9,"pc_name":"Bellary","ac":90,"ac_name":"Vijayanagara","booth":13,"booth_name":"New Vivekananda Govt Higher Primary School, Room 2 , Ranipete Hospet"},"geometry":{"type":"Point","coordinates":[76.39113,15.2766838]}},{"type":"Feature","properties":{"state":"Karnataka","district":12,"district_n":"BELLARY","pc":9,"pc_name":"Bellary","ac":90,"ac_name":"Vijayanagara","booth":14,"booth_name":"Rotary Club , Main Hall, Station Road , Hospet"},"geometry":{"type":"Point","coordinates":[76.38873,15.2785473]}},{"type":"Feature","properties":{"state":"Karnataka","district":12,"district_n":"BELLARY","pc":9,"pc_name":"Bellary","ac":90,"ac_name":"Vijayanagara","booth":19,"booth_name":"Theosophical,1st Grade, Women's College (east Wing) Hospet"},"geometry":{"type":"Point","coordinates":[76.39298,15.275732]}},{"type":"Feature","properties":{"state":"Karnataka","district":12,"district_n":"BELLARY","pc":9,"pc_name":"Bellary","ac":90,"ac_name":"Vijayanagara","booth":12,"booth_name":"Huda Office, Staff Room, Isr Road, Hospet"},"geometry":{"type":"Point","coordinates":[76.38154,15.2774448]}},{"type":"Feature","properties":{"state":"Karnataka","district":12,"district_n":"BELLARY","pc":9,"pc_name":"Bellary","ac":90,"ac_name":"Vijayanagara","booth":18,"booth_name":"Theosophical,1st Grade, Women's College (west Wing) Hospet"},"geometry":{"type":"Point","coordinates":[76.3930359,15.2757854]}},{"type":"Feature","properties":{"state":"Karnataka","district":12,"district_n":"BELLARY","pc":9,"pc_name":"Bellary","ac":90,"ac_name":"Vijayanagara","booth":21,"booth_name":"Government Higher Primary School, Room No 3, Chapparadadalli, Anantha Sayana Gudi"},"geometry":{"type":"Point","coordinates":[76.40929,15.276783]}},{"type":"Feature","properties":{"state":"Karnataka","district":12,"district_n":"BELLARY","pc":9,"pc_name":"Bellary","ac":90,"ac_name":"Vijayanagara","booth":20,"booth_name":"Government Higher Primary School, Room No 1, Chapparadadalli, Anantha Sayana Gudi"},"geometry":{"type":"Point","coordinates":[76.40916,15.2767906]}},{"type":"Feature","properties":{"state":"Karnataka","district":12,"district_n":"BELLARY","pc":9,"pc_name":"Bellary","ac":90,"ac_name":"Vijayanagara","booth":2,"booth_name":"Government Model Higher Primary Vinobhabhave School, New Building (east Wing) Chitwadigi"},"geometry":{"type":"Point","coordinates":[76.3753,15.28104]}},{"type":"Feature","properties":{"state":"Karnataka","district":12,"district_n":"BELLARY","pc":9,"pc_name":"Bellary","ac":90,"ac_name":"Vijayanagara","booth":25,"booth_name":"Vss Bank Ltd Anathasayana Gudi"},"geometry":{"type":"Point","coordinates":[76.40577,15.2777643]}},{"type":"Feature","properties":{"state":"Karnataka","district":12,"district_n":"BELLARY","pc":9,"pc_name":"Bellary","ac":90,"ac_name":"Vijayanagara","booth":91,"booth_name":"Government Higher Primary School, (east Wing), Vidyuth Nagar,t B Dam"},"geometry":{"type":"Point","coordinates":[76.35833,15.26668]}},{"type":"Feature","properties":{"state":"Karnataka","district":12,"district_n":"BELLARY","pc":9,"pc_name":"Bellary","ac":90,"ac_name":"Vijayanagara","booth":93,"booth_name":"Office of the Assistant Execetive Engineer, Room 1, 1, (hes Office) T B Dam"},"geometry":{"type":"Point","coordinates":[76.34918,15.2655849]}},{"type":"Feature","properties":{"state":"Karnataka","district":12,"district_n":"BELLARY","pc":9,"pc_name":"Bellary","ac":90,"ac_name":"Vijayanagara","booth":24,"booth_name":"Markandeswara D D Ed Ed College, Ananthasayanagudi"},"geometry":{"type":"Point","coordinates":[76.40751,15.2702494]}},{"type":"Feature","properties":{"state":"Karnataka","district":12,"district_n":"BELLARY","pc":9,"pc_name":"Bellary","ac":90,"ac_name":"Vijayanagara","booth":26,"booth_name":"Government Higher Primary School, (east Wing) Kondanayakanahalli"},"geometry":{"type":"Point","coordinates":[76.420845,15.2818727]}},{"type":"Feature","properties":{"state":"Karnataka","district":12,"district_n":"BELLARY","pc":9,"pc_name":"Bellary","ac":90,"ac_name":"Vijayanagara","booth":37,"booth_name":"Vishweshwaraiah, Government Higher Primary Urdu School, North wing, Room 2, Chittawadigi"},"geometry":{"type":"Point","coordinates":[76.3744049,15.2802725]}},{"type":"Feature","properties":{"state":"Karnataka","district":12,"district_n":"BELLARY","pc":9,"pc_name":"Bellary","ac":90,"ac_name":"Vijayanagara","booth":92,"booth_name":"Government Higher Primary School,(west Wing) Vidyuth Nagar,t B Dam"},"geometry":{"type":"Point","coordinates":[76.35831,15.2666454]}},{"type":"Feature","properties":{"state":"Karnataka","district":12,"district_n":"BELLARY","pc":9,"pc_name":"Bellary","ac":90,"ac_name":"Vijayanagara","booth":3,"booth_name":"Thungabhadra Nursing School, Chittawadagi"},"geometry":{"type":"Point","coordinates":[76.37174,15.2828732]}},{"type":"Feature","properties":{"state":"Karnataka","district":12,"district_n":"BELLARY","pc":9,"pc_name":"Bellary","ac":90,"ac_name":"Vijayanagara","booth":6,"booth_name":"Sreeramulu Government Higher Primary Telugu and Tamilu School,(east Wing) Patel Nagar, Hospet"},"geometry":{"type":"Point","coordinates":[76.3859558,15.2777338]}},{"type":"Feature","properties":{"state":"Karnataka","district":12,"district_n":"BELLARY","pc":9,"pc_name":"Bellary","ac":90,"ac_name":"Vijayanagara","booth":113,"booth_name":"Lal Bahaddur Sastri Government Lower Primary School, Room 2, Hospet"},"geometry":{"type":"Point","coordinates":[76.38899,15.2632122]}},{"type":"Feature","properties":{"state":"Karnataka","district":12,"district_n":"BELLARY","pc":9,"pc_name":"Bellary","ac":90,"ac_name":"Vijayanagara","booth":114,"booth_name":"Government Higher Primary School, Hosur"},"geometry":{"type":"Point","coordinates":[76.35263,15.2194214]}},{"type":"Feature","properties":{"state":"Karnataka","district":12,"district_n":"BELLARY","pc":9,"pc_name":"Bellary","ac":90,"ac_name":"Vijayanagara","booth":133,"booth_name":"Government Higher Primary Jutur Chandrappa School, School, Kamalapur"},"geometry":{"type":"Point","coordinates":[76.47406,15.3052511]}},{"type":"Feature","properties":{"state":"Karnataka","district":12,"district_n":"BELLARY","pc":9,"pc_name":"Bellary","ac":90,"ac_name":"Vijayanagara","booth":134,"booth_name":"Thoppala Channappa Government Higher Primary School, Room 1 , Kamalapura"},"geometry":{"type":"Point","coordinates":[76.47406,15.3023958]}},{"type":"Feature","properties":{"state":"Karnataka","district":12,"district_n":"BELLARY","pc":9,"pc_name":"Bellary","ac":90,"ac_name":"Vijayanagara","booth":82,"booth_name":"Korgal Gopalasetty, Government Higher Primary Primary School, Room 1, Hospet"},"geometry":{"type":"Point","coordinates":[76.3811,15.2687988]}},{"type":"Feature","properties":{"state":"Karnataka","district":12,"district_n":"BELLARY","pc":9,"pc_name":"Bellary","ac":90,"ac_name":"Vijayanagara","booth":124,"booth_name":"Government Higher Primary School, Room 2, Hpc, Kamalapur"},"geometry":{"type":"Point","coordinates":[76.49325,15.31037]}},{"type":"Feature","properties":{"state":"Karnataka","district":12,"district_n":"BELLARY","pc":9,"pc_name":"Bellary","ac":90,"ac_name":"Vijayanagara","booth":135,"booth_name":"Government Model (siddeswara) Higher Primary School, Kamalapura"},"geometry":{"type":"Point","coordinates":[76.47854,15.3019848]}},{"type":"Feature","properties":{"state":"Karnataka","district":12,"district_n":"BELLARY","pc":9,"pc_name":"Bellary","ac":90,"ac_name":"Vijayanagara","booth":81,"booth_name":"Government Higher Primary School, School, Room 1 Kabberapet, Hospet"},"geometry":{"type":"Point","coordinates":[76.3845139,15.2678375]}},{"type":"Feature","properties":{"state":"Karnataka","district":12,"district_n":"BELLARY","pc":9,"pc_name":"Bellary","ac":90,"ac_name":"Vijayanagara","booth":156,"booth_name":"Vss Bank Limited, Malapanagudi"},"geometry":{"type":"Point","coordinates":[76.4309158,15.2855625]}},{"type":"Feature","properties":{"state":"Karnataka","district":12,"district_n":"BELLARY","pc":9,"pc_name":"Bellary","ac":90,"ac_name":"Vijayanagara","booth":157,"booth_name":"Government Higher Primary School, Old Building, Hosa Malapanagudi"},"geometry":{"type":"Point","coordinates":[76.438,15.28923]}},{"type":"Feature","properties":{"state":"Karnataka","district":12,"district_n":"BELLARY","pc":9,"pc_name":"Bellary","ac":90,"ac_name":"Vijayanagara","booth":162,"booth_name":"Gramapanchayath Office, Right Wing, Papinayakanahalli"},"geometry":{"type":"Point","coordinates":[76.4867554,15.2399454]}},{"type":"Feature","properties":{"state":"Karnataka","district":12,"district_n":"BELLARY","pc":9,"pc_name":"Bellary","ac":90,"ac_name":"Vijayanagara","booth":70,"booth_name":"Sardar Patal High School (north Wing) Hospet"},"geometry":{"type":"Point","coordinates":[76.39782,15.2646284]}},{"type":"Feature","properties":{"state":"Karnataka","district":12,"district_n":"BELLARY","pc":9,"pc_name":"Bellary","ac":90,"ac_name":"Vijayanagara","booth":71,"booth_name":"Sardar Patal High School (west Wing) Side Room Hospet"},"geometry":{"type":"Point","coordinates":[76.3978043,15.2644472]}},{"type":"Feature","properties":{"state":"Karnataka","district":12,"district_n":"BELLARY","pc":9,"pc_name":"Bellary","ac":90,"ac_name":"Vijayanagara","booth":4,"booth_name":"Government Lower Primary School, 88 Mudlapura"},"geometry":{"type":"Point","coordinates":[76.38725,15.2887516]}},{"type":"Feature","properties":{"state":"Karnataka","district":12,"district_n":"BELLARY","pc":9,"pc_name":"Bellary","ac":90,"ac_name":"Vijayanagara","booth":55,"booth_name":"Ul Arribic School , Room 1, Amravathi Road"},"geometry":{"type":"Point","coordinates":[76.38419,15.2696447]}},{"type":"Feature","properties":{"state":"Karnataka","district":12,"district_n":"BELLARY","pc":9,"pc_name":"Bellary","ac":90,"ac_name":"Vijayanagara","booth":84,"booth_name":"Korgal Gopalasetty, Government Higher Primary Primary School, Room 2, Hospet"},"geometry":{"type":"Point","coordinates":[76.3810349,15.268775]}},{"type":"Feature","properties":{"state":"Karnataka","district":12,"district_n":"BELLARY","pc":9,"pc_name":"Bellary","ac":90,"ac_name":"Vijayanagara","booth":1,"booth_name":"Government Model Highervinobhabhave Primary School, New Building, North Wing, Chittawadagi"},"geometry":{"type":"Point","coordinates":[76.37532,15.2810011]}},{"type":"Feature","properties":{"state":"Karnataka","district":12,"district_n":"BELLARY","pc":9,"pc_name":"Bellary","ac":90,"ac_name":"Vijayanagara","booth":15,"booth_name":"Range Forest Office, Station Road, Hospet (social Forest)"},"geometry":{"type":"Point","coordinates":[76.38812,15.2802019]}},{"type":"Feature","properties":{"state":"Karnataka","district":12,"district_n":"BELLARY","pc":9,"pc_name":"Bellary","ac":90,"ac_name":"Vijayanagara","booth":38,"booth_name":"Anganawadi Centre, Tippu Nagar, Pinjar Oni, Chittawadagi"},"geometry":{"type":"Point","coordinates":[76.37371,15.2792234]}},{"type":"Feature","properties":{"state":"Karnataka","district":12,"district_n":"BELLARY","pc":9,"pc_name":"Bellary","ac":90,"ac_name":"Vijayanagara","booth":32,"booth_name":"Pvsbc High School, New Building, Near Basavanna Canal, Gowlera Hatti, Hospet"},"geometry":{"type":"Point","coordinates":[76.39665,15.2755]}},{"type":"Feature","properties":{"state":"Karnataka","district":12,"district_n":"BELLARY","pc":9,"pc_name":"Bellary","ac":90,"ac_name":"Vijayanagara","booth":58,"booth_name":"Government Muncipal Girls High School, Near Vegitable Market, Hospet"},"geometry":{"type":"Point","coordinates":[76.38894,15.2718086]}},{"type":"Feature","properties":{"state":"Karnataka","district":12,"district_n":"BELLARY","pc":9,"pc_name":"Bellary","ac":90,"ac_name":"Vijayanagara","booth":67,"booth_name":"Government Higher Primary School, Ashrya colony colony Behind Gurubhavan, Hospet"},"geometry":{"type":"Point","coordinates":[76.4017944,15.2654133]}},{"type":"Feature","properties":{"state":"Karnataka","district":12,"district_n":"BELLARY","pc":9,"pc_name":"Bellary","ac":90,"ac_name":"Vijayanagara","booth":44,"booth_name":"Government Higher Primary School, behind Police Station, T B Dam"},"geometry":{"type":"Point","coordinates":[76.3488846,15.2660809]}},{"type":"Feature","properties":{"state":"Karnataka","district":12,"district_n":"BELLARY","pc":9,"pc_name":"Bellary","ac":90,"ac_name":"Vijayanagara","booth":78,"booth_name":"Government Higher Primary School, (zp) Old Vegitable Market (east Wing) Hospet"},"geometry":{"type":"Point","coordinates":[76.390625,15.2667465]}},{"type":"Feature","properties":{"state":"Karnataka","district":12,"district_n":"BELLARY","pc":9,"pc_name":"Bellary","ac":90,"ac_name":"Vijayanagara","booth":95,"booth_name":"Government Model Higher Primary,punyamurthy Ragappa School,(south Wing)neharu Colony, Hospet"},"geometry":{"type":"Point","coordinates":[76.38415,15.2622]}},{"type":"Feature","properties":{"state":"Karnataka","district":12,"district_n":"BELLARY","pc":9,"pc_name":"Bellary","ac":90,"ac_name":"Vijayanagara","booth":104,"booth_name":"Taluk Panchayath Office, Sandur Road, Hospet"},"geometry":{"type":"Point","coordinates":[76.38673,15.2625017]}},{"type":"Feature","properties":{"state":"Karnataka","district":12,"district_n":"BELLARY","pc":9,"pc_name":"Bellary","ac":90,"ac_name":"Vijayanagara","booth":107,"booth_name":"Bapuji Government Higher Primary School, Room 1, Harijanakeri, Hospet"},"geometry":{"type":"Point","coordinates":[76.3842,15.26223]}},{"type":"Feature","properties":{"state":"Karnataka","district":12,"district_n":"BELLARY","pc":9,"pc_name":"Bellary","ac":90,"ac_name":"Vijayanagara","booth":87,"booth_name":"Khani English Medium Higher Primary School, Room 1, M J Nagar, Hospet"},"geometry":{"type":"Point","coordinates":[76.37632,15.2681293]}},{"type":"Feature","properties":{"state":"Karnataka","district":12,"district_n":"BELLARY","pc":9,"pc_name":"Bellary","ac":90,"ac_name":"Vijayanagara","booth":98,"booth_name":"Deepayana English Medium School (new Buildingl), Hospet"},"geometry":{"type":"Point","coordinates":[76.38455,15.2620363]}},{"type":"Feature","properties":{"state":"Karnataka","district":12,"district_n":"BELLARY","pc":9,"pc_name":"Bellary","ac":90,"ac_name":"Vijayanagara","booth":121,"booth_name":"Government Lower Primary School, Benakapura"},"geometry":{"type":"Point","coordinates":[76.4128,15.3004208]}},{"type":"Feature","properties":{"state":"Karnataka","district":12,"district_n":"BELLARY","pc":9,"pc_name":"Bellary","ac":90,"ac_name":"Vijayanagara","booth":127,"booth_name":"Government Higher Primary School, New Building, Room 1, Ambedkar Nagar, Kamalapura"},"geometry":{"type":"Point","coordinates":[76.47754,15.3062925]}},{"type":"Feature","properties":{"state":"Karnataka","district":12,"district_n":"BELLARY","pc":9,"pc_name":"Bellary","ac":90,"ac_name":"Vijayanagara","booth":144,"booth_name":"Government Higher Primary School, (west Wing) 76venkatapura"},"geometry":{"type":"Point","coordinates":[76.51471,15.33075]}},{"type":"Feature","properties":{"state":"Karnataka","district":12,"district_n":"BELLARY","pc":9,"pc_name":"Bellary","ac":90,"ac_name":"Vijayanagara","booth":167,"booth_name":"Government Model Higher Primary School , Byluvaddigeri"},"geometry":{"type":"Point","coordinates":[76.52535,15.2435541]}},{"type":"Feature","properties":{"state":"Karnataka","district":12,"district_n":"BELLARY","pc":9,"pc_name":"Bellary","ac":90,"ac_name":"Vijayanagara","booth":50,"booth_name":"Government Higher Primary School, Room 1, Cheluvadi Keri, Hospet"},"geometry":{"type":"Point","coordinates":[76.3863144,15.2720356]}},{"type":"Feature","properties":{"state":"Karnataka","district":12,"district_n":"BELLARY","pc":9,"pc_name":"Bellary","ac":90,"ac_name":"Vijayanagara","booth":139,"booth_name":"Government Lower Primary School, Kere Thanda"},"geometry":{"type":"Point","coordinates":[76.47487,15.2932577]}},{"type":"Feature","properties":{"state":"Karnataka","district":12,"district_n":"BELLARY","pc":9,"pc_name":"Bellary","ac":90,"ac_name":"Vijayanagara","booth":148,"booth_name":"Government High School, School, Bukkasagara"},"geometry":{"type":"Point","coordinates":[76.52825,15.3496675]}},{"type":"Feature","properties":{"state":"Karnataka","district":12,"district_n":"BELLARY","pc":9,"pc_name":"Bellary","ac":90,"ac_name":"Vijayanagara","booth":147,"booth_name":"Government Higher Primary School, (new Building) Bukkasagara"},"geometry":{"type":"Point","coordinates":[76.53146,15.3513765]}},{"type":"Feature","properties":{"state":"Karnataka","district":12,"district_n":"BELLARY","pc":9,"pc_name":"Bellary","ac":90,"ac_name":"Vijayanagara","booth":138,"booth_name":"Thoppala Channappa Govt Govt Higher Primary School, Room 2, Kamalapura"},"geometry":{"type":"Point","coordinates":[76.4742,15.3024349]}},{"type":"Feature","properties":{"state":"Karnataka","district":12,"district_n":"BELLARY","pc":9,"pc_name":"Bellary","ac":90,"ac_name":"Vijayanagara","booth":140,"booth_name":"Government Higher Primary School, (right Wing) Hampi"},"geometry":{"type":"Point","coordinates":[76.46192,15.33433]}},{"type":"Feature","properties":{"state":"Karnataka","district":12,"district_n":"BELLARY","pc":9,"pc_name":"Bellary","ac":90,"ac_name":"Vijayanagara","booth":149,"booth_name":"Grama Panchayath Office, Bukkasagara"},"geometry":{"type":"Point","coordinates":[76.53144,15.3511629]}},{"type":"Feature","properties":{"state":"Karnataka","district":12,"district_n":"BELLARY","pc":9,"pc_name":"Bellary","ac":90,"ac_name":"Vijayanagara","booth":49,"booth_name":"Saptagiri Higher Primary School, Basaveswara Badavane, Hospet"},"geometry":{"type":"Point","coordinates":[76.3805,15.270587]}},{"type":"Feature","properties":{"state":"Karnataka","district":12,"district_n":"BELLARY","pc":9,"pc_name":"Bellary","ac":90,"ac_name":"Vijayanagara","booth":119,"booth_name":"Government Higher Primary School, Nagenahalli"},"geometry":{"type":"Point","coordinates":[76.4036255,15.2984219]}},{"type":"Feature","properties":{"state":"Karnataka","district":12,"district_n":"BELLARY","pc":9,"pc_name":"Bellary","ac":90,"ac_name":"Vijayanagara","booth":34,"booth_name":"Government Higher Primary School, Horakeri, Horakeri, Chittawadigi"},"geometry":{"type":"Point","coordinates":[76.37763,15.2796717]}},{"type":"Feature","properties":{"state":"Karnataka","district":12,"district_n":"BELLARY","pc":9,"pc_name":"Bellary","ac":90,"ac_name":"Vijayanagara","booth":45,"booth_name":"Government Modle Higher Primary School Behind Socity Socity (north Wing) Amaravathi"},"geometry":{"type":"Point","coordinates":[76.3739853,15.270997]}},{"type":"Feature","properties":{"state":"Karnataka","district":12,"district_n":"BELLARY","pc":9,"pc_name":"Bellary","ac":90,"ac_name":"Vijayanagara","booth":53,"booth_name":"Ul Arribic School, Room 3, Hospet"},"geometry":{"type":"Point","coordinates":[76.38393,15.2692251]}},{"type":"Feature","properties":{"state":"Karnataka","district":12,"district_n":"BELLARY","pc":9,"pc_name":"Bellary","ac":90,"ac_name":"Vijayanagara","booth":54,"booth_name":"Poolbun School, Behind Noorani Mazid, Hospet"},"geometry":{"type":"Point","coordinates":[76.38451,15.2700491]}},{"type":"Feature","properties":{"state":"Karnataka","district":12,"district_n":"BELLARY","pc":9,"pc_name":"Bellary","ac":90,"ac_name":"Vijayanagara","booth":52,"booth_name":"Old Keb Office, Chaluvadikeri, Hospet"},"geometry":{"type":"Point","coordinates":[76.38596,15.2715578]}},{"type":"Feature","properties":{"state":"Karnataka","district":12,"district_n":"BELLARY","pc":9,"pc_name":"Bellary","ac":90,"ac_name":"Vijayanagara","booth":118,"booth_name":"Government Higher Primary School, Basavanadurga"},"geometry":{"type":"Point","coordinates":[76.38759,15.30615]}},{"type":"Feature","properties":{"state":"Karnataka","district":12,"district_n":"BELLARY","pc":9,"pc_name":"Bellary","ac":90,"ac_name":"Vijayanagara","booth":35,"booth_name":"Narbada Devi English Medium High School, School, Chittawadigi"},"geometry":{"type":"Point","coordinates":[76.38075,15.2782793]}},{"type":"Feature","properties":{"state":"Karnataka","district":12,"district_n":"BELLARY","pc":9,"pc_name":"Bellary","ac":90,"ac_name":"Vijayanagara","booth":41,"booth_name":"Government Higher Primary School,labour Colony, (west Wing) T B Dam"},"geometry":{"type":"Point","coordinates":[76.35387,15.2601643]}},{"type":"Feature","properties":{"state":"Karnataka","district":12,"district_n":"BELLARY","pc":9,"pc_name":"Bellary","ac":90,"ac_name":"Vijayanagara","booth":5,"booth_name":"Government Higher Primary School,thandu Modaliyar (east Wing) Near Raith Bhavan, Hospet"},"geometry":{"type":"Point","coordinates":[76.38344,15.2762184]}},{"type":"Feature","properties":{"state":"Karnataka","district":12,"district_n":"BELLARY","pc":9,"pc_name":"Bellary","ac":90,"ac_name":"Vijayanagara","booth":7,"booth_name":"Sreeramulu Government Higher Primary Telugu and Tamilu School,(west Wing) Patel Nagar, Hospet"},"geometry":{"type":"Point","coordinates":[76.38601,15.2777357]}},{"type":"Feature","properties":{"state":"Karnataka","district":12,"district_n":"BELLARY","pc":9,"pc_name":"Bellary","ac":90,"ac_name":"Vijayanagara","booth":10,"booth_name":"Mahila samaja Higher Primary School, Room 1, Near Court, Hospet"},"geometry":{"type":"Point","coordinates":[76.38763,15.2745962]}},{"type":"Feature","properties":{"state":"Karnataka","district":12,"district_n":"BELLARY","pc":9,"pc_name":"Bellary","ac":90,"ac_name":"Vijayanagara","booth":11,"booth_name":"Mahila samaja Higher Primary School, Room 2, Near Court, Hospet"},"geometry":{"type":"Point","coordinates":[76.38628,15.2745981]}},{"type":"Feature","properties":{"state":"Karnataka","district":12,"district_n":"BELLARY","pc":9,"pc_name":"Bellary","ac":90,"ac_name":"Vijayanagara","booth":16,"booth_name":"Government Pre University College for Girls (east Wing ) ) Hospet"},"geometry":{"type":"Point","coordinates":[76.39021,15.2742338]}},{"type":"Feature","properties":{"state":"Karnataka","district":12,"district_n":"BELLARY","pc":9,"pc_name":"Bellary","ac":90,"ac_name":"Vijayanagara","booth":22,"booth_name":"Government High School, South wing, New Building , Anantha Sayana Gudi"},"geometry":{"type":"Point","coordinates":[76.40748,15.2692966]}},{"type":"Feature","properties":{"state":"Karnataka","district":12,"district_n":"BELLARY","pc":9,"pc_name":"Bellary","ac":90,"ac_name":"Vijayanagara","booth":27,"booth_name":"Government Higher Primary School, (west Wing) Kondanayakanahalli"},"geometry":{"type":"Point","coordinates":[76.42086,15.2819195]}},{"type":"Feature","properties":{"state":"Karnataka","district":12,"district_n":"BELLARY","pc":9,"pc_name":"Bellary","ac":90,"ac_name":"Vijayanagara","booth":28,"booth_name":"Community Hall, 2nd cross, Siddalingappa Chowki, Hospet"},"geometry":{"type":"Point","coordinates":[76.394455,15.2721405]}},{"type":"Feature","properties":{"state":"Karnataka","district":12,"district_n":"BELLARY","pc":9,"pc_name":"Bellary","ac":90,"ac_name":"Vijayanagara","booth":33,"booth_name":"Geetha Government Higher Primary Primary School, New Building, Hospet"},"geometry":{"type":"Point","coordinates":[76.39337,15.2705517]}},{"type":"Feature","properties":{"state":"Karnataka","district":12,"district_n":"BELLARY","pc":9,"pc_name":"Bellary","ac":90,"ac_name":"Vijayanagara","booth":36,"booth_name":"Government Muncipal High School, Chittawadagi"},"geometry":{"type":"Point","coordinates":[76.37747,15.2757225]}},{"type":"Feature","properties":{"state":"Karnataka","district":12,"district_n":"BELLARY","pc":9,"pc_name":"Bellary","ac":90,"ac_name":"Vijayanagara","booth":39,"booth_name":"Gnyanadeepa Primary School, Ramali Mazid Road, Chitawadagi"},"geometry":{"type":"Point","coordinates":[76.37327,15.2802954]}},{"type":"Feature","properties":{"state":"Karnataka","district":12,"district_n":"BELLARY","pc":9,"pc_name":"Bellary","ac":90,"ac_name":"Vijayanagara","booth":42,"booth_name":"Office of the Assistant Executive Engineer Engineer Estate Sub Division, (east Wing) T B Dam"},"geometry":{"type":"Point","coordinates":[76.35231,15.2630329]}},{"type":"Feature","properties":{"state":"Karnataka","district":12,"district_n":"BELLARY","pc":9,"pc_name":"Bellary","ac":90,"ac_name":"Vijayanagara","booth":47,"booth_name":"Assistant Executive Engineer's Office, Nh 13 Sub Division, Room 2, Amaravathi"},"geometry":{"type":"Point","coordinates":[76.3761444,15.2730494]}},{"type":"Feature","properties":{"state":"Karnataka","district":12,"district_n":"BELLARY","pc":9,"pc_name":"Bellary","ac":90,"ac_name":"Vijayanagara","booth":48,"booth_name":"Government Higher Primary School, Indira Nagar Nagar Nagar Hospet"},"geometry":{"type":"Point","coordinates":[76.3844147,15.2746134]}},{"type":"Feature","properties":{"state":"Karnataka","district":12,"district_n":"BELLARY","pc":9,"pc_name":"Bellary","ac":90,"ac_name":"Vijayanagara","booth":51,"booth_name":"Government Bapuji Urdu Higher Primary School, Near Mottan Market, Hospet"},"geometry":{"type":"Point","coordinates":[76.3873138,15.2712269]}},{"type":"Feature","properties":{"state":"Karnataka","district":12,"district_n":"BELLARY","pc":9,"pc_name":"Bellary","ac":90,"ac_name":"Vijayanagara","booth":59,"booth_name":"Town Reading Room, (opp to Head Post Office) Ranga Mandira, Hospet"},"geometry":{"type":"Point","coordinates":[76.39046,15.2712364]}},{"type":"Feature","properties":{"state":"Karnataka","district":12,"district_n":"BELLARY","pc":9,"pc_name":"Bellary","ac":90,"ac_name":"Vijayanagara","booth":62,"booth_name":"Katta Ashoka Maths Achademy , Room 2 , Hospet"},"geometry":{"type":"Point","coordinates":[76.39277,15.2680674]}},{"type":"Feature","properties":{"state":"Karnataka","district":12,"district_n":"BELLARY","pc":9,"pc_name":"Bellary","ac":90,"ac_name":"Vijayanagara","booth":68,"booth_name":"Government Higher Primary School, New Building 73 Sankalapura"},"geometry":{"type":"Point","coordinates":[76.39344,15.2704811]}},{"type":"Feature","properties":{"state":"Karnataka","district":12,"district_n":"BELLARY","pc":9,"pc_name":"Bellary","ac":90,"ac_name":"Vijayanagara","booth":73,"booth_name":"Government Higher Primary School, (south Wing) Kariganur"},"geometry":{"type":"Point","coordinates":[76.4284058,15.254344]}},{"type":"Feature","properties":{"state":"Karnataka","district":12,"district_n":"BELLARY","pc":9,"pc_name":"Bellary","ac":90,"ac_name":"Vijayanagara","booth":56,"booth_name":"Office of the Aee, Pwd, Near Cmc,hospet"},"geometry":{"type":"Point","coordinates":[76.38837,15.2711706]}},{"type":"Feature","properties":{"state":"Karnataka","district":12,"district_n":"BELLARY","pc":9,"pc_name":"Bellary","ac":90,"ac_name":"Vijayanagara","booth":79,"booth_name":"Rani Channamma High School, Kotturswamy Mutt, Ward No 25, Hospet"},"geometry":{"type":"Point","coordinates":[76.39009,15.2681112]}},{"type":"Feature","properties":{"state":"Karnataka","district":12,"district_n":"BELLARY","pc":9,"pc_name":"Bellary","ac":90,"ac_name":"Vijayanagara","booth":85,"booth_name":"Mother Theresa English Medium School, School, Room No 1 , Hospet"},"geometry":{"type":"Point","coordinates":[76.37799,15.2675591]}},{"type":"Feature","properties":{"state":"Karnataka","district":12,"district_n":"BELLARY","pc":9,"pc_name":"Bellary","ac":90,"ac_name":"Vijayanagara","booth":88,"booth_name":"Khani English Medium Higher Primary School, Room 2, M J Nagar, Hospet"},"geometry":{"type":"Point","coordinates":[76.3763351,15.268157]}},{"type":"Feature","properties":{"state":"Karnataka","district":12,"district_n":"BELLARY","pc":9,"pc_name":"Bellary","ac":90,"ac_name":"Vijayanagara","booth":90,"booth_name":"Radhakrishna Higher Primary School, Behind Apmc, Hospet"},"geometry":{"type":"Point","coordinates":[76.37711,15.2642689]}},{"type":"Feature","properties":{"state":"Karnataka","district":12,"district_n":"BELLARY","pc":9,"pc_name":"Bellary","ac":90,"ac_name":"Vijayanagara","booth":94,"booth_name":"Office of the Assistant Execetive Engineer, Room 2 (hes Office) T B Dam"},"geometry":{"type":"Point","coordinates":[76.34915,15.2652836]}},{"type":"Feature","properties":{"state":"Karnataka","district":12,"district_n":"BELLARY","pc":9,"pc_name":"Bellary","ac":90,"ac_name":"Vijayanagara","booth":99,"booth_name":"Government Lower Primary School, B T R Nagar, New Building, Behind R T O O Office, Hospet"},"geometry":{"type":"Point","coordinates":[76.37786,15.2569075]}},{"type":"Feature","properties":{"state":"Karnataka","district":12,"district_n":"BELLARY","pc":9,"pc_name":"Bellary","ac":90,"ac_name":"Vijayanagara","booth":102,"booth_name":"Valmiki Government Higher Primary School, East East Wing, Talawarakere, Talawarakere, Hospet"},"geometry":{"type":"Point","coordinates":[76.3868256,15.2657442]}},{"type":"Feature","properties":{"state":"Karnataka","district":12,"district_n":"BELLARY","pc":9,"pc_name":"Bellary","ac":90,"ac_name":"Vijayanagara","booth":108,"booth_name":"Government Model Higher Primary Old K R Naidu School, (north Wing) Devanagpet Hospet"},"geometry":{"type":"Point","coordinates":[76.390564,15.2654133]}},{"type":"Feature","properties":{"state":"Karnataka","district":12,"district_n":"BELLARY","pc":9,"pc_name":"Bellary","ac":90,"ac_name":"Vijayanagara","booth":110,"booth_name":"Ukkadakeri Shishivihar, Ukkadakeri, Hospet"},"geometry":{"type":"Point","coordinates":[76.3886261,15.2642078]}},{"type":"Feature","properties":{"state":"Karnataka","district":12,"district_n":"BELLARY","pc":9,"pc_name":"Bellary","ac":90,"ac_name":"Vijayanagara","booth":111,"booth_name":"Weavers Co op colony, Shishuvihar, Hospet"},"geometry":{"type":"Point","coordinates":[76.38763,15.2607994]}},{"type":"Feature","properties":{"state":"Karnataka","district":12,"district_n":"BELLARY","pc":9,"pc_name":"Bellary","ac":90,"ac_name":"Vijayanagara","booth":116,"booth_name":"Community Hall, Yerebailumagani"},"geometry":{"type":"Point","coordinates":[76.37096,15.3019667]}},{"type":"Feature","properties":{"state":"Karnataka","district":12,"district_n":"BELLARY","pc":9,"pc_name":"Bellary","ac":90,"ac_name":"Vijayanagara","booth":117,"booth_name":"Government Lower Primary School, Narasapura"},"geometry":{"type":"Point","coordinates":[76.38654,15.3195372]}},{"type":"Feature","properties":{"state":"Karnataka","district":12,"district_n":"BELLARY","pc":9,"pc_name":"Bellary","ac":90,"ac_name":"Vijayanagara","booth":122,"booth_name":"Government Higher Primary School School , Rajapura"},"geometry":{"type":"Point","coordinates":[76.39706,15.2318792]}},{"type":"Feature","properties":{"state":"Karnataka","district":12,"district_n":"BELLARY","pc":9,"pc_name":"Bellary","ac":90,"ac_name":"Vijayanagara","booth":125,"booth_name":"Jutur Chandrappa, Govt Higher Primary,school, Kamalapura"},"geometry":{"type":"Point","coordinates":[76.47434,15.3053961]}},{"type":"Feature","properties":{"state":"Karnataka","district":12,"district_n":"BELLARY","pc":9,"pc_name":"Bellary","ac":90,"ac_name":"Vijayanagara","booth":128,"booth_name":"Government Higher Urdu Primary School, Chapparadahalli, Kamalapur"},"geometry":{"type":"Point","coordinates":[76.4782257,15.3067]}},{"type":"Feature","properties":{"state":"Karnataka","district":12,"district_n":"BELLARY","pc":9,"pc_name":"Bellary","ac":90,"ac_name":"Vijayanagara","booth":130,"booth_name":"Siddeshwara swamy Model Higher Primary School, Kamalapura"},"geometry":{"type":"Point","coordinates":[76.4781,15.3020592]}},{"type":"Feature","properties":{"state":"Karnataka","district":12,"district_n":"BELLARY","pc":9,"pc_name":"Bellary","ac":90,"ac_name":"Vijayanagara","booth":131,"booth_name":"Government Higher Primary School, Room 1,ambedkar Nagar, Kamalapur"},"geometry":{"type":"Point","coordinates":[76.4779358,15.3045406]}},{"type":"Feature","properties":{"state":"Karnataka","district":12,"district_n":"BELLARY","pc":9,"pc_name":"Bellary","ac":90,"ac_name":"Vijayanagara","booth":136,"booth_name":"Government Lower Primary , Hallikeri, Kamalapur"},"geometry":{"type":"Point","coordinates":[76.4820557,15.2959108]}},{"type":"Feature","properties":{"state":"Karnataka","district":12,"district_n":"BELLARY","pc":9,"pc_name":"Bellary","ac":90,"ac_name":"Vijayanagara","booth":137,"booth_name":"Government Lower Primary , Kuppaiah camp, Kamalapur"},"geometry":{"type":"Point","coordinates":[76.47796,15.2981119]}},{"type":"Feature","properties":{"state":"Karnataka","district":12,"district_n":"BELLARY","pc":9,"pc_name":"Bellary","ac":90,"ac_name":"Vijayanagara","booth":142,"booth_name":"Government Higher Primary School, Kaddirampura"},"geometry":{"type":"Point","coordinates":[76.45121,15.31454]}},{"type":"Feature","properties":{"state":"Karnataka","district":12,"district_n":"BELLARY","pc":9,"pc_name":"Bellary","ac":90,"ac_name":"Vijayanagara","booth":145,"booth_name":"Government Higher Primary School, (east Wing) 76venkatapura"},"geometry":{"type":"Point","coordinates":[76.51471,15.3307667]}},{"type":"Feature","properties":{"state":"Karnataka","district":12,"district_n":"BELLARY","pc":9,"pc_name":"Bellary","ac":90,"ac_name":"Vijayanagara","booth":151,"booth_name":"Government Lower Primary School, Nallapura"},"geometry":{"type":"Point","coordinates":[76.56388,15.30113]}},{"type":"Feature","properties":{"state":"Karnataka","district":12,"district_n":"BELLARY","pc":9,"pc_name":"Bellary","ac":90,"ac_name":"Vijayanagara","booth":153,"booth_name":"Government Government Higher Primary School, Right Wing, Malapanagudi"},"geometry":{"type":"Point","coordinates":[76.42746,15.2843189]}},{"type":"Feature","properties":{"state":"Karnataka","district":12,"district_n":"BELLARY","pc":9,"pc_name":"Bellary","ac":90,"ac_name":"Vijayanagara","booth":154,"booth_name":"Government Government Higher Primary School, Central Wing, Malapanagudi"},"geometry":{"type":"Point","coordinates":[76.42729,15.2844114]}},{"type":"Feature","properties":{"state":"Karnataka","district":12,"district_n":"BELLARY","pc":9,"pc_name":"Bellary","ac":90,"ac_name":"Vijayanagara","booth":159,"booth_name":"Government Government Higher Primary School, Ingaligi"},"geometry":{"type":"Point","coordinates":[76.44154,15.2592649]}},{"type":"Feature","properties":{"state":"Karnataka","district":12,"district_n":"BELLARY","pc":9,"pc_name":"Bellary","ac":90,"ac_name":"Vijayanagara","booth":160,"booth_name":"Government Government Higher Primary School, Vadrahalli"},"geometry":{"type":"Point","coordinates":[76.4691238,15.2367687]}},{"type":"Feature","properties":{"state":"Karnataka","district":12,"district_n":"BELLARY","pc":9,"pc_name":"Bellary","ac":90,"ac_name":"Vijayanagara","booth":165,"booth_name":"Government Government Higher Primary School, School, Room 2 Papinayakanahalli"},"geometry":{"type":"Point","coordinates":[76.48898,15.237957]}},{"type":"Feature","properties":{"state":"Karnataka","district":12,"district_n":"BELLARY","pc":9,"pc_name":"Bellary","ac":90,"ac_name":"Vijayanagara","booth":8,"booth_name":"Gopinath Memorial High School, Patel Nagar, Hospet"},"geometry":{"type":"Point","coordinates":[76.38479,15.2791262]}},{"type":"Feature","properties":{"state":"Karnataka","district":12,"district_n":"BELLARY","pc":9,"pc_name":"Bellary","ac":90,"ac_name":"Vijayanagara","booth":30,"booth_name":"Sharada Higher Primary School, Room 2, Hospet"},"geometry":{"type":"Point","coordinates":[76.39547,15.2715254]}},{"type":"Feature","properties":{"state":"Karnataka","district":12,"district_n":"BELLARY","pc":9,"pc_name":"Bellary","ac":90,"ac_name":"Vijayanagara","booth":31,"booth_name":"Vasavi High School, Hampi Road , Hospet"},"geometry":{"type":"Point","coordinates":[76.39423,15.2753334]}},{"type":"Feature","properties":{"state":"Karnataka","district":12,"district_n":"BELLARY","pc":9,"pc_name":"Bellary","ac":90,"ac_name":"Vijayanagara","booth":65,"booth_name":"Katta Nanjappa Higher Primary School, (west Wing), Room 2, Hospet"},"geometry":{"type":"Point","coordinates":[76.39667,15.2679186]}},{"type":"Feature","properties":{"state":"Karnataka","district":12,"district_n":"BELLARY","pc":9,"pc_name":"Bellary","ac":90,"ac_name":"Vijayanagara","booth":65,"booth_name":"Katta Nanjappa Higher Primary School, (west Wing), Room 3 Hospet"},"geometry":{"type":"Point","coordinates":[76.39667,15.2679186]}},{"type":"Feature","properties":{"state":"Karnataka","district":12,"district_n":"BELLARY","pc":9,"pc_name":"Bellary","ac":90,"ac_name":"Vijayanagara","booth":131,"booth_name":"Government Higher Primary School, Room 2, Ambedkar Nagar, Kamalapur"},"geometry":{"type":"Point","coordinates":[76.4779358,15.3045406]}}]}