{"type":"FeatureCollection","features":[{"type":"Feature","properties":{"state":"Karnataka","district":12,"district_n":"BELLARY","pc":9,"pc_name":"Bellary","ac":94,"ac_name":"Bellary City","booth":41,"booth_name":"Vasavi English Medium School, Room No 19, Infantry Road, Bellary"},"geometry":{"type":"Point","coordinates":[76.90542,15.1525383]}},{"type":"Feature","properties":{"state":"Karnataka","district":12,"district_n":"BELLARY","pc":9,"pc_name":"Bellary","ac":94,"ac_name":"Bellary City","booth":44,"booth_name":"Deputy Director Office, Women and Child Development Department, Striseva Nikethana Bellary"},"geometry":{"type":"Point","coordinates":[76.91917,15.1530523]}},{"type":"Feature","properties":{"state":"Karnataka","district":12,"district_n":"BELLARY","pc":9,"pc_name":"Bellary","ac":94,"ac_name":"Bellary City","booth":47,"booth_name":"Strisevanikethana Child Development Project Office Compound, Bellary"},"geometry":{"type":"Point","coordinates":[76.91668,15.1545649]}},{"type":"Feature","properties":{"state":"Karnataka","district":12,"district_n":"BELLARY","pc":9,"pc_name":"Bellary","ac":94,"ac_name":"Bellary City","booth":49,"booth_name":"Divisional Security Office, K S R T C C Office, Shashthri Nagar, Bellary"},"geometry":{"type":"Point","coordinates":[76.91928,15.1538029]}},{"type":"Feature","properties":{"state":"Karnataka","district":12,"district_n":"BELLARY","pc":9,"pc_name":"Bellary","ac":94,"ac_name":"Bellary City","booth":50,"booth_name":"Divisional Controller, Account Section, K S R T C , Shashthri Nagar, Bellary"},"geometry":{"type":"Point","coordinates":[76.9198151,15.1555347]}},{"type":"Feature","properties":{"state":"Karnataka","district":12,"district_n":"BELLARY","pc":9,"pc_name":"Bellary","ac":94,"ac_name":"Bellary City","booth":144,"booth_name":"Governement Model Higher Primary School, Room No 5, Near Water Tank, Millerpet, Bellary"},"geometry":{"type":"Point","coordinates":[76.93315,15.1375685]}},{"type":"Feature","properties":{"state":"Karnataka","district":12,"district_n":"BELLARY","pc":9,"pc_name":"Bellary","ac":94,"ac_name":"Bellary City","booth":147,"booth_name":"Smt S S V V Model Higher Primary School, Room No 2, Rajyothsava Nagar, bellary"},"geometry":{"type":"Point","coordinates":[76.93683,15.1345215]}},{"type":"Feature","properties":{"state":"Karnataka","district":12,"district_n":"BELLARY","pc":9,"pc_name":"Bellary","ac":94,"ac_name":"Bellary City","booth":150,"booth_name":"Government Model Higher Primary School, New Buillding Room No 7, Old Municipal Office (kambli Bazar School), School), Near Kanekal Bus Stand, Bellary"},"geometry":{"type":"Point","coordinates":[76.93094,15.1351175]}},{"type":"Feature","properties":{"state":"Karnataka","district":12,"district_n":"BELLARY","pc":9,"pc_name":"Bellary","ac":94,"ac_name":"Bellary City","booth":95,"booth_name":"Madikeri Bheemaiah High School, Room No 2, , Moka Road, Gandhi Nagar, Bellary"},"geometry":{"type":"Point","coordinates":[76.93752,15.155303]}},{"type":"Feature","properties":{"state":"Karnataka","district":12,"district_n":"BELLARY","pc":9,"pc_name":"Bellary","ac":94,"ac_name":"Bellary City","booth":96,"booth_name":"Madikeri Bheemaiah High School, Room No 3, , Moka Road, Gandhi Nagar, Bellary"},"geometry":{"type":"Point","coordinates":[76.93782,15.1555862]}},{"type":"Feature","properties":{"state":"Karnataka","district":12,"district_n":"BELLARY","pc":9,"pc_name":"Bellary","ac":94,"ac_name":"Bellary City","booth":98,"booth_name":"Madikeri Bheemaiah High School, Room No 5, , Moka Road, Gandhi Nagar, Bellary"},"geometry":{"type":"Point","coordinates":[76.93745,15.1555519]}},{"type":"Feature","properties":{"state":"Karnataka","district":12,"district_n":"BELLARY","pc":9,"pc_name":"Bellary","ac":94,"ac_name":"Bellary City","booth":99,"booth_name":"Madikeri Bheemaiah High School, Room No 6, Main Buillding Right Side, Moka Road, Gandhi Nagar, Bellary"},"geometry":{"type":"Point","coordinates":[76.93782,15.1554918]}},{"type":"Feature","properties":{"state":"Karnataka","district":12,"district_n":"BELLARY","pc":9,"pc_name":"Bellary","ac":94,"ac_name":"Bellary City","booth":101,"booth_name":"Government Model Higher Primary School, East Side Room No 2, D A R Lane, Bellary"},"geometry":{"type":"Point","coordinates":[76.9331,15.1494789]}},{"type":"Feature","properties":{"state":"Karnataka","district":12,"district_n":"BELLARY","pc":9,"pc_name":"Bellary","ac":94,"ac_name":"Bellary City","booth":104,"booth_name":"Blue Star Angels School Room No 1, Shenkar Colony Near Railway Gate Bellary"},"geometry":{"type":"Point","coordinates":[76.9409943,15.141573]}},{"type":"Feature","properties":{"state":"Karnataka","district":12,"district_n":"BELLARY","pc":9,"pc_name":"Bellary","ac":94,"ac_name":"Bellary City","booth":107,"booth_name":"Assistant Executive Engineer, K H B Office, Drawing Room, , Sathyanarayana Pet, Bellary"},"geometry":{"type":"Point","coordinates":[76.59399,15.14569]}},{"type":"Feature","properties":{"state":"Karnataka","district":12,"district_n":"BELLARY","pc":9,"pc_name":"Bellary","ac":94,"ac_name":"Bellary City","booth":110,"booth_name":"K H B B Revenue Officers Room, , Sathyanarayana Pet, Bellary"},"geometry":{"type":"Point","coordinates":[76.93984,15.1461744]}},{"type":"Feature","properties":{"state":"Karnataka","district":12,"district_n":"BELLARY","pc":9,"pc_name":"Bellary","ac":94,"ac_name":"Bellary City","booth":112,"booth_name":"Jakeer Hussain Urdu Primary School, Right Side, Vaddarabanda, Bellary"},"geometry":{"type":"Point","coordinates":[76.92929,15.1405172]}},{"type":"Feature","properties":{"state":"Karnataka","district":12,"district_n":"BELLARY","pc":9,"pc_name":"Bellary","ac":94,"ac_name":"Bellary City","booth":113,"booth_name":"Government Junior College, Old Muncipal High School, Room No 15, Ananthapur Road, Bellary"},"geometry":{"type":"Point","coordinates":[76.93147,15.14515]}},{"type":"Feature","properties":{"state":"Karnataka","district":12,"district_n":"BELLARY","pc":9,"pc_name":"Bellary","ac":94,"ac_name":"Bellary City","booth":115,"booth_name":"Assistant Commissioner Office, Hindu Dharmika Dhatti Umbali Office, , Taluk Office Compound, Bellary"},"geometry":{"type":"Point","coordinates":[76.9252853,15.1443739]}},{"type":"Feature","properties":{"state":"Karnataka","district":12,"district_n":"BELLARY","pc":9,"pc_name":"Bellary","ac":94,"ac_name":"Bellary City","booth":116,"booth_name":"Raitha Seva Co operative Society Building, Near Valmiki Circle, , Siruguppa Road, Bellary"},"geometry":{"type":"Point","coordinates":[76.92136,15.1500778]}},{"type":"Feature","properties":{"state":"Karnataka","district":12,"district_n":"BELLARY","pc":9,"pc_name":"Bellary","ac":94,"ac_name":"Bellary City","booth":118,"booth_name":"Government Junior College for Girls, Room No 41, Near P P & T Office, Amblibagh, Bellary"},"geometry":{"type":"Point","coordinates":[76.9258347,15.1425285]}},{"type":"Feature","properties":{"state":"Karnataka","district":12,"district_n":"BELLARY","pc":9,"pc_name":"Bellary","ac":94,"ac_name":"Bellary City","booth":119,"booth_name":"Government Junior College for Girls, Room No 42, Near P P & T Office, Amblibagh, Bellary"},"geometry":{"type":"Point","coordinates":[76.92584,15.1426306]}},{"type":"Feature","properties":{"state":"Karnataka","district":12,"district_n":"BELLARY","pc":9,"pc_name":"Bellary","ac":94,"ac_name":"Bellary City","booth":121,"booth_name":"Government Model Lower Primary School, Room No 1, Balaji Rao Road, Bellary"},"geometry":{"type":"Point","coordinates":[76.92904,15.1424007]}},{"type":"Feature","properties":{"state":"Karnataka","district":12,"district_n":"BELLARY","pc":9,"pc_name":"Bellary","ac":94,"ac_name":"Bellary City","booth":124,"booth_name":"Government Lower Primary School, Room No 2, Kategudda,vaddarageri Bellary"},"geometry":{"type":"Point","coordinates":[76.93057,15.1426859]}},{"type":"Feature","properties":{"state":"Karnataka","district":12,"district_n":"BELLARY","pc":9,"pc_name":"Bellary","ac":94,"ac_name":"Bellary City","booth":127,"booth_name":"Government High School, Room No 3, Srirampuram Colony, Bellary"},"geometry":{"type":"Point","coordinates":[76.93775,15.1377516]}},{"type":"Feature","properties":{"state":"Karnataka","district":12,"district_n":"BELLARY","pc":9,"pc_name":"Bellary","ac":94,"ac_name":"Bellary City","booth":130,"booth_name":"Government High School, Room No 4, Srirampuram Colony, Bellary"},"geometry":{"type":"Point","coordinates":[76.93802,15.1379042]}},{"type":"Feature","properties":{"state":"Karnataka","district":12,"district_n":"BELLARY","pc":9,"pc_name":"Bellary","ac":94,"ac_name":"Bellary City","booth":132,"booth_name":"Government High School, Room No 7, , Srirampuram Colony, Bellary"},"geometry":{"type":"Point","coordinates":[76.9380341,15.1538086]}},{"type":"Feature","properties":{"state":"Karnataka","district":12,"district_n":"BELLARY","pc":9,"pc_name":"Bellary","ac":94,"ac_name":"Bellary City","booth":133,"booth_name":"Government High School, Room No 8, Srirampuram Colony, Bellary"},"geometry":{"type":"Point","coordinates":[76.93802,15.1513805]}},{"type":"Feature","properties":{"state":"Karnataka","district":12,"district_n":"BELLARY","pc":9,"pc_name":"Bellary","ac":94,"ac_name":"Bellary City","booth":135,"booth_name":"Anganavadi Centrel, 72, Room No 1, , Near Water Tank, Millarpet, Bellary"},"geometry":{"type":"Point","coordinates":[76.9334259,15.1373539]}},{"type":"Feature","properties":{"state":"Karnataka","district":12,"district_n":"BELLARY","pc":9,"pc_name":"Bellary","ac":94,"ac_name":"Bellary City","booth":136,"booth_name":"Government Urdu Primary School, Room No 3, Miller Pet, Bellary"},"geometry":{"type":"Point","coordinates":[76.93309,15.1330585]}},{"type":"Feature","properties":{"state":"Karnataka","district":12,"district_n":"BELLARY","pc":9,"pc_name":"Bellary","ac":94,"ac_name":"Bellary City","booth":138,"booth_name":"Government Urdu Higher Primary School, Room No 2, Old Municipal Office Back Side, Tajiya Street, Bellary"},"geometry":{"type":"Point","coordinates":[76.9311447,15.13525]}},{"type":"Feature","properties":{"state":"Karnataka","district":12,"district_n":"BELLARY","pc":9,"pc_name":"Bellary","ac":94,"ac_name":"Bellary City","booth":139,"booth_name":"Government Urdu Higher Primary School, Room No 3, Old Municipal Office Back Side, Tajiya Street, Bellary"},"geometry":{"type":"Point","coordinates":[76.93117,15.1353827]}},{"type":"Feature","properties":{"state":"Karnataka","district":12,"district_n":"BELLARY","pc":9,"pc_name":"Bellary","ac":94,"ac_name":"Bellary City","booth":141,"booth_name":"Government Urdu Higher Primary School, Room No 5, Old Municipal Office Back Side, Tajiya Street, Bellary"},"geometry":{"type":"Point","coordinates":[76.93099,15.13547]}},{"type":"Feature","properties":{"state":"Karnataka","district":12,"district_n":"BELLARY","pc":9,"pc_name":"Bellary","ac":94,"ac_name":"Bellary City","booth":155,"booth_name":"Governement Urdu Higher Primary School, Room No 7a, Millerpet, Bellary"},"geometry":{"type":"Point","coordinates":[76.9330139,15.1334419]}},{"type":"Feature","properties":{"state":"Karnataka","district":12,"district_n":"BELLARY","pc":9,"pc_name":"Bellary","ac":94,"ac_name":"Bellary City","booth":156,"booth_name":"R T G High School, (child Mantapa), Room No 2, Near Jandakatte, Cumming Road, Bellary"},"geometry":{"type":"Point","coordinates":[76.92831,15.138092]}},{"type":"Feature","properties":{"state":"Karnataka","district":12,"district_n":"BELLARY","pc":9,"pc_name":"Bellary","ac":94,"ac_name":"Bellary City","booth":158,"booth_name":"Government Model Higher Primary School, (old Ranganath School) Room No 6, Cumming Road, Bellary"},"geometry":{"type":"Point","coordinates":[76.92875,15.1391115]}},{"type":"Feature","properties":{"state":"Karnataka","district":12,"district_n":"BELLARY","pc":9,"pc_name":"Bellary","ac":94,"ac_name":"Bellary City","booth":159,"booth_name":"Government Model Higher Primary School, (old Ranganath School) Room No 7, Cumming Road, Bellary"},"geometry":{"type":"Point","coordinates":[76.92884,15.1389837]}},{"type":"Feature","properties":{"state":"Karnataka","district":12,"district_n":"BELLARY","pc":9,"pc_name":"Bellary","ac":94,"ac_name":"Bellary City","booth":161,"booth_name":"Wardlaw Junior College, Main Building, Room No 7, Kalamma Street, Bellary"},"geometry":{"type":"Point","coordinates":[76.92304,15.1414871]}},{"type":"Feature","properties":{"state":"Karnataka","district":12,"district_n":"BELLARY","pc":9,"pc_name":"Bellary","ac":94,"ac_name":"Bellary City","booth":164,"booth_name":"Wardlaw Junior College, Main Building, Room No 35, Kalamma Street, Bellary"},"geometry":{"type":"Point","coordinates":[76.92211,15.1421938]}},{"type":"Feature","properties":{"state":"Karnataka","district":12,"district_n":"BELLARY","pc":9,"pc_name":"Bellary","ac":94,"ac_name":"Bellary City","booth":167,"booth_name":"R T G G High School (child Mantapa) English Medium School, Room No 3, Near Jandakatte Cumming Road, Bellary"},"geometry":{"type":"Point","coordinates":[76.9283447,15.13816]}},{"type":"Feature","properties":{"state":"Karnataka","district":12,"district_n":"BELLARY","pc":9,"pc_name":"Bellary","ac":94,"ac_name":"Bellary City","booth":170,"booth_name":"Government Urdu Model Higher Primary School, Old Ranganath School, Room No 10, Cumming Road, Bellary"},"geometry":{"type":"Point","coordinates":[76.92872,15.1387663]}},{"type":"Feature","properties":{"state":"Karnataka","district":12,"district_n":"BELLARY","pc":9,"pc_name":"Bellary","ac":94,"ac_name":"Bellary City","booth":152,"booth_name":"Government Model Higher Primary School, Room No 10, Near Water Tank, Bellary"},"geometry":{"type":"Point","coordinates":[76.93313,15.1374493]}},{"type":"Feature","properties":{"state":"Karnataka","district":12,"district_n":"BELLARY","pc":9,"pc_name":"Bellary","ac":94,"ac_name":"Bellary City","booth":153,"booth_name":"Government Urdu Higher Primary School, Room No 1, , Millerpet, Bellary"},"geometry":{"type":"Point","coordinates":[76.9328461,15.1330824]}},{"type":"Feature","properties":{"state":"Karnataka","district":12,"district_n":"BELLARY","pc":9,"pc_name":"Bellary","ac":94,"ac_name":"Bellary City","booth":75,"booth_name":"Government Higher Primary School, Room No 1, Talur Road, Parvathi Nagar, Bellary"},"geometry":{"type":"Point","coordinates":[76.92754,15.1557064]}},{"type":"Feature","properties":{"state":"Karnataka","district":12,"district_n":"BELLARY","pc":9,"pc_name":"Bellary","ac":94,"ac_name":"Bellary City","booth":76,"booth_name":"Government Higher Primary School, Room No 3, Talur Road, Parvathi Nagar, Bellary"},"geometry":{"type":"Point","coordinates":[76.9275742,15.1557827]}},{"type":"Feature","properties":{"state":"Karnataka","district":12,"district_n":"BELLARY","pc":9,"pc_name":"Bellary","ac":94,"ac_name":"Bellary City","booth":78,"booth_name":"Sri Gurushanthappa Pre Univercity College Hall, , Gandhi Nagar, Bellary"},"geometry":{"type":"Point","coordinates":[76.9301453,15.15503]}},{"type":"Feature","properties":{"state":"Karnataka","district":12,"district_n":"BELLARY","pc":9,"pc_name":"Bellary","ac":94,"ac_name":"Bellary City","booth":81,"booth_name":"Sarswathi Vidya Peeta, S G T College, Mutayala Seenppa Compound, Room No1, Left Side, Gandhi Nagar, Bellary"},"geometry":{"type":"Point","coordinates":[76.93275,15.1544476]}},{"type":"Feature","properties":{"state":"Karnataka","district":12,"district_n":"BELLARY","pc":9,"pc_name":"Bellary","ac":94,"ac_name":"Bellary City","booth":84,"booth_name":"Sri Guru Shanthappa Pre Univercity College, Right Side, Room No 3, , Gandhi Nagar, Bellary"},"geometry":{"type":"Point","coordinates":[76.92973,15.1554823]}},{"type":"Feature","properties":{"state":"Karnataka","district":12,"district_n":"BELLARY","pc":9,"pc_name":"Bellary","ac":94,"ac_name":"Bellary City","booth":87,"booth_name":"Bala Bharathi English Medium School, Room No 3, Gandhi Nagar, Bellary"},"geometry":{"type":"Point","coordinates":[76.93973,15.1548157]}},{"type":"Feature","properties":{"state":"Karnataka","district":12,"district_n":"BELLARY","pc":9,"pc_name":"Bellary","ac":94,"ac_name":"Bellary City","booth":89,"booth_name":"Bala Bharathi English Medium School, Room No 2, , Gandhi Nagar, Bellary"},"geometry":{"type":"Point","coordinates":[76.939064,15.1599951]}},{"type":"Feature","properties":{"state":"Karnataka","district":12,"district_n":"BELLARY","pc":9,"pc_name":"Bellary","ac":94,"ac_name":"Bellary City","booth":173,"booth_name":"Hiradasugamma Higher Primary School, Kaveri Room, Near Shakkarekaredappa Chowk, Bellary"},"geometry":{"type":"Point","coordinates":[76.92371,15.1371832]}},{"type":"Feature","properties":{"state":"Karnataka","district":12,"district_n":"BELLARY","pc":9,"pc_name":"Bellary","ac":94,"ac_name":"Bellary City","booth":175,"booth_name":"Government Higher Primary School, (jyothi Lal Agarwal, 4th Std Room, Lalakaman, Bellary"},"geometry":{"type":"Point","coordinates":[76.9236145,15.1369505]}},{"type":"Feature","properties":{"state":"Karnataka","district":12,"district_n":"BELLARY","pc":9,"pc_name":"Bellary","ac":94,"ac_name":"Bellary City","booth":176,"booth_name":"Government Higher Primary School, (jyothi Lal Agarwal, B Nalikali Room , Lalakaman, Bellary"},"geometry":{"type":"Point","coordinates":[76.9237061,15.1369333]}},{"type":"Feature","properties":{"state":"Karnataka","district":12,"district_n":"BELLARY","pc":9,"pc_name":"Bellary","ac":94,"ac_name":"Bellary City","booth":178,"booth_name":"Sri Basappa Shishuvihar School, Leftside Sabhapathi Street, Mariswamy Mutt, Bellary"},"geometry":{"type":"Point","coordinates":[76.92743,15.1348486]}},{"type":"Feature","properties":{"state":"Karnataka","district":12,"district_n":"BELLARY","pc":9,"pc_name":"Bellary","ac":94,"ac_name":"Bellary City","booth":179,"booth_name":"Mariswamy Kalyana Mantapa, Rightside Sabhapathi Street, Mariswamy Mutt, Bellary"},"geometry":{"type":"Point","coordinates":[76.92743,15.13464]}},{"type":"Feature","properties":{"state":"Karnataka","district":12,"district_n":"BELLARY","pc":9,"pc_name":"Bellary","ac":94,"ac_name":"Bellary City","booth":181,"booth_name":"Government Urdu Higher Primary School, , Lahore Mohalla, Bandimote, Bellary"},"geometry":{"type":"Point","coordinates":[76.9234,15.1345282]}},{"type":"Feature","properties":{"state":"Karnataka","district":12,"district_n":"BELLARY","pc":9,"pc_name":"Bellary","ac":94,"ac_name":"Bellary City","booth":182,"booth_name":"Government Model Higher Primary School, (combined) Room No 1, Sheep Slaugther House Street, Bellary"},"geometry":{"type":"Point","coordinates":[76.924675,15.1335812]}},{"type":"Feature","properties":{"state":"Karnataka","district":12,"district_n":"BELLARY","pc":9,"pc_name":"Bellary","ac":94,"ac_name":"Bellary City","booth":184,"booth_name":"Government Model Higher Primary School Room No 7, (kambli Bazar School), Old Municipal Office , Near Kanekal Bus Stand, Bellary"},"geometry":{"type":"Point","coordinates":[76.93119,15.1350222]}},{"type":"Feature","properties":{"state":"Karnataka","district":12,"district_n":"BELLARY","pc":9,"pc_name":"Bellary","ac":94,"ac_name":"Bellary City","booth":187,"booth_name":"Taluk Ambaracharaka, Room No 2, Old Municipal Office Road, Bellary"},"geometry":{"type":"Point","coordinates":[76.9314651,15.1339922]}},{"type":"Feature","properties":{"state":"Karnataka","district":12,"district_n":"BELLARY","pc":9,"pc_name":"Bellary","ac":94,"ac_name":"Bellary City","booth":190,"booth_name":"Government Urdu Higher Higher Primary School, Room No 6a, Miller Pet, Bellary"},"geometry":{"type":"Point","coordinates":[76.93304,15.133359]}},{"type":"Feature","properties":{"state":"Karnataka","district":12,"district_n":"BELLARY","pc":9,"pc_name":"Bellary","ac":94,"ac_name":"Bellary City","booth":193,"booth_name":"Government High School, Ladies Teachers Room, Bapuji Nagar, Bellary"},"geometry":{"type":"Point","coordinates":[76.92822,15.13169]}},{"type":"Feature","properties":{"state":"Karnataka","district":12,"district_n":"BELLARY","pc":9,"pc_name":"Bellary","ac":94,"ac_name":"Bellary City","booth":195,"booth_name":"Government High School, Room No 5, Kuvempu Sadana, Bapuji Nagar, Bellary"},"geometry":{"type":"Point","coordinates":[76.9278641,15.131711]}},{"type":"Feature","properties":{"state":"Karnataka","district":12,"district_n":"BELLARY","pc":9,"pc_name":"Bellary","ac":94,"ac_name":"Bellary City","booth":196,"booth_name":"Municipal Nursery School, Room No 2, Sabhapathi Street, Bellary"},"geometry":{"type":"Point","coordinates":[76.92426,15.1357117]}},{"type":"Feature","properties":{"state":"Karnataka","district":12,"district_n":"BELLARY","pc":9,"pc_name":"Bellary","ac":94,"ac_name":"Bellary City","booth":198,"booth_name":"Ujjaini Jagadguru High School, Room No 1, A P M C C Road, Bellary"},"geometry":{"type":"Point","coordinates":[76.91917,15.1322689]}},{"type":"Feature","properties":{"state":"Karnataka","district":12,"district_n":"BELLARY","pc":9,"pc_name":"Bellary","ac":94,"ac_name":"Bellary City","booth":199,"booth_name":"Ujjaini Jagadguru Primary School, Left Side, , A P M C C Road, Bellary"},"geometry":{"type":"Point","coordinates":[76.92012,15.1314116]}},{"type":"Feature","properties":{"state":"Karnataka","district":12,"district_n":"BELLARY","pc":9,"pc_name":"Bellary","ac":94,"ac_name":"Bellary City","booth":201,"booth_name":"A P M C Yard, Agriculture Office, Soil Testing Centre, Right Side, Room No 2, Bellary"},"geometry":{"type":"Point","coordinates":[76.91964,15.1307964]}},{"type":"Feature","properties":{"state":"Karnataka","district":12,"district_n":"BELLARY","pc":9,"pc_name":"Bellary","ac":94,"ac_name":"Bellary City","booth":202,"booth_name":"A P M C Yard, Agriculture Office, Soil Testing Centre, Right Side, Room No 3, Bellary"},"geometry":{"type":"Point","coordinates":[76.9196243,15.1308661]}},{"type":"Feature","properties":{"state":"Karnataka","district":12,"district_n":"BELLARY","pc":9,"pc_name":"Bellary","ac":94,"ac_name":"Bellary City","booth":204,"booth_name":"A P M C Yard Assistant Secratory Office, , A P M C C Compound, Bellary"},"geometry":{"type":"Point","coordinates":[76.91988,15.1312923]}},{"type":"Feature","properties":{"state":"Karnataka","district":12,"district_n":"BELLARY","pc":9,"pc_name":"Bellary","ac":94,"ac_name":"Bellary City","booth":207,"booth_name":"A P M C C Office, North Wing, (account Section), A P M C C Compound, Bellary"},"geometry":{"type":"Point","coordinates":[76.9195862,15.1312656]}},{"type":"Feature","properties":{"state":"Karnataka","district":12,"district_n":"BELLARY","pc":9,"pc_name":"Bellary","ac":94,"ac_name":"Bellary City","booth":210,"booth_name":"A P M C C Office, Secratory Room, South Wing, A P M C C Compound, Bellary"},"geometry":{"type":"Point","coordinates":[76.91973,15.1312389]}},{"type":"Feature","properties":{"state":"Karnataka","district":12,"district_n":"BELLARY","pc":9,"pc_name":"Bellary","ac":94,"ac_name":"Bellary City","booth":213,"booth_name":"Hiradasugamma Higher Primary School, Room No 4, Near Shakkarekaredappa Chowk, Bellary"},"geometry":{"type":"Point","coordinates":[76.9209,15.1373415]}},{"type":"Feature","properties":{"state":"Karnataka","district":12,"district_n":"BELLARY","pc":9,"pc_name":"Bellary","ac":94,"ac_name":"Bellary City","booth":215,"booth_name":"A P M C Yard, Tender Hall, Right Side, A P M C C Compound, Bellary"},"geometry":{"type":"Point","coordinates":[76.9198,15.1314487]}},{"type":"Feature","properties":{"state":"Karnataka","district":12,"district_n":"BELLARY","pc":9,"pc_name":"Bellary","ac":94,"ac_name":"Bellary City","booth":216,"booth_name":"Hiradasugamma Higher Primary School, Room No 5, , Near Shakkarekaredappa Chowk, Bellary"},"geometry":{"type":"Point","coordinates":[76.920845,15.1371479]}},{"type":"Feature","properties":{"state":"Karnataka","district":12,"district_n":"BELLARY","pc":9,"pc_name":"Bellary","ac":94,"ac_name":"Bellary City","booth":218,"booth_name":"Government Higher Primary School, Room No 2, Bisilahalli, Bellary"},"geometry":{"type":"Point","coordinates":[76.975235,15.1377716]}},{"type":"Feature","properties":{"state":"Karnataka","district":12,"district_n":"BELLARY","pc":9,"pc_name":"Bellary","ac":94,"ac_name":"Bellary City","booth":219,"booth_name":"Government Higher Primary School, Room No 3, Bisilahalli, Bellary"},"geometry":{"type":"Point","coordinates":[76.97545,15.1396856]}},{"type":"Feature","properties":{"state":"Karnataka","district":12,"district_n":"BELLARY","pc":9,"pc_name":"Bellary","ac":94,"ac_name":"Bellary City","booth":221,"booth_name":"Government Higher Primary School, Room No 1, , Andral, Bellary"},"geometry":{"type":"Point","coordinates":[76.93369,15.1235456]}},{"type":"Feature","properties":{"state":"Karnataka","district":12,"district_n":"BELLARY","pc":9,"pc_name":"Bellary","ac":94,"ac_name":"Bellary City","booth":222,"booth_name":"Government Higher Primary School, Room No 2, , Andral, Bellary"},"geometry":{"type":"Point","coordinates":[76.93356,15.1235514]}},{"type":"Feature","properties":{"state":"Karnataka","district":12,"district_n":"BELLARY","pc":9,"pc_name":"Bellary","ac":94,"ac_name":"Bellary City","booth":224,"booth_name":"Government High School, Room No 2, Andral, Bellary"},"geometry":{"type":"Point","coordinates":[76.92945,15.1246481]}},{"type":"Feature","properties":{"state":"Karnataka","district":12,"district_n":"BELLARY","pc":9,"pc_name":"Bellary","ac":94,"ac_name":"Bellary City","booth":227,"booth_name":"Government Higher Primary School, Room No 2, , Mundrigi, Bellary"},"geometry":{"type":"Point","coordinates":[76.91377,15.1034107]}},{"type":"Feature","properties":{"state":"Karnataka","district":12,"district_n":"BELLARY","pc":9,"pc_name":"Bellary","ac":94,"ac_name":"Bellary City","booth":1,"booth_name":"Government Lower Primary School, Shanthinagar, Bellary"},"geometry":{"type":"Point","coordinates":[76.8879,15.1636753]}},{"type":"Feature","properties":{"state":"Karnataka","district":12,"district_n":"BELLARY","pc":9,"pc_name":"Bellary","ac":94,"ac_name":"Bellary City","booth":4,"booth_name":"Government Higher Primary School Room No 5, New Building, Havambhavi, Bellary"},"geometry":{"type":"Point","coordinates":[76.91259,15.1692686]}},{"type":"Feature","properties":{"state":"Karnataka","district":12,"district_n":"BELLARY","pc":9,"pc_name":"Bellary","ac":94,"ac_name":"Bellary City","booth":6,"booth_name":"Government Higher Primary School Room No 6, New Building, Havambhavi, Bellary"},"geometry":{"type":"Point","coordinates":[76.9127655,15.1693382]}},{"type":"Feature","properties":{"state":"Karnataka","district":12,"district_n":"BELLARY","pc":9,"pc_name":"Bellary","ac":94,"ac_name":"Bellary City","booth":7,"booth_name":"Government High School, Room No 7, Indiranagar, Bellary"},"geometry":{"type":"Point","coordinates":[76.90835,15.1546125]}},{"type":"Feature","properties":{"state":"Karnataka","district":12,"district_n":"BELLARY","pc":9,"pc_name":"Bellary","ac":94,"ac_name":"Bellary City","booth":9,"booth_name":"Dr B R Ambedkar Government Composite High School, Room No 3, Indiranagar, Bellary"},"geometry":{"type":"Point","coordinates":[76.9086761,15.1557293]}},{"type":"Feature","properties":{"state":"Karnataka","district":12,"district_n":"BELLARY","pc":9,"pc_name":"Bellary","ac":94,"ac_name":"Bellary City","booth":10,"booth_name":"Dr B R Ambedkar Government Composite High School, Room No 2, Indiranagar, Bellary"},"geometry":{"type":"Point","coordinates":[76.90854,15.1557827]}},{"type":"Feature","properties":{"state":"Karnataka","district":12,"district_n":"BELLARY","pc":9,"pc_name":"Bellary","ac":94,"ac_name":"Bellary City","booth":12,"booth_name":"Government Composite High School, Room No 1, Indiranagar, Bellary"},"geometry":{"type":"Point","coordinates":[76.9085159,15.1547441]}},{"type":"Feature","properties":{"state":"Karnataka","district":12,"district_n":"BELLARY","pc":9,"pc_name":"Bellary","ac":94,"ac_name":"Bellary City","booth":13,"booth_name":"Government Coposite High School, Room No 2, , Indiranagar, Bellary"},"geometry":{"type":"Point","coordinates":[76.90905,15.1545448]}},{"type":"Feature","properties":{"state":"Karnataka","district":12,"district_n":"BELLARY","pc":9,"pc_name":"Bellary","ac":94,"ac_name":"Bellary City","booth":15,"booth_name":"Government Composite High School, Room No 4, , Indiranagar, Bellary"},"geometry":{"type":"Point","coordinates":[76.90926,15.1548424]}},{"type":"Feature","properties":{"state":"Karnataka","district":12,"district_n":"BELLARY","pc":9,"pc_name":"Bellary","ac":94,"ac_name":"Bellary City","booth":16,"booth_name":"Government Higher Primary School, Right Side, Room No 1, , Patel Nagar, Bellary"},"geometry":{"type":"Point","coordinates":[76.941925,15.144022]}},{"type":"Feature","properties":{"state":"Karnataka","district":12,"district_n":"BELLARY","pc":9,"pc_name":"Bellary","ac":94,"ac_name":"Bellary City","booth":18,"booth_name":"Government Higher Primary School, Right Side, Room No 2, , Patel Nagar, Bellary"},"geometry":{"type":"Point","coordinates":[76.94197,15.14402]}},{"type":"Feature","properties":{"state":"Karnataka","district":12,"district_n":"BELLARY","pc":9,"pc_name":"Bellary","ac":94,"ac_name":"Bellary City","booth":21,"booth_name":"Government Higher Primar School, Left Side, Room No 1, , Guggarahatti, Bellary"},"geometry":{"type":"Point","coordinates":[76.91089,15.1203737]}},{"type":"Feature","properties":{"state":"Karnataka","district":12,"district_n":"BELLARY","pc":9,"pc_name":"Bellary","ac":94,"ac_name":"Bellary City","booth":24,"booth_name":"Government Higher Primary School, Left Side,room No 2, Guggarahatti, Bellary"},"geometry":{"type":"Point","coordinates":[76.91083,15.1205568]}},{"type":"Feature","properties":{"state":"Karnataka","district":12,"district_n":"BELLARY","pc":9,"pc_name":"Bellary","ac":94,"ac_name":"Bellary City","booth":27,"booth_name":"Government Lower Kannada Primary School, Room No No 1, Hussain Nagar, Bellary"},"geometry":{"type":"Point","coordinates":[76.94693,15.1495543]}},{"type":"Feature","properties":{"state":"Karnataka","district":12,"district_n":"BELLARY","pc":9,"pc_name":"Bellary","ac":94,"ac_name":"Bellary City","booth":29,"booth_name":"Office of the Inspector of ,legal metrology metrology K H B Quarters, No 14, 1st Cross, Sathyanarayana Pet, Bellary"},"geometry":{"type":"Point","coordinates":[76.938736,15.1462889]}},{"type":"Feature","properties":{"state":"Karnataka","district":12,"district_n":"BELLARY","pc":9,"pc_name":"Bellary","ac":94,"ac_name":"Bellary City","booth":30,"booth_name":"Gangothri School, Room No 1, , Talur Road, Near Canal, Ramanagar, Bellary"},"geometry":{"type":"Point","coordinates":[76.92483,15.1580963]}},{"type":"Feature","properties":{"state":"Karnataka","district":12,"district_n":"BELLARY","pc":9,"pc_name":"Bellary","ac":94,"ac_name":"Bellary City","booth":32,"booth_name":"Government Higher Primary School, Room No 2, Harshchandra Nagar, Talur Road, Bellary"},"geometry":{"type":"Point","coordinates":[76.92571,15.16462]}},{"type":"Feature","properties":{"state":"Karnataka","district":12,"district_n":"BELLARY","pc":9,"pc_name":"Bellary","ac":94,"ac_name":"Bellary City","booth":33,"booth_name":"Sharadha Vidya Peeta Society, , T G Layout, Moka Road, Bellary"},"geometry":{"type":"Point","coordinates":[76.94132,15.1605921]}},{"type":"Feature","properties":{"state":"Karnataka","district":12,"district_n":"BELLARY","pc":9,"pc_name":"Bellary","ac":94,"ac_name":"Bellary City","booth":35,"booth_name":"Nalanda School, Right Side Room, , Sanganakal Road, Bellary"},"geometry":{"type":"Point","coordinates":[76.9474258,15.1581459]}},{"type":"Feature","properties":{"state":"Karnataka","district":12,"district_n":"BELLARY","pc":9,"pc_name":"Bellary","ac":94,"ac_name":"Bellary City","booth":36,"booth_name":"Gangothri School, Room No 2, , Talur Road, Near Canal, Ramanagar, Bellary"},"geometry":{"type":"Point","coordinates":[76.92495,15.1587]}},{"type":"Feature","properties":{"state":"Karnataka","district":12,"district_n":"BELLARY","pc":9,"pc_name":"Bellary","ac":94,"ac_name":"Bellary City","booth":38,"booth_name":"Hampi Vidhyaranya School, Room No 1, Hanuman Nagar, Bellary"},"geometry":{"type":"Point","coordinates":[76.9409943,15.1351719]}},{"type":"Feature","properties":{"state":"Karnataka","district":12,"district_n":"BELLARY","pc":9,"pc_name":"Bellary","ac":94,"ac_name":"Bellary City","booth":52,"booth_name":"Divisional Controller Office, Mechanic Section, K S R T C , Shashthri Nagar, Bellary"},"geometry":{"type":"Point","coordinates":[76.92026,15.1544313]}},{"type":"Feature","properties":{"state":"Karnataka","district":12,"district_n":"BELLARY","pc":9,"pc_name":"Bellary","ac":94,"ac_name":"Bellary City","booth":53,"booth_name":"Divisional Controller Office, Technical Section, D M Chamber, K S R T C , Shashthri Nagar, Bellary"},"geometry":{"type":"Point","coordinates":[76.92016,15.1545973]}},{"type":"Feature","properties":{"state":"Karnataka","district":12,"district_n":"BELLARY","pc":9,"pc_name":"Bellary","ac":94,"ac_name":"Bellary City","booth":55,"booth_name":"Government Higher Primary School, (combined) Room No 8 , Medarvadi, Bellary"},"geometry":{"type":"Point","coordinates":[76.91703,15.1496477]}},{"type":"Feature","properties":{"state":"Karnataka","district":12,"district_n":"BELLARY","pc":9,"pc_name":"Bellary","ac":94,"ac_name":"Bellary City","booth":56,"booth_name":"Government Higher Primary School, (combined) Room No 9 , Medarvadi, Bellary"},"geometry":{"type":"Point","coordinates":[76.91703,15.1494961]}},{"type":"Feature","properties":{"state":"Karnataka","district":12,"district_n":"BELLARY","pc":9,"pc_name":"Bellary","ac":94,"ac_name":"Bellary City","booth":58,"booth_name":"Government Higher Primary School, (combined) Room No 3 , Medarvadi, Bellary"},"geometry":{"type":"Point","coordinates":[76.9172058,15.1495094]}},{"type":"Feature","properties":{"state":"Karnataka","district":12,"district_n":"BELLARY","pc":9,"pc_name":"Bellary","ac":94,"ac_name":"Bellary City","booth":61,"booth_name":"St John High School, Room No 2, , Fort Main Road, Bellary"},"geometry":{"type":"Point","coordinates":[76.9174347,15.14162]}},{"type":"Feature","properties":{"state":"Karnataka","district":12,"district_n":"BELLARY","pc":9,"pc_name":"Bellary","ac":94,"ac_name":"Bellary City","booth":64,"booth_name":"St John Pu College, Right Side, Room No 1, , Fort Main Road, Bellary"},"geometry":{"type":"Point","coordinates":[76.91641,15.142642]}},{"type":"Feature","properties":{"state":"Karnataka","district":12,"district_n":"BELLARY","pc":9,"pc_name":"Bellary","ac":94,"ac_name":"Bellary City","booth":67,"booth_name":"Sri Chainthanya Academy, Room No 30, , O P D Road, Bellary"},"geometry":{"type":"Point","coordinates":[76.905365,15.1525936]}},{"type":"Feature","properties":{"state":"Karnataka","district":12,"district_n":"BELLARY","pc":9,"pc_name":"Bellary","ac":94,"ac_name":"Bellary City","booth":69,"booth_name":"Government Higher Primary School, Hemavathi Room, 2nd Cross, Opp Opp Park, Parvathi Nagar, Bellary"},"geometry":{"type":"Point","coordinates":[76.92625,15.1531944]}},{"type":"Feature","properties":{"state":"Karnataka","district":12,"district_n":"BELLARY","pc":9,"pc_name":"Bellary","ac":94,"ac_name":"Bellary City","booth":90,"booth_name":"Bala Bharathi English Medium School, Room No 5, , Gandhi Nagar, Bellary"},"geometry":{"type":"Point","coordinates":[76.93974,15.1549349]}},{"type":"Feature","properties":{"state":"Karnataka","district":12,"district_n":"BELLARY","pc":9,"pc_name":"Bellary","ac":94,"ac_name":"Bellary City","booth":92,"booth_name":"Government Model Higher Primary School, Room No 1, Tunga, Moka Road, Gandhi Nagar, Bellary"},"geometry":{"type":"Point","coordinates":[76.9399,15.1548376]}},{"type":"Feature","properties":{"state":"Karnataka","district":12,"district_n":"BELLARY","pc":9,"pc_name":"Bellary","ac":94,"ac_name":"Bellary City","booth":93,"booth_name":"Government Model Higher Primary School, Under Bridge upper Side, , Near Durugamma Temple, Bellary"},"geometry":{"type":"Point","coordinates":[76.93034,15.151124]}},{"type":"Feature","properties":{"state":"Karnataka","district":12,"district_n":"BELLARY","pc":9,"pc_name":"Bellary","ac":94,"ac_name":"Bellary City","booth":43,"booth_name":"Vasavi English Medium School, Room No 23, , Infantry Road, Bellary"},"geometry":{"type":"Point","coordinates":[76.9052658,15.1524782]}},{"type":"Feature","properties":{"state":"Karnataka","district":12,"district_n":"BELLARY","pc":9,"pc_name":"Bellary","ac":94,"ac_name":"Bellary City","booth":46,"booth_name":"Child Development Project Office, Bellary"},"geometry":{"type":"Point","coordinates":[76.91654,15.1543751]}},{"type":"Feature","properties":{"state":"Karnataka","district":12,"district_n":"BELLARY","pc":9,"pc_name":"Bellary","ac":94,"ac_name":"Bellary City","booth":74,"booth_name":"Government Higher Primary School, Room No 2, Talur Road, Parvathi Nagar, Bellary"},"geometry":{"type":"Point","coordinates":[76.9276047,15.1558218]}},{"type":"Feature","properties":{"state":"Karnataka","district":12,"district_n":"BELLARY","pc":9,"pc_name":"Bellary","ac":94,"ac_name":"Bellary City","booth":83,"booth_name":"Sri Guru Shanthappa Pre Univercity College, Left Side, Room No 2, Gandhi Nagar, Bellary"},"geometry":{"type":"Point","coordinates":[76.92978,15.1554737]}},{"type":"Feature","properties":{"state":"Karnataka","district":12,"district_n":"BELLARY","pc":9,"pc_name":"Bellary","ac":94,"ac_name":"Bellary City","booth":86,"booth_name":"Bala Bharathi English Medium School, Room No 1, , Gandhi Nagar, Bellary"},"geometry":{"type":"Point","coordinates":[76.93994,15.1546345]}},{"type":"Feature","properties":{"state":"Karnataka","district":12,"district_n":"BELLARY","pc":9,"pc_name":"Bellary","ac":94,"ac_name":"Bellary City","booth":70,"booth_name":"Government Higher Primary School, Room No 1, Opp Opp Park, Parvathi Nagar, Bellary"},"geometry":{"type":"Point","coordinates":[76.92625,15.1530333]}},{"type":"Feature","properties":{"state":"Karnataka","district":12,"district_n":"BELLARY","pc":9,"pc_name":"Bellary","ac":94,"ac_name":"Bellary City","booth":72,"booth_name":"Shanthi Shishu Vihara School, Room No 1, Talur Road, Parvathi Nagar, Bellary"},"geometry":{"type":"Point","coordinates":[76.92776,15.15592]}},{"type":"Feature","properties":{"state":"Karnataka","district":12,"district_n":"BELLARY","pc":9,"pc_name":"Bellary","ac":94,"ac_name":"Bellary City","booth":73,"booth_name":"Shanthi Shishu Vihara, Room No 2, Talur Road, Parvathi Nagar, Bellary"},"geometry":{"type":"Point","coordinates":[76.92772,15.1558971]}},{"type":"Feature","properties":{"state":"Karnataka","district":12,"district_n":"BELLARY","pc":9,"pc_name":"Bellary","ac":94,"ac_name":"Bellary City","booth":3,"booth_name":"Government Higher Primary School, 1st Std Room Narmada, Old Building, Havambhavi, Bellary"},"geometry":{"type":"Point","coordinates":[76.9128952,15.1692419]}},{"type":"Feature","properties":{"state":"Karnataka","district":12,"district_n":"BELLARY","pc":9,"pc_name":"Bellary","ac":94,"ac_name":"Bellary City","booth":11,"booth_name":"Dr B R Ambedkar Government Composite High School, Room No 4, Indiranagar, Bellary"},"geometry":{"type":"Point","coordinates":[76.9085846,15.155797]}},{"type":"Feature","properties":{"state":"Karnataka","district":12,"district_n":"BELLARY","pc":9,"pc_name":"Bellary","ac":94,"ac_name":"Bellary City","booth":20,"booth_name":"Datta Higher Primary School, , Raghavendra Colony, 2nd Stage, Bellary"},"geometry":{"type":"Point","coordinates":[76.94833,15.1456861]}},{"type":"Feature","properties":{"state":"Karnataka","district":12,"district_n":"BELLARY","pc":9,"pc_name":"Bellary","ac":94,"ac_name":"Bellary City","booth":23,"booth_name":"Government Higher Primary School, Right Side, , Guggarahatti, Bellary"},"geometry":{"type":"Point","coordinates":[76.9104843,15.1208611]}},{"type":"Feature","properties":{"state":"Karnataka","district":12,"district_n":"BELLARY","pc":9,"pc_name":"Bellary","ac":94,"ac_name":"Bellary City","booth":26,"booth_name":"Government Lower Kannada Primary School, Room No No 3, Ramaiah Colony, Bellary"},"geometry":{"type":"Point","coordinates":[76.94686,15.1497059]}},{"type":"Feature","properties":{"state":"Karnataka","district":12,"district_n":"BELLARY","pc":9,"pc_name":"Bellary","ac":94,"ac_name":"Bellary City","booth":63,"booth_name":"St John Pu College, Left Side Room, Fort Main Road, Bellary"},"geometry":{"type":"Point","coordinates":[76.9167252,15.1424189]}},{"type":"Feature","properties":{"state":"Karnataka","district":12,"district_n":"BELLARY","pc":9,"pc_name":"Bellary","ac":94,"ac_name":"Bellary City","booth":66,"booth_name":"Government Urdu Kannada, Telugu, Higher Primary School, New Building, Room No 5, Devinagar, Bellary"},"geometry":{"type":"Point","coordinates":[76.39173,15.1497221]}},{"type":"Feature","properties":{"state":"Karnataka","district":12,"district_n":"BELLARY","pc":9,"pc_name":"Bellary","ac":94,"ac_name":"Bellary City","booth":100,"booth_name":"Government Model Higher Primary School, Room No 1, , D A R Lane, Bellary"},"geometry":{"type":"Point","coordinates":[76.9332657,15.1498346]}},{"type":"Feature","properties":{"state":"Karnataka","district":12,"district_n":"BELLARY","pc":9,"pc_name":"Bellary","ac":94,"ac_name":"Bellary City","booth":103,"booth_name":"Govrnment Model Higher Primary School Left Side, S N pet, Bellary"},"geometry":{"type":"Point","coordinates":[76.9364853,15.148468]}},{"type":"Feature","properties":{"state":"Karnataka","district":12,"district_n":"BELLARY","pc":9,"pc_name":"Bellary","ac":94,"ac_name":"Bellary City","booth":117,"booth_name":"Taluk Office, Food Section, , Taluk Office Compound, Bellary"},"geometry":{"type":"Point","coordinates":[76.9260559,15.1445847]}},{"type":"Feature","properties":{"state":"Karnataka","district":12,"district_n":"BELLARY","pc":9,"pc_name":"Bellary","ac":94,"ac_name":"Bellary City","booth":120,"booth_name":"Government Junior College for Girls, Room No 39, Near P P & T Office, Amblibagh, Bellary"},"geometry":{"type":"Point","coordinates":[76.92597,15.1412754]}},{"type":"Feature","properties":{"state":"Karnataka","district":12,"district_n":"BELLARY","pc":9,"pc_name":"Bellary","ac":94,"ac_name":"Bellary City","booth":123,"booth_name":"Government Lower Primary School, Room No 1, Kategudda,vaddarageri Bellary"},"geometry":{"type":"Point","coordinates":[76.9307861,15.1428318]}},{"type":"Feature","properties":{"state":"Karnataka","district":12,"district_n":"BELLARY","pc":9,"pc_name":"Bellary","ac":94,"ac_name":"Bellary City","booth":137,"booth_name":"Government Urdu Higher Primary School, New Building, Room No 1, , Tajiya Street, Bellary"},"geometry":{"type":"Point","coordinates":[76.9312,15.1352787]}},{"type":"Feature","properties":{"state":"Karnataka","district":12,"district_n":"BELLARY","pc":9,"pc_name":"Bellary","ac":94,"ac_name":"Bellary City","booth":140,"booth_name":"Government Urdu Higher Primary School, Room No 4, Old Municipal Office Back Side, Tajiya Street, Bellary"},"geometry":{"type":"Point","coordinates":[76.93112,15.1353626]}},{"type":"Feature","properties":{"state":"Karnataka","district":12,"district_n":"BELLARY","pc":9,"pc_name":"Bellary","ac":94,"ac_name":"Bellary City","booth":157,"booth_name":"Government Junior College for Girls, Room No 31, Bellary"},"geometry":{"type":"Point","coordinates":[76.92588,15.143178]}},{"type":"Feature","properties":{"state":"Karnataka","district":12,"district_n":"BELLARY","pc":9,"pc_name":"Bellary","ac":94,"ac_name":"Bellary City","booth":160,"booth_name":"Government Model Higher Primary School, (old Ranganath School) Room No 3, Cumming Road, Bellary"},"geometry":{"type":"Point","coordinates":[76.9287338,15.1391525]}},{"type":"Feature","properties":{"state":"Karnataka","district":12,"district_n":"BELLARY","pc":9,"pc_name":"Bellary","ac":94,"ac_name":"Bellary City","booth":163,"booth_name":"Wardlaw Junior College, Main Building, Room No 34, Kalamma Street, Bellary"},"geometry":{"type":"Point","coordinates":[76.92218,15.1421766]}},{"type":"Feature","properties":{"state":"Karnataka","district":12,"district_n":"BELLARY","pc":9,"pc_name":"Bellary","ac":94,"ac_name":"Bellary City","booth":172,"booth_name":"Hiradasugamma Higher Primary School, Tungabhadra Room, Near Shakkarekaredappa Chowk, Bellary"},"geometry":{"type":"Point","coordinates":[76.92075,15.1371412]}},{"type":"Feature","properties":{"state":"Karnataka","district":12,"district_n":"BELLARY","pc":9,"pc_name":"Bellary","ac":94,"ac_name":"Bellary City","booth":180,"booth_name":"Municipal Nursery School, Room No 1, Sabhapathi Street, Bellary"},"geometry":{"type":"Point","coordinates":[76.92421,15.1361446]}},{"type":"Feature","properties":{"state":"Karnataka","district":12,"district_n":"BELLARY","pc":9,"pc_name":"Bellary","ac":94,"ac_name":"Bellary City","booth":192,"booth_name":"Government High School, Teachers Room, Bapuji Sadana, Bapuji Nagar, Bellary"},"geometry":{"type":"Point","coordinates":[76.928215,15.131794]}},{"type":"Feature","properties":{"state":"Karnataka","district":12,"district_n":"BELLARY","pc":9,"pc_name":"Bellary","ac":94,"ac_name":"Bellary City","booth":209,"booth_name":"A P M C C Office Main Hall, , A P M C C Compound, Bellary"},"geometry":{"type":"Point","coordinates":[76.9197159,15.1313152]}},{"type":"Feature","properties":{"state":"Karnataka","district":12,"district_n":"BELLARY","pc":9,"pc_name":"Bellary","ac":94,"ac_name":"Bellary City","booth":212,"booth_name":"Deputy Director Office, Agricultural Marketing Development Department, A P M C Yard, A P M C C Compound, Bellary"},"geometry":{"type":"Point","coordinates":[76.92018,15.132143]}},{"type":"Feature","properties":{"state":"Karnataka","district":12,"district_n":"BELLARY","pc":9,"pc_name":"Bellary","ac":94,"ac_name":"Bellary City","booth":14,"booth_name":"Government Composite High School, Room No 3, , Indiranagar, Bellary"},"geometry":{"type":"Point","coordinates":[76.90927,15.15455]}},{"type":"Feature","properties":{"state":"Karnataka","district":12,"district_n":"BELLARY","pc":9,"pc_name":"Bellary","ac":94,"ac_name":"Bellary City","booth":17,"booth_name":"Government Higher Primary School, Left Side, Room No 1, , Patel Nagar, Bellary"},"geometry":{"type":"Point","coordinates":[76.96192,15.1440153]}},{"type":"Feature","properties":{"state":"Karnataka","district":12,"district_n":"BELLARY","pc":9,"pc_name":"Bellary","ac":94,"ac_name":"Bellary City","booth":34,"booth_name":"Nalanda School, Left Side Room, , Sanganakal Road, Bellary"},"geometry":{"type":"Point","coordinates":[76.94785,15.1586523]}},{"type":"Feature","properties":{"state":"Karnataka","district":12,"district_n":"BELLARY","pc":9,"pc_name":"Bellary","ac":94,"ac_name":"Bellary City","booth":37,"booth_name":"V D H L Girls High School, , Bhuvanagiri, Siruguppa Road, Bellary"},"geometry":{"type":"Point","coordinates":[76.9158859,15.8642445]}},{"type":"Feature","properties":{"state":"Karnataka","district":12,"district_n":"BELLARY","pc":9,"pc_name":"Bellary","ac":94,"ac_name":"Bellary City","booth":54,"booth_name":"Government Higher Primary School, (combined) Room No 7, Medarvadi, Bellary"},"geometry":{"type":"Point","coordinates":[76.91742,15.1494446]}},{"type":"Feature","properties":{"state":"Karnataka","district":12,"district_n":"BELLARY","pc":9,"pc_name":"Bellary","ac":94,"ac_name":"Bellary City","booth":57,"booth_name":"Government Higher Primary School, (combined) Room No 12 , Medarvadi, Bellary"},"geometry":{"type":"Point","coordinates":[76.91713,15.1495285]}},{"type":"Feature","properties":{"state":"Karnataka","district":12,"district_n":"BELLARY","pc":9,"pc_name":"Bellary","ac":94,"ac_name":"Bellary City","booth":60,"booth_name":"St St John High School, Room No 1, Fort Main Road, Bellary"},"geometry":{"type":"Point","coordinates":[76.91762,15.1414309]}},{"type":"Feature","properties":{"state":"Karnataka","district":12,"district_n":"BELLARY","pc":9,"pc_name":"Bellary","ac":94,"ac_name":"Bellary City","booth":97,"booth_name":"Madikeri Bheemaiah High School, Room No 4, , Moka Road, Gandhi Nagar, Bellary"},"geometry":{"type":"Point","coordinates":[76.9378357,15.1537876]}},{"type":"Feature","properties":{"state":"Karnataka","district":12,"district_n":"BELLARY","pc":9,"pc_name":"Bellary","ac":94,"ac_name":"Bellary City","booth":183,"booth_name":"Government Model Higher Primary School, (combined) Room No 2, Sheep Slaugther House Street, Bellary"},"geometry":{"type":"Point","coordinates":[76.92467,15.1335535]}},{"type":"Feature","properties":{"state":"Karnataka","district":12,"district_n":"BELLARY","pc":9,"pc_name":"Bellary","ac":94,"ac_name":"Bellary City","booth":186,"booth_name":"Taluk Ambaracharaka, Room No 1, Old Municipal Office Road, Bellary"},"geometry":{"type":"Point","coordinates":[76.93147,15.13438]}},{"type":"Feature","properties":{"state":"Karnataka","district":12,"district_n":"BELLARY","pc":9,"pc_name":"Bellary","ac":94,"ac_name":"Bellary City","booth":189,"booth_name":"Anganavadi Kendra No 1, Vijayanagara Colony, Ranithota, Bellary"},"geometry":{"type":"Point","coordinates":[76.9293442,15.1337385]}},{"type":"Feature","properties":{"state":"Karnataka","district":12,"district_n":"BELLARY","pc":9,"pc_name":"Bellary","ac":94,"ac_name":"Bellary City","booth":106,"booth_name":"Government Model Higher Primary School Mididel Room, S N pet, Bellary"},"geometry":{"type":"Point","coordinates":[76.93643,15.1484327]}},{"type":"Feature","properties":{"state":"Karnataka","district":12,"district_n":"BELLARY","pc":9,"pc_name":"Bellary","ac":94,"ac_name":"Bellary City","booth":109,"booth_name":"Assistant Executive Engineers Office, K H B Office,revenue Section, , Sathyanarayana Pet, Bellary"},"geometry":{"type":"Point","coordinates":[76.9398346,15.1463747]}},{"type":"Feature","properties":{"state":"Karnataka","district":12,"district_n":"BELLARY","pc":9,"pc_name":"Bellary","ac":94,"ac_name":"Bellary City","booth":200,"booth_name":"A P M C Yard, Agriculture Office, Soil Testing Centre, Right Side, Room No 1, Bellary"},"geometry":{"type":"Point","coordinates":[76.91961,15.1368647]}},{"type":"Feature","properties":{"state":"Karnataka","district":12,"district_n":"BELLARY","pc":9,"pc_name":"Bellary","ac":94,"ac_name":"Bellary City","booth":203,"booth_name":"Assistant Director, Karnataka Seeds Certified Agency, Store Room, , A P M C C Compound, Bellary"},"geometry":{"type":"Point","coordinates":[76.91978,15.1307459]}},{"type":"Feature","properties":{"state":"Karnataka","district":12,"district_n":"BELLARY","pc":9,"pc_name":"Bellary","ac":94,"ac_name":"Bellary City","booth":206,"booth_name":"Government Higher Higher Primary School, 1st Standard Room , Bapuji Nagar, Near Ennappa Thata Mutt, Bellary"},"geometry":{"type":"Point","coordinates":[76.92769,15.1313057]}},{"type":"Feature","properties":{"state":"Karnataka","district":12,"district_n":"BELLARY","pc":9,"pc_name":"Bellary","ac":94,"ac_name":"Bellary City","booth":40,"booth_name":"Vasavi English Medium School, Room No 17, Infantry Road, Bellary"},"geometry":{"type":"Point","coordinates":[76.90546,15.1523886]}},{"type":"Feature","properties":{"state":"Karnataka","district":12,"district_n":"BELLARY","pc":9,"pc_name":"Bellary","ac":94,"ac_name":"Bellary City","booth":77,"booth_name":"Government Higher Primary School, Room No 4, Talur Road, Parvathi Nagar, Bellary"},"geometry":{"type":"Point","coordinates":[76.92738,15.156148]}},{"type":"Feature","properties":{"state":"Karnataka","district":12,"district_n":"BELLARY","pc":9,"pc_name":"Bellary","ac":94,"ac_name":"Bellary City","booth":80,"booth_name":"Sri Guru Shanthappa Pre Univercity College, Left Side, Room No 1, Gandhi Nagar, Bellary"},"geometry":{"type":"Point","coordinates":[76.92959,15.1551771]}},{"type":"Feature","properties":{"state":"Karnataka","district":12,"district_n":"BELLARY","pc":9,"pc_name":"Bellary","ac":94,"ac_name":"Bellary City","booth":146,"booth_name":"Smt S S V V Model Higher Primary School, 6th Claas Room, Rajyothsava Nagar, bellary"},"geometry":{"type":"Point","coordinates":[76.9351654,15.13327]}},{"type":"Feature","properties":{"state":"Karnataka","district":12,"district_n":"BELLARY","pc":9,"pc_name":"Bellary","ac":94,"ac_name":"Bellary City","booth":149,"booth_name":"Government Model Primary School, Room No 6, (mariswamy Mutt School), Old Municipal Office, Near Kanekal Bus Stand, Bellary"},"geometry":{"type":"Point","coordinates":[76.9308853,15.1350527]}},{"type":"Feature","properties":{"state":"Karnataka","district":12,"district_n":"BELLARY","pc":9,"pc_name":"Bellary","ac":94,"ac_name":"Bellary City","booth":42,"booth_name":"Vasavi English Medium School, Room No 21, Infantry Road, Bellary"},"geometry":{"type":"Point","coordinates":[76.90528,15.1524925]}},{"type":"Feature","properties":{"state":"Karnataka","district":12,"district_n":"BELLARY","pc":9,"pc_name":"Bellary","ac":94,"ac_name":"Bellary City","booth":45,"booth_name":"Deputy Director Office, Room No 2, Women and Child Development Department, , Striseva Nikethana, Bellary"},"geometry":{"type":"Point","coordinates":[76.97977,15.1530962]}},{"type":"Feature","properties":{"state":"Karnataka","district":12,"district_n":"BELLARY","pc":9,"pc_name":"Bellary","ac":94,"ac_name":"Bellary City","booth":48,"booth_name":"Assistant Executive Engineer, K S R T C C Office, , Shashthri Nagar, Bellary"},"geometry":{"type":"Point","coordinates":[76.9195251,15.1536922]}},{"type":"Feature","properties":{"state":"Karnataka","district":12,"district_n":"BELLARY","pc":9,"pc_name":"Bellary","ac":94,"ac_name":"Bellary City","booth":51,"booth_name":"Divisional Controller Office, Account Section, Room No 2, K S R T C , , Shashthri Nagar, Bellary"},"geometry":{"type":"Point","coordinates":[76.9193344,15.1535082]}},{"type":"Feature","properties":{"state":"Karnataka","district":12,"district_n":"BELLARY","pc":9,"pc_name":"Bellary","ac":94,"ac_name":"Bellary City","booth":82,"booth_name":"Sarswathi Vidya Peeta, S G T T College, Mutayala Seenappa Compound Room No 2, Right Side, Gandhi Nagar, Bellary"},"geometry":{"type":"Point","coordinates":[76.9326248,15.1546469]}},{"type":"Feature","properties":{"state":"Karnataka","district":12,"district_n":"BELLARY","pc":9,"pc_name":"Bellary","ac":94,"ac_name":"Bellary City","booth":85,"booth_name":"Sri Guru Shanthappa Pre Univercity College, Right Side, Room No 4, Gandhi Nagar, Bellary"},"geometry":{"type":"Point","coordinates":[76.9300461,15.1553345]}},{"type":"Feature","properties":{"state":"Karnataka","district":12,"district_n":"BELLARY","pc":9,"pc_name":"Bellary","ac":94,"ac_name":"Bellary City","booth":88,"booth_name":"Bala Bharathi English Medium School, Room No 4, , Gandhi Nagar, Bellary"},"geometry":{"type":"Point","coordinates":[76.9274445,15.1462908]}},{"type":"Feature","properties":{"state":"Karnataka","district":12,"district_n":"BELLARY","pc":9,"pc_name":"Bellary","ac":94,"ac_name":"Bellary City","booth":91,"booth_name":"Bala Bharathi English Medium School, Room No 6, , Gandhi Nagar, Bellary"},"geometry":{"type":"Point","coordinates":[76.93958,15.1553822]}},{"type":"Feature","properties":{"state":"Karnataka","district":12,"district_n":"BELLARY","pc":9,"pc_name":"Bellary","ac":94,"ac_name":"Bellary City","booth":79,"booth_name":"Sri Guru Shanthappa Pre Univercity College, Right Side, Room No 1, Gandhi Nagar, Bellary"},"geometry":{"type":"Point","coordinates":[76.93001,15.1554422]}},{"type":"Feature","properties":{"state":"Karnataka","district":12,"district_n":"BELLARY","pc":9,"pc_name":"Bellary","ac":94,"ac_name":"Bellary City","booth":94,"booth_name":"Madikeri Bheemaiah High School, Room No 1, Lift Side, Moka Road, Gandhi Nagar, Bellary"},"geometry":{"type":"Point","coordinates":[76.93769,15.1550074]}},{"type":"Feature","properties":{"state":"Karnataka","district":12,"district_n":"BELLARY","pc":9,"pc_name":"Bellary","ac":94,"ac_name":"Bellary City","booth":145,"booth_name":"Government Model Higher Primary School, New Building, Room No 4, Old Municipal Office Back Side, Bellary"},"geometry":{"type":"Point","coordinates":[76.93106,15.13501]}},{"type":"Feature","properties":{"state":"Karnataka","district":12,"district_n":"BELLARY","pc":9,"pc_name":"Bellary","ac":94,"ac_name":"Bellary City","booth":148,"booth_name":"Government Model Primary School, Room No 5,(mariswamy Mutt School), Old Municipal Office, Near Kanekal Bus Stand, Bellary"},"geometry":{"type":"Point","coordinates":[76.93103,15.1351252]}},{"type":"Feature","properties":{"state":"Karnataka","district":12,"district_n":"BELLARY","pc":9,"pc_name":"Bellary","ac":94,"ac_name":"Bellary City","booth":151,"booth_name":"Government Higher Primary School, Room No 7, Near Water Tank, Millerpet, Bellary"},"geometry":{"type":"Point","coordinates":[76.93344,15.137516]}},{"type":"Feature","properties":{"state":"Karnataka","district":12,"district_n":"BELLARY","pc":9,"pc_name":"Bellary","ac":94,"ac_name":"Bellary City","booth":154,"booth_name":"Government Urdu Higher Primary School, Room No 2, Millerpet, Bellary"},"geometry":{"type":"Point","coordinates":[76.9330444,15.1331081]}},{"type":"Feature","properties":{"state":"Karnataka","district":12,"district_n":"BELLARY","pc":9,"pc_name":"Bellary","ac":94,"ac_name":"Bellary City","booth":126,"booth_name":"Government High School, Room No 2, Srirampuram Colony, Bellary"},"geometry":{"type":"Point","coordinates":[76.9372,15.1375532]}},{"type":"Feature","properties":{"state":"Karnataka","district":12,"district_n":"BELLARY","pc":9,"pc_name":"Bellary","ac":94,"ac_name":"Bellary City","booth":129,"booth_name":"Infant Jesus English Medium School, Right Side, Bombay Press Road, Bellary"},"geometry":{"type":"Point","coordinates":[76.93591,15.140501]}},{"type":"Feature","properties":{"state":"Karnataka","district":12,"district_n":"BELLARY","pc":9,"pc_name":"Bellary","ac":94,"ac_name":"Bellary City","booth":220,"booth_name":"Government Higher Primary School, B Gonal, Bellary"},"geometry":{"type":"Point","coordinates":[76.95081,15.1287689]}},{"type":"Feature","properties":{"state":"Karnataka","district":12,"district_n":"BELLARY","pc":9,"pc_name":"Bellary","ac":94,"ac_name":"Bellary City","booth":223,"booth_name":"Government High School, Room No 2 Andral, Bellary"},"geometry":{"type":"Point","coordinates":[76.9293442,15.1246977]}},{"type":"Feature","properties":{"state":"Karnataka","district":12,"district_n":"BELLARY","pc":9,"pc_name":"Bellary","ac":94,"ac_name":"Bellary City","booth":226,"booth_name":"Government Higher Primary School, Room No 1, Mundrigi, Bellary"},"geometry":{"type":"Point","coordinates":[76.91382,15.1033363]}},{"type":"Feature","properties":{"state":"Karnataka","district":12,"district_n":"BELLARY","pc":9,"pc_name":"Bellary","ac":94,"ac_name":"Bellary City","booth":143,"booth_name":"Governement Model Higher Primary School, Room No 2, Near Water Tank, Millerpet, Bellary"},"geometry":{"type":"Point","coordinates":[76.93327,15.1374559]}},{"type":"Feature","properties":{"state":"Karnataka","district":12,"district_n":"BELLARY","pc":9,"pc_name":"Bellary","ac":94,"ac_name":"Bellary City","booth":166,"booth_name":"Silver Jublee Memorial Model Higher Primary School, Room No 5, Pinjar Street, Bellary"},"geometry":{"type":"Point","coordinates":[76.92794,15.13774]}},{"type":"Feature","properties":{"state":"Karnataka","district":12,"district_n":"BELLARY","pc":9,"pc_name":"Bellary","ac":94,"ac_name":"Bellary City","booth":169,"booth_name":"R T G G High School (child Mantapa) Enghlish Medium School, Room No 5, Near Jandakatte Cumming Road, Bellary"},"geometry":{"type":"Point","coordinates":[76.92902,15.1381388]}},{"type":"Feature","properties":{"state":"Karnataka","district":12,"district_n":"BELLARY","pc":9,"pc_name":"Bellary","ac":94,"ac_name":"Bellary City","booth":5,"booth_name":"Government Higher Primary School, 9th Std Room, Nethravathi, New Building, Havambhavi, Bellary"},"geometry":{"type":"Point","coordinates":[76.91299,15.1692276]}},{"type":"Feature","properties":{"state":"Karnataka","district":12,"district_n":"BELLARY","pc":9,"pc_name":"Bellary","ac":94,"ac_name":"Bellary City","booth":8,"booth_name":"Dr B R Ambedkar Government Composite High School, Room No 1, Indiranagar, Bellary"},"geometry":{"type":"Point","coordinates":[76.908844,15.1556692]}},{"type":"Feature","properties":{"state":"Karnataka","district":12,"district_n":"BELLARY","pc":9,"pc_name":"Bellary","ac":94,"ac_name":"Bellary City","booth":22,"booth_name":"Government Higher Primary School, Right Side, New Block, Guggarahatti, Bellary"},"geometry":{"type":"Point","coordinates":[76.9102,15.1207743]}},{"type":"Feature","properties":{"state":"Karnataka","district":12,"district_n":"BELLARY","pc":9,"pc_name":"Bellary","ac":94,"ac_name":"Bellary City","booth":25,"booth_name":"Government Higher Primary School, Room No 1, Kakarlathota, Bellary"},"geometry":{"type":"Point","coordinates":[76.91756,15.1204062]}},{"type":"Feature","properties":{"state":"Karnataka","district":12,"district_n":"BELLARY","pc":9,"pc_name":"Bellary","ac":94,"ac_name":"Bellary City","booth":28,"booth_name":"Government Higher Primary School, Middle Room, , Patel Nagar, Bellary"},"geometry":{"type":"Point","coordinates":[76.94213,15.1438656]}},{"type":"Feature","properties":{"state":"Karnataka","district":12,"district_n":"BELLARY","pc":9,"pc_name":"Bellary","ac":94,"ac_name":"Bellary City","booth":31,"booth_name":"Government Higher Primary School, , Harshchandra Nagar, Talur Road, Bellary"},"geometry":{"type":"Point","coordinates":[76.92571,15.16459]}},{"type":"Feature","properties":{"state":"Karnataka","district":12,"district_n":"BELLARY","pc":9,"pc_name":"Bellary","ac":94,"ac_name":"Bellary City","booth":65,"booth_name":"St John Pu College, Right Side, Room No 2, Fort Main Road, Bellary"},"geometry":{"type":"Point","coordinates":[76.91639,15.142621]}},{"type":"Feature","properties":{"state":"Karnataka","district":12,"district_n":"BELLARY","pc":9,"pc_name":"Bellary","ac":94,"ac_name":"Bellary City","booth":68,"booth_name":"Government Higher Primary School (narmada) Room No1, 2nd Cross, , Opp Opp Park, Parvathi Nagar, Bellary"},"geometry":{"type":"Point","coordinates":[76.92629,15.1533346]}},{"type":"Feature","properties":{"state":"Karnataka","district":12,"district_n":"BELLARY","pc":9,"pc_name":"Bellary","ac":94,"ac_name":"Bellary City","booth":71,"booth_name":"Government Model Higher Primary School, New Building, , Mahanandikottam, Bellary"},"geometry":{"type":"Point","coordinates":[76.92495,15.15768]}},{"type":"Feature","properties":{"state":"Karnataka","district":12,"district_n":"BELLARY","pc":9,"pc_name":"Bellary","ac":94,"ac_name":"Bellary City","booth":102,"booth_name":"Government Model Higher Primary School Old Buillding, S N pet, Bellary"},"geometry":{"type":"Point","coordinates":[76.936615,15.14843]}},{"type":"Feature","properties":{"state":"Karnataka","district":12,"district_n":"BELLARY","pc":9,"pc_name":"Bellary","ac":94,"ac_name":"Bellary City","booth":105,"booth_name":"Blue Star Angels School Room No 2, Shenkar Colony Near Railway Gate Bellary"},"geometry":{"type":"Point","coordinates":[76.9409,15.1513481]}},{"type":"Feature","properties":{"state":"Karnataka","district":12,"district_n":"BELLARY","pc":9,"pc_name":"Bellary","ac":94,"ac_name":"Bellary City","booth":122,"booth_name":"Government Model Lower Primary School, Room No 2, Balaji Rao Road, Bellary"},"geometry":{"type":"Point","coordinates":[76.92904,15.1423531]}},{"type":"Feature","properties":{"state":"Karnataka","district":12,"district_n":"BELLARY","pc":9,"pc_name":"Bellary","ac":94,"ac_name":"Bellary City","booth":134,"booth_name":"Infant Jesus English Medium School, Room No 2, , Bombay Press Road, Bellary"},"geometry":{"type":"Point","coordinates":[76.93588,15.1404934]}},{"type":"Feature","properties":{"state":"Karnataka","district":12,"district_n":"BELLARY","pc":9,"pc_name":"Bellary","ac":94,"ac_name":"Bellary City","booth":142,"booth_name":"Government Model Higher Primary School, Room No 1, , Near Water Tank, Millerpet, Bellary"},"geometry":{"type":"Point","coordinates":[76.93334,15.23746]}},{"type":"Feature","properties":{"state":"Karnataka","district":12,"district_n":"BELLARY","pc":9,"pc_name":"Bellary","ac":94,"ac_name":"Bellary City","booth":162,"booth_name":"Wardlaw Junior College, Main Building, Room No 1, Kalamma Street, Bellary"},"geometry":{"type":"Point","coordinates":[76.9234,15.1415443]}},{"type":"Feature","properties":{"state":"Karnataka","district":12,"district_n":"BELLARY","pc":9,"pc_name":"Bellary","ac":94,"ac_name":"Bellary City","booth":174,"booth_name":"Hiradasugamma Higher Primary School, Bhim Room, Near Shakkarekaredappa Chowk, Bellary"},"geometry":{"type":"Point","coordinates":[76.92696,15.1372833]}},{"type":"Feature","properties":{"state":"Karnataka","district":12,"district_n":"BELLARY","pc":9,"pc_name":"Bellary","ac":94,"ac_name":"Bellary City","booth":177,"booth_name":"Government Higher Primary School, (jyothi Lal Agarwal, A Nalikali Room , Lalakaman, Bellary"},"geometry":{"type":"Point","coordinates":[76.9207458,15.1370945]}},{"type":"Feature","properties":{"state":"Karnataka","district":12,"district_n":"BELLARY","pc":9,"pc_name":"Bellary","ac":94,"ac_name":"Bellary City","booth":191,"booth_name":"Government High School, Room No 1, Parameswara Sadana, Bapuji Nagar, Bellary"},"geometry":{"type":"Point","coordinates":[76.92813,15.13179]}},{"type":"Feature","properties":{"state":"Karnataka","district":12,"district_n":"BELLARY","pc":9,"pc_name":"Bellary","ac":94,"ac_name":"Bellary City","booth":194,"booth_name":"Government High School, Room No 4, Paigambar Sadana, Bapuji Nagar, Bellary"},"geometry":{"type":"Point","coordinates":[76.92748,15.1314058]}},{"type":"Feature","properties":{"state":"Karnataka","district":12,"district_n":"BELLARY","pc":9,"pc_name":"Bellary","ac":94,"ac_name":"Bellary City","booth":197,"booth_name":"A P M C C Office, New Building, Computer Room, A P M C C Compound, Bellary"},"geometry":{"type":"Point","coordinates":[76.9198,15.13101]}},{"type":"Feature","properties":{"state":"Karnataka","district":12,"district_n":"BELLARY","pc":9,"pc_name":"Bellary","ac":94,"ac_name":"Bellary City","booth":208,"booth_name":"Assistant Executive Engineer Office, No 3, Sub Division, Development Plan Office, , A P M C C Compound, Bellary"},"geometry":{"type":"Point","coordinates":[76.92004,15.13207]}},{"type":"Feature","properties":{"state":"Karnataka","district":12,"district_n":"BELLARY","pc":9,"pc_name":"Bellary","ac":94,"ac_name":"Bellary City","booth":211,"booth_name":"A P M C C President Room, A P M C C Compound, Bellary"},"geometry":{"type":"Point","coordinates":[76.91979,15.131424]}},{"type":"Feature","properties":{"state":"Karnataka","district":12,"district_n":"BELLARY","pc":9,"pc_name":"Bellary","ac":94,"ac_name":"Bellary City","booth":214,"booth_name":"A P M C C Yard, Tender Hall, Left Side, A P M C C Compound, Bellary"},"geometry":{"type":"Point","coordinates":[76.91977,15.1315136]}},{"type":"Feature","properties":{"state":"Karnataka","district":12,"district_n":"BELLARY","pc":9,"pc_name":"Bellary","ac":94,"ac_name":"Bellary City","booth":228,"booth_name":"Government Higher Primary School, Room No 2, , Kakarlathota, Bellary"},"geometry":{"type":"Point","coordinates":[76.91751,15.1203918]}},{"type":"Feature","properties":{"state":"Karnataka","district":12,"district_n":"BELLARY","pc":9,"pc_name":"Bellary","ac":94,"ac_name":"Bellary City","booth":19,"booth_name":"Government Higher Primary School, Left Side, Room No 2, , Patel Nagar, Bellary"},"geometry":{"type":"Point","coordinates":[76.94212,15.1439734]}},{"type":"Feature","properties":{"state":"Karnataka","district":12,"district_n":"BELLARY","pc":9,"pc_name":"Bellary","ac":94,"ac_name":"Bellary City","booth":39,"booth_name":"Vandhana Lower Primary School, Ananthapur Road, Bellary"},"geometry":{"type":"Point","coordinates":[76.9524,15.1399107]}},{"type":"Feature","properties":{"state":"Karnataka","district":12,"district_n":"BELLARY","pc":9,"pc_name":"Bellary","ac":94,"ac_name":"Bellary City","booth":59,"booth_name":"Government Higher Primary School, (combined) Room No 16 , Medarvadi, Bellary"},"geometry":{"type":"Point","coordinates":[76.91726,15.1495]}},{"type":"Feature","properties":{"state":"Karnataka","district":12,"district_n":"BELLARY","pc":9,"pc_name":"Bellary","ac":94,"ac_name":"Bellary City","booth":62,"booth_name":"St John Pu College Left Side Room No 1, Fort Main Road, Bellary"},"geometry":{"type":"Point","coordinates":[76.9167938,15.1423826]}},{"type":"Feature","properties":{"state":"Karnataka","district":12,"district_n":"BELLARY","pc":9,"pc_name":"Bellary","ac":94,"ac_name":"Bellary City","booth":185,"booth_name":"Government Urdu Higher Primary School, Near Marriswamy Mutt, Ilahi Mosque, Pathakandakam Street, Bellary"},"geometry":{"type":"Point","coordinates":[76.92763,15.1335011]}},{"type":"Feature","properties":{"state":"Karnataka","district":12,"district_n":"BELLARY","pc":9,"pc_name":"Bellary","ac":94,"ac_name":"Bellary City","booth":188,"booth_name":"U B S P Building, community hall, Maternity Hospital, Vijayanagara Colony, (ranithota) Bellary"},"geometry":{"type":"Point","coordinates":[76.92947,15.1334372]}},{"type":"Feature","properties":{"state":"Karnataka","district":12,"district_n":"BELLARY","pc":9,"pc_name":"Bellary","ac":94,"ac_name":"Bellary City","booth":108,"booth_name":"Assistant Executive Engineers Office, K H B B Office, Accounts Section, , Sathyanarayana Pet, Bellary"},"geometry":{"type":"Point","coordinates":[76.9398346,15.1463747]}},{"type":"Feature","properties":{"state":"Karnataka","district":12,"district_n":"BELLARY","pc":9,"pc_name":"Bellary","ac":94,"ac_name":"Bellary City","booth":111,"booth_name":"Government Junior College, Old Municipal High School, Room No 2, Ananthapur Road, Bellary"},"geometry":{"type":"Point","coordinates":[76.93195,15.1452322]}},{"type":"Feature","properties":{"state":"Karnataka","district":12,"district_n":"BELLARY","pc":9,"pc_name":"Bellary","ac":94,"ac_name":"Bellary City","booth":114,"booth_name":"Government Higher Primary School, , Railway Colony, Bellary"},"geometry":{"type":"Point","coordinates":[76.92451,15.1473408]}},{"type":"Feature","properties":{"state":"Karnataka","district":12,"district_n":"BELLARY","pc":9,"pc_name":"Bellary","ac":94,"ac_name":"Bellary City","booth":205,"booth_name":"Government Higher Higher Primary School, Room No No 3, Bapuji Nagar, Near Ennappa Thata Mutt, Bellary"},"geometry":{"type":"Point","coordinates":[76.92777,15.1312256]}},{"type":"Feature","properties":{"state":"Karnataka","district":12,"district_n":"BELLARY","pc":9,"pc_name":"Bellary","ac":94,"ac_name":"Bellary City","booth":125,"booth_name":"Government Model Higher Primary School, Room No 1, Srirampuram Colony, Bellary"},"geometry":{"type":"Point","coordinates":[76.93796,15.1380844]}},{"type":"Feature","properties":{"state":"Karnataka","district":12,"district_n":"BELLARY","pc":9,"pc_name":"Bellary","ac":94,"ac_name":"Bellary City","booth":128,"booth_name":"Government High School, Room No 4, Srirampuram Colony, Bellary"},"geometry":{"type":"Point","coordinates":[76.9378738,15.1378918]}},{"type":"Feature","properties":{"state":"Karnataka","district":12,"district_n":"BELLARY","pc":9,"pc_name":"Bellary","ac":94,"ac_name":"Bellary City","booth":131,"booth_name":"Government Higher Primary School, Center Room, Srirampuram Colony, Bellary"},"geometry":{"type":"Point","coordinates":[76.93805,15.1380663]}},{"type":"Feature","properties":{"state":"Karnataka","district":12,"district_n":"BELLARY","pc":9,"pc_name":"Bellary","ac":94,"ac_name":"Bellary City","booth":217,"booth_name":"Government Higher Primary School, Room No 1, Bisilahalli, Bellary"},"geometry":{"type":"Point","coordinates":[76.97526,15.1397276]}},{"type":"Feature","properties":{"state":"Karnataka","district":12,"district_n":"BELLARY","pc":9,"pc_name":"Bellary","ac":94,"ac_name":"Bellary City","booth":225,"booth_name":"Government High School, Room No 3, Andral, Bellary"},"geometry":{"type":"Point","coordinates":[76.92964,15.1246862]}},{"type":"Feature","properties":{"state":"Karnataka","district":12,"district_n":"BELLARY","pc":9,"pc_name":"Bellary","ac":94,"ac_name":"Bellary City","booth":165,"booth_name":"Silver Jublee Memorial Model Higher Primary School, Room No 2, Pinjar Street, Bellary"},"geometry":{"type":"Point","coordinates":[76.92755,15.1977987]}},{"type":"Feature","properties":{"state":"Karnataka","district":12,"district_n":"BELLARY","pc":9,"pc_name":"Bellary","ac":94,"ac_name":"Bellary City","booth":168,"booth_name":"R T G High School, (makkala Mantapa) English Medium School, Room No 4, Near Jandakatte, Cumming Road, Bellary"},"geometry":{"type":"Point","coordinates":[76.92845,15.1381083]}},{"type":"Feature","properties":{"state":"Karnataka","district":12,"district_n":"BELLARY","pc":9,"pc_name":"Bellary","ac":94,"ac_name":"Bellary City","booth":171,"booth_name":"Government Urdu Model Higher Primary School, Old Ranganath School, Room No 12, Cumming Road, Bellary"},"geometry":{"type":"Point","coordinates":[76.9290543,15.1387978]}},{"type":"Feature","properties":{"state":"Karnataka","district":12,"district_n":"BELLARY","pc":9,"pc_name":"Bellary","ac":94,"ac_name":"Bellary City","booth":2,"booth_name":"Government Higher Primary School Old Building, Havambhavi, Bellary"},"geometry":{"type":"Point","coordinates":[76.91285,15.1693335]}}]}