{"type":"FeatureCollection","features":[{"type":"Feature","properties":{"state":"Karnataka","district":12,"district_n":"BELLARY","pc":9,"pc_name":"Bellary","ac":95,"ac_name":"Sandur","booth":13,"booth_name":"Government Government Composite High High School, New Building,room No 2, 2, Krishna nagar"},"geometry":{"type":"Point","coordinates":[76.56507,15.0959349]}},{"type":"Feature","properties":{"state":"Karnataka","district":12,"district_n":"BELLARY","pc":9,"pc_name":"Bellary","ac":95,"ac_name":"Sandur","booth":56,"booth_name":"Government Composite Pre Uniersity College, Behind Apmc, Room No 2,sandur"},"geometry":{"type":"Point","coordinates":[76.53828,15.075386]}},{"type":"Feature","properties":{"state":"Karnataka","district":12,"district_n":"BELLARY","pc":9,"pc_name":"Bellary","ac":95,"ac_name":"Sandur","booth":59,"booth_name":"Government Lower Primary School, Near 8 Kolai,room No 3, Sandur"},"geometry":{"type":"Point","coordinates":[76.53828,15.075386]}},{"type":"Feature","properties":{"state":"Karnataka","district":12,"district_n":"BELLARY","pc":9,"pc_name":"Bellary","ac":95,"ac_name":"Sandur","booth":82,"booth_name":"Vishal Balawadi (hlc)j S W Foundation,north Wing Torangallu Rs"},"geometry":{"type":"Point","coordinates":[76.6587,15.1979885]}},{"type":"Feature","properties":{"state":"Karnataka","district":12,"district_n":"BELLARY","pc":9,"pc_name":"Bellary","ac":95,"ac_name":"Sandur","booth":99,"booth_name":"Gramapanchayathi Office, New Building,room No 2, Hosa Daroji"},"geometry":{"type":"Point","coordinates":[76.66287,15.2004271]}},{"type":"Feature","properties":{"state":"Karnataka","district":12,"district_n":"BELLARY","pc":9,"pc_name":"Bellary","ac":95,"ac_name":"Sandur","booth":94,"booth_name":"Government Government Higher Primary School, Hale Daroji"},"geometry":{"type":"Point","coordinates":[76.67321,15.2498026]}},{"type":"Feature","properties":{"state":"Karnataka","district":12,"district_n":"BELLARY","pc":9,"pc_name":"Bellary","ac":95,"ac_name":"Sandur","booth":96,"booth_name":"Government Lower Primary School, Hosdaroj"},"geometry":{"type":"Point","coordinates":[76.67321,15.2498026]}},{"type":"Feature","properties":{"state":"Karnataka","district":12,"district_n":"BELLARY","pc":9,"pc_name":"Bellary","ac":95,"ac_name":"Sandur","booth":97,"booth_name":"Government Government Composit High School, School, Hosa Daroji"},"geometry":{"type":"Point","coordinates":[76.664856,15.2066488]}},{"type":"Feature","properties":{"state":"Karnataka","district":12,"district_n":"BELLARY","pc":9,"pc_name":"Bellary","ac":95,"ac_name":"Sandur","booth":99,"booth_name":"Gramapanchayathi Office, New Building, Hosa Daroji"},"geometry":{"type":"Point","coordinates":[76.66287,15.2004271]}},{"type":"Feature","properties":{"state":"Karnataka","district":12,"district_n":"BELLARY","pc":9,"pc_name":"Bellary","ac":95,"ac_name":"Sandur","booth":160,"booth_name":"Government Lower Primary School, Shreeramashettihalli"},"geometry":{"type":"Point","coordinates":[76.43677,14.9672279]}},{"type":"Feature","properties":{"state":"Karnataka","district":12,"district_n":"BELLARY","pc":9,"pc_name":"Bellary","ac":95,"ac_name":"Sandur","booth":162,"booth_name":"Government Government Lower Primary School School School School Hosa Jogikallu"},"geometry":{"type":"Point","coordinates":[76.44776,14.9223547]}},{"type":"Feature","properties":{"state":"Karnataka","district":12,"district_n":"BELLARY","pc":9,"pc_name":"Bellary","ac":95,"ac_name":"Sandur","booth":163,"booth_name":"Government Government Lower Primary School School School Huchchenahalli,"},"geometry":{"type":"Point","coordinates":[76.47308,14.9325123]}},{"type":"Feature","properties":{"state":"Karnataka","district":12,"district_n":"BELLARY","pc":9,"pc_name":"Bellary","ac":95,"ac_name":"Sandur","booth":165,"booth_name":"Government Government Higher Primary School West wing Sovena Halli"},"geometry":{"type":"Point","coordinates":[76.49717,14.8835974]}},{"type":"Feature","properties":{"state":"Karnataka","district":12,"district_n":"BELLARY","pc":9,"pc_name":"Bellary","ac":95,"ac_name":"Sandur","booth":166,"booth_name":"Government Government Higher Primary School, Genathi Katti"},"geometry":{"type":"Point","coordinates":[76.49717,14.8835974]}},{"type":"Feature","properties":{"state":"Karnataka","district":12,"district_n":"BELLARY","pc":9,"pc_name":"Bellary","ac":95,"ac_name":"Sandur","booth":168,"booth_name":"Government Government Higher Primary School, School, Agrahara"},"geometry":{"type":"Point","coordinates":[76.49717,14.8835974]}},{"type":"Feature","properties":{"state":"Karnataka","district":12,"district_n":"BELLARY","pc":9,"pc_name":"Bellary","ac":95,"ac_name":"Sandur","booth":171,"booth_name":"Government Government Higher Primary School, Room No No 1 Chornur"},"geometry":{"type":"Point","coordinates":[76.5578,14.9204054]}},{"type":"Feature","properties":{"state":"Karnataka","district":12,"district_n":"BELLARY","pc":9,"pc_name":"Bellary","ac":95,"ac_name":"Sandur","booth":174,"booth_name":"Government Government Lower Primary School, Vadera Halli"},"geometry":{"type":"Point","coordinates":[76.5578,14.9204054]}},{"type":"Feature","properties":{"state":"Karnataka","district":12,"district_n":"BELLARY","pc":9,"pc_name":"Bellary","ac":95,"ac_name":"Sandur","booth":177,"booth_name":"Government Government Higher Primary School, Kalingeri"},"geometry":{"type":"Point","coordinates":[76.51939,14.9227686]}},{"type":"Feature","properties":{"state":"Karnataka","district":12,"district_n":"BELLARY","pc":9,"pc_name":"Bellary","ac":95,"ac_name":"Sandur","booth":179,"booth_name":"Government Government Higher Primary School, Ankalmmanhal"},"geometry":{"type":"Point","coordinates":[76.50914,14.993289]}},{"type":"Feature","properties":{"state":"Karnataka","district":12,"district_n":"BELLARY","pc":9,"pc_name":"Bellary","ac":95,"ac_name":"Sandur","booth":180,"booth_name":"Government Higher Primary School,new Building,ankamanahal"},"geometry":{"type":"Point","coordinates":[76.39591,14.8982058]}},{"type":"Feature","properties":{"state":"Karnataka","district":12,"district_n":"BELLARY","pc":9,"pc_name":"Bellary","ac":95,"ac_name":"Sandur","booth":182,"booth_name":"Government Government Higher Primary School, Devara mallapur"},"geometry":{"type":"Point","coordinates":[76.520195,14.9691505]}},{"type":"Feature","properties":{"state":"Karnataka","district":12,"district_n":"BELLARY","pc":9,"pc_name":"Bellary","ac":95,"ac_name":"Sandur","booth":183,"booth_name":"Government Lower Primary School,gollarahatti,"},"geometry":{"type":"Point","coordinates":[76.52171,14.9662237]}},{"type":"Feature","properties":{"state":"Karnataka","district":12,"district_n":"BELLARY","pc":9,"pc_name":"Bellary","ac":95,"ac_name":"Sandur","booth":185,"booth_name":"Government Lower Primary School,tyagadal"},"geometry":{"type":"Point","coordinates":[76.5436249,14.9374123]}},{"type":"Feature","properties":{"state":"Karnataka","district":12,"district_n":"BELLARY","pc":9,"pc_name":"Bellary","ac":95,"ac_name":"Sandur","booth":186,"booth_name":"Government Government Higher Primary School, Yerraiahana Halli"},"geometry":{"type":"Point","coordinates":[76.57927,14.9518223]}},{"type":"Feature","properties":{"state":"Karnataka","district":12,"district_n":"BELLARY","pc":9,"pc_name":"Bellary","ac":95,"ac_name":"Sandur","booth":188,"booth_name":"Government Urdu School,m Tumbraguddi"},"geometry":{"type":"Point","coordinates":[76.57199,14.9503136]}},{"type":"Feature","properties":{"state":"Karnataka","district":12,"district_n":"BELLARY","pc":9,"pc_name":"Bellary","ac":95,"ac_name":"Sandur","booth":191,"booth_name":"Government Government Higher Primary School, New Building, Nagena Halli"},"geometry":{"type":"Point","coordinates":[76.6254654,14.9843311]}},{"type":"Feature","properties":{"state":"Karnataka","district":12,"district_n":"BELLARY","pc":9,"pc_name":"Bellary","ac":95,"ac_name":"Sandur","booth":194,"booth_name":"Government Government Higher Primary School Bommagattagollaratti"},"geometry":{"type":"Point","coordinates":[76.5629,14.9318209]}},{"type":"Feature","properties":{"state":"Karnataka","district":12,"district_n":"BELLARY","pc":9,"pc_name":"Bellary","ac":95,"ac_name":"Sandur","booth":2,"booth_name":"Government Government Higher Primary School, Venkatagiri"},"geometry":{"type":"Point","coordinates":[76.42476,15.1998034]}},{"type":"Feature","properties":{"state":"Karnataka","district":12,"district_n":"BELLARY","pc":9,"pc_name":"Bellary","ac":95,"ac_name":"Sandur","booth":5,"booth_name":"Gramapanchayath office, Susheela Nagar"},"geometry":{"type":"Point","coordinates":[76.5404053,15.0874853]}},{"type":"Feature","properties":{"state":"Karnataka","district":12,"district_n":"BELLARY","pc":9,"pc_name":"Bellary","ac":95,"ac_name":"Sandur","booth":8,"booth_name":"Government Government Higher Primary School, Dowlatpura"},"geometry":{"type":"Point","coordinates":[76.5404053,15.0874853]}},{"type":"Feature","properties":{"state":"Karnataka","district":12,"district_n":"BELLARY","pc":9,"pc_name":"Bellary","ac":95,"ac_name":"Sandur","booth":11,"booth_name":"Government Higher Primary School, Krishnanagar"},"geometry":{"type":"Point","coordinates":[76.56507,15.0959349]}},{"type":"Feature","properties":{"state":"Karnataka","district":12,"district_n":"BELLARY","pc":9,"pc_name":"Bellary","ac":95,"ac_name":"Sandur","booth":13,"booth_name":"Government Government Composite High High School, New Building Building Krishna nagar"},"geometry":{"type":"Point","coordinates":[76.56507,15.0959349]}},{"type":"Feature","properties":{"state":"Karnataka","district":12,"district_n":"BELLARY","pc":9,"pc_name":"Bellary","ac":95,"ac_name":"Sandur","booth":14,"booth_name":"Government Model Higher Primary School, (east Wing) New building Taranagara"},"geometry":{"type":"Point","coordinates":[76.61248,15.15102]}},{"type":"Feature","properties":{"state":"Karnataka","district":12,"district_n":"BELLARY","pc":9,"pc_name":"Bellary","ac":95,"ac_name":"Sandur","booth":16,"booth_name":"Government Model Higher Primary School, Near Anganawadi Center Taranagara"},"geometry":{"type":"Point","coordinates":[76.61405,15.14353]}},{"type":"Feature","properties":{"state":"Karnataka","district":12,"district_n":"BELLARY","pc":9,"pc_name":"Bellary","ac":95,"ac_name":"Sandur","booth":17,"booth_name":"Anganavadi Kendra Taranagar"},"geometry":{"type":"Point","coordinates":[76.61405,15.14353]}},{"type":"Feature","properties":{"state":"Karnataka","district":12,"district_n":"BELLARY","pc":9,"pc_name":"Bellary","ac":95,"ac_name":"Sandur","booth":19,"booth_name":"Kendriya Vidyalaya Hps Hps Donimalai T S"},"geometry":{"type":"Point","coordinates":[76.5987,15.0574818]}},{"type":"Feature","properties":{"state":"Karnataka","district":12,"district_n":"BELLARY","pc":9,"pc_name":"Bellary","ac":95,"ac_name":"Sandur","booth":20,"booth_name":"Kendriya Vidyalaya Hps Donimalai T S"},"geometry":{"type":"Point","coordinates":[76.5987,15.0574818]}},{"type":"Feature","properties":{"state":"Karnataka","district":12,"district_n":"BELLARY","pc":9,"pc_name":"Bellary","ac":95,"ac_name":"Sandur","booth":22,"booth_name":"Kendriya Vidyalaya Nmdc Room no 3(new building)donimalai T S"},"geometry":{"type":"Point","coordinates":[76.59163,15.0602255]}},{"type":"Feature","properties":{"state":"Karnataka","district":12,"district_n":"BELLARY","pc":9,"pc_name":"Bellary","ac":95,"ac_name":"Sandur","booth":25,"booth_name":"Government Government Lower Primary School, Narayanapura"},"geometry":{"type":"Point","coordinates":[76.66184,14.9950151]}},{"type":"Feature","properties":{"state":"Karnataka","district":12,"district_n":"BELLARY","pc":9,"pc_name":"Bellary","ac":95,"ac_name":"Sandur","booth":28,"booth_name":"Smiore High School, West Wing, Deogiri"},"geometry":{"type":"Point","coordinates":[76.62274,15.011405]}},{"type":"Feature","properties":{"state":"Karnataka","district":12,"district_n":"BELLARY","pc":9,"pc_name":"Bellary","ac":95,"ac_name":"Sandur","booth":31,"booth_name":"Government Government Model Higher Primary School, East Wing Room No No 1,bhujanga nagar"},"geometry":{"type":"Point","coordinates":[76.55488,15.0881329]}},{"type":"Feature","properties":{"state":"Karnataka","district":12,"district_n":"BELLARY","pc":9,"pc_name":"Bellary","ac":95,"ac_name":"Sandur","booth":33,"booth_name":"Gram Panchayat Office,bhujanganagar"},"geometry":{"type":"Point","coordinates":[76.55488,15.0881329]}},{"type":"Feature","properties":{"state":"Karnataka","district":12,"district_n":"BELLARY","pc":9,"pc_name":"Bellary","ac":95,"ac_name":"Sandur","booth":34,"booth_name":"Government Model Higher Primary School, West Wing Bhujanga nagar"},"geometry":{"type":"Point","coordinates":[76.55488,15.0881329]}},{"type":"Feature","properties":{"state":"Karnataka","district":12,"district_n":"BELLARY","pc":9,"pc_name":"Bellary","ac":95,"ac_name":"Sandur","booth":36,"booth_name":"Government Higher Primary School, (last but one) Yashawantha Nagar"},"geometry":{"type":"Point","coordinates":[76.49428,15.0451174]}},{"type":"Feature","properties":{"state":"Karnataka","district":12,"district_n":"BELLARY","pc":9,"pc_name":"Bellary","ac":95,"ac_name":"Sandur","booth":37,"booth_name":"Government Higher Primary School, Room No 3 Yashawantha Nagar"},"geometry":{"type":"Point","coordinates":[76.49842,15.0449171]}},{"type":"Feature","properties":{"state":"Karnataka","district":12,"district_n":"BELLARY","pc":9,"pc_name":"Bellary","ac":95,"ac_name":"Sandur","booth":39,"booth_name":"Smiore Smiore Higher Primary School, (aided) Subrayana Halli"},"geometry":{"type":"Point","coordinates":[76.55487,15.0097818]}},{"type":"Feature","properties":{"state":"Karnataka","district":12,"district_n":"BELLARY","pc":9,"pc_name":"Bellary","ac":95,"ac_name":"Sandur","booth":40,"booth_name":"Sri Kumar Swamy Model Higher Primary School (east wing)sandur"},"geometry":{"type":"Point","coordinates":[76.54396,15.0849552]}},{"type":"Feature","properties":{"state":"Karnataka","district":12,"district_n":"BELLARY","pc":9,"pc_name":"Bellary","ac":95,"ac_name":"Sandur","booth":42,"booth_name":"Sri Kumar Swamy Model Higher Primary School (north wing)sandur"},"geometry":{"type":"Point","coordinates":[76.54396,15.0849552]}},{"type":"Feature","properties":{"state":"Karnataka","district":12,"district_n":"BELLARY","pc":9,"pc_name":"Bellary","ac":95,"ac_name":"Sandur","booth":45,"booth_name":"Government Higher Primary School ward no 6 near virakti mutt Sandur"},"geometry":{"type":"Point","coordinates":[76.55488,15.0881329]}},{"type":"Feature","properties":{"state":"Karnataka","district":12,"district_n":"BELLARY","pc":9,"pc_name":"Bellary","ac":95,"ac_name":"Sandur","booth":48,"booth_name":"Government Urdu Composit High School near near Keb Office Sandur"},"geometry":{"type":"Point","coordinates":[76.5404053,15.0874853]}},{"type":"Feature","properties":{"state":"Karnataka","district":12,"district_n":"BELLARY","pc":9,"pc_name":"Bellary","ac":95,"ac_name":"Sandur","booth":51,"booth_name":"Block Education Office Sandur"},"geometry":{"type":"Point","coordinates":[76.53828,15.075386]}},{"type":"Feature","properties":{"state":"Karnataka","district":12,"district_n":"BELLARY","pc":9,"pc_name":"Bellary","ac":95,"ac_name":"Sandur","booth":53,"booth_name":"Assistant Exicutive Engeenering office (zilla Panchyat) Sandur"},"geometry":{"type":"Point","coordinates":[76.5404053,15.0874853]}},{"type":"Feature","properties":{"state":"Karnataka","district":12,"district_n":"BELLARY","pc":9,"pc_name":"Bellary","ac":95,"ac_name":"Sandur","booth":54,"booth_name":"Government Government Higher Primary School 14th ward North wing chapparadalli Sandur"},"geometry":{"type":"Point","coordinates":[76.53828,15.075386]}},{"type":"Feature","properties":{"state":"Karnataka","district":12,"district_n":"BELLARY","pc":9,"pc_name":"Bellary","ac":95,"ac_name":"Sandur","booth":56,"booth_name":"Government Composite Pre Uniersity College, Behind Apmc, Sandur"},"geometry":{"type":"Point","coordinates":[76.53828,15.075386]}},{"type":"Feature","properties":{"state":"Karnataka","district":12,"district_n":"BELLARY","pc":9,"pc_name":"Bellary","ac":95,"ac_name":"Sandur","booth":57,"booth_name":"Government Government Higher Primary School 14th ward west wing chapparadalli Sandur"},"geometry":{"type":"Point","coordinates":[76.53828,15.075386]}},{"type":"Feature","properties":{"state":"Karnataka","district":12,"district_n":"BELLARY","pc":9,"pc_name":"Bellary","ac":95,"ac_name":"Sandur","booth":59,"booth_name":"Government Lower Primary School, Near 8 Kolai, Sandur"},"geometry":{"type":"Point","coordinates":[76.53828,15.075386]}},{"type":"Feature","properties":{"state":"Karnataka","district":12,"district_n":"BELLARY","pc":9,"pc_name":"Bellary","ac":95,"ac_name":"Sandur","booth":60,"booth_name":"Government Composite High School (north wing) Lakshmipura"},"geometry":{"type":"Point","coordinates":[76.55488,15.0881329]}},{"type":"Feature","properties":{"state":"Karnataka","district":12,"district_n":"BELLARY","pc":9,"pc_name":"Bellary","ac":95,"ac_name":"Sandur","booth":65,"booth_name":"Government Government Higher Primary School , Joga"},"geometry":{"type":"Point","coordinates":[76.55014,15.1840668]}},{"type":"Feature","properties":{"state":"Karnataka","district":12,"district_n":"BELLARY","pc":9,"pc_name":"Bellary","ac":95,"ac_name":"Sandur","booth":62,"booth_name":"Government Higher Primary School, Nandihalli"},"geometry":{"type":"Point","coordinates":[76.57067,15.0346308]}},{"type":"Feature","properties":{"state":"Karnataka","district":12,"district_n":"BELLARY","pc":9,"pc_name":"Bellary","ac":95,"ac_name":"Sandur","booth":63,"booth_name":"Government Government Higher Primary School, Bannihatti"},"geometry":{"type":"Point","coordinates":[76.6146851,15.1439247]}},{"type":"Feature","properties":{"state":"Karnataka","district":12,"district_n":"BELLARY","pc":9,"pc_name":"Bellary","ac":95,"ac_name":"Sandur","booth":68,"booth_name":"Government Higher Primary School,new Building Talur"},"geometry":{"type":"Point","coordinates":[76.6299744,15.1812038]}},{"type":"Feature","properties":{"state":"Karnataka","district":12,"district_n":"BELLARY","pc":9,"pc_name":"Bellary","ac":95,"ac_name":"Sandur","booth":71,"booth_name":"Government Government Higher Primary School,s Basapura Road, Vaddu"},"geometry":{"type":"Point","coordinates":[76.6288147,15.1909628]}},{"type":"Feature","properties":{"state":"Karnataka","district":12,"district_n":"BELLARY","pc":9,"pc_name":"Bellary","ac":95,"ac_name":"Sandur","booth":74,"booth_name":"Kendriya Vidyalaya, Room No 2,vidyanagar"},"geometry":{"type":"Point","coordinates":[76.62869,15.1721039]}},{"type":"Feature","properties":{"state":"Karnataka","district":12,"district_n":"BELLARY","pc":9,"pc_name":"Bellary","ac":95,"ac_name":"Sandur","booth":76,"booth_name":"Government Government Higher Primary School,s Basapura Road, Vaddu"},"geometry":{"type":"Point","coordinates":[76.6288147,15.1909628]}},{"type":"Feature","properties":{"state":"Karnataka","district":12,"district_n":"BELLARY","pc":9,"pc_name":"Bellary","ac":95,"ac_name":"Sandur","booth":77,"booth_name":"Government Government Higher Primary School, S Basapura"},"geometry":{"type":"Point","coordinates":[76.63671,15.1997423]}},{"type":"Feature","properties":{"state":"Karnataka","district":12,"district_n":"BELLARY","pc":9,"pc_name":"Bellary","ac":95,"ac_name":"Sandur","booth":79,"booth_name":"Anganavadi Kendra,kurekuppa"},"geometry":{"type":"Point","coordinates":[76.647995,15.2166262]}},{"type":"Feature","properties":{"state":"Karnataka","district":12,"district_n":"BELLARY","pc":9,"pc_name":"Bellary","ac":95,"ac_name":"Sandur","booth":80,"booth_name":"Government Government Higher Primary School School West West West Wing Room No 3, Kurekuppa"},"geometry":{"type":"Point","coordinates":[76.64836,15.21694]}},{"type":"Feature","properties":{"state":"Karnataka","district":12,"district_n":"BELLARY","pc":9,"pc_name":"Bellary","ac":95,"ac_name":"Sandur","booth":82,"booth_name":"Vishal Balawadi (hlc)j S W Foundation West Wing Torangallu Rs"},"geometry":{"type":"Point","coordinates":[76.65887,15.1981421]}},{"type":"Feature","properties":{"state":"Karnataka","district":12,"district_n":"BELLARY","pc":9,"pc_name":"Bellary","ac":95,"ac_name":"Sandur","booth":83,"booth_name":"Vishal Balawadi (hlc)j S W Foundation East Wing Torangallu Rs"},"geometry":{"type":"Point","coordinates":[76.6587,15.1979885]}},{"type":"Feature","properties":{"state":"Karnataka","district":12,"district_n":"BELLARY","pc":9,"pc_name":"Bellary","ac":95,"ac_name":"Sandur","booth":85,"booth_name":"Basaveshwara Rural High School East Wing Torangallu Rs"},"geometry":{"type":"Point","coordinates":[76.6576,15.2016459]}},{"type":"Feature","properties":{"state":"Karnataka","district":12,"district_n":"BELLARY","pc":9,"pc_name":"Bellary","ac":95,"ac_name":"Sandur","booth":88,"booth_name":"Government Model Higher Primary School East wing Torangallu"},"geometry":{"type":"Point","coordinates":[76.67553,15.1958294]}},{"type":"Feature","properties":{"state":"Karnataka","district":12,"district_n":"BELLARY","pc":9,"pc_name":"Bellary","ac":95,"ac_name":"Sandur","booth":197,"booth_name":"Government Government Higher Primary School ,s Oblapur"},"geometry":{"type":"Point","coordinates":[76.6254654,14.9844837]}},{"type":"Feature","properties":{"state":"Karnataka","district":12,"district_n":"BELLARY","pc":9,"pc_name":"Bellary","ac":95,"ac_name":"Sandur","booth":199,"booth_name":"Government Government Higher Primary School, Seliappanhalli"},"geometry":{"type":"Point","coordinates":[76.6254654,14.9844837]}},{"type":"Feature","properties":{"state":"Karnataka","district":12,"district_n":"BELLARY","pc":9,"pc_name":"Bellary","ac":95,"ac_name":"Sandur","booth":200,"booth_name":"Government Government Lower Primary School, Tokenhalli"},"geometry":{"type":"Point","coordinates":[76.58084,14.8735256]}},{"type":"Feature","properties":{"state":"Karnataka","district":12,"district_n":"BELLARY","pc":9,"pc_name":"Bellary","ac":95,"ac_name":"Sandur","booth":202,"booth_name":"Government Government Composit Highschool, Room No No 2, Hosa Daroji"},"geometry":{"type":"Point","coordinates":[76.664856,15.2066488]}},{"type":"Feature","properties":{"state":"Karnataka","district":12,"district_n":"BELLARY","pc":9,"pc_name":"Bellary","ac":95,"ac_name":"Sandur","booth":203,"booth_name":"Government Lower Primary School,d Upparahalli"},"geometry":{"type":"Point","coordinates":[76.51939,14.9227686]}},{"type":"Feature","properties":{"state":"Karnataka","district":12,"district_n":"BELLARY","pc":9,"pc_name":"Bellary","ac":95,"ac_name":"Sandur","booth":111,"booth_name":"Government Government Higher Primary School, Thumati"},"geometry":{"type":"Point","coordinates":[76.7778549,15.1009817]}},{"type":"Feature","properties":{"state":"Karnataka","district":12,"district_n":"BELLARY","pc":9,"pc_name":"Bellary","ac":95,"ac_name":"Sandur","booth":114,"booth_name":"Government Higher Primary School, Room No:1 ,g Basapura"},"geometry":{"type":"Point","coordinates":[76.63188,15.0024958]}},{"type":"Feature","properties":{"state":"Karnataka","district":12,"district_n":"BELLARY","pc":9,"pc_name":"Bellary","ac":95,"ac_name":"Sandur","booth":116,"booth_name":"Government Government Higher Primary School, M Lakkala Halli"},"geometry":{"type":"Point","coordinates":[76.7546844,15.0035524]}},{"type":"Feature","properties":{"state":"Karnataka","district":12,"district_n":"BELLARY","pc":9,"pc_name":"Bellary","ac":95,"ac_name":"Sandur","booth":117,"booth_name":"Governament Lower Primary School, M Ramasagar"},"geometry":{"type":"Point","coordinates":[76.63188,15.0024958]}},{"type":"Feature","properties":{"state":"Karnataka","district":12,"district_n":"BELLARY","pc":9,"pc_name":"Bellary","ac":95,"ac_name":"Sandur","booth":119,"booth_name":"Government Composite High School, Room No No 1 U U Rajapur"},"geometry":{"type":"Point","coordinates":[76.6875839,15.03044]}},{"type":"Feature","properties":{"state":"Karnataka","district":12,"district_n":"BELLARY","pc":9,"pc_name":"Bellary","ac":95,"ac_name":"Sandur","booth":120,"booth_name":"Government Government Higher Primary School, Ubbalagandi"},"geometry":{"type":"Point","coordinates":[76.65497,15.0496874]}},{"type":"Feature","properties":{"state":"Karnataka","district":12,"district_n":"BELLARY","pc":9,"pc_name":"Bellary","ac":95,"ac_name":"Sandur","booth":122,"booth_name":"G H P School,thimmalapura"},"geometry":{"type":"Point","coordinates":[76.7215958,15.215456]}},{"type":"Feature","properties":{"state":"Karnataka","district":12,"district_n":"BELLARY","pc":9,"pc_name":"Bellary","ac":95,"ac_name":"Sandur","booth":123,"booth_name":"G H P School, Elubenchi"},"geometry":{"type":"Point","coordinates":[76.7323456,15.2519436]}},{"type":"Feature","properties":{"state":"Karnataka","district":12,"district_n":"BELLARY","pc":9,"pc_name":"Bellary","ac":95,"ac_name":"Sandur","booth":125,"booth_name":"G H P S School, (new Building) Elubenchi"},"geometry":{"type":"Point","coordinates":[76.73263,15.2517643]}},{"type":"Feature","properties":{"state":"Karnataka","district":12,"district_n":"BELLARY","pc":9,"pc_name":"Bellary","ac":95,"ac_name":"Sandur","booth":128,"booth_name":"G H P School, East Wing, Kudithini"},"geometry":{"type":"Point","coordinates":[76.7603,15.1985016]}},{"type":"Feature","properties":{"state":"Karnataka","district":12,"district_n":"BELLARY","pc":9,"pc_name":"Bellary","ac":95,"ac_name":"Sandur","booth":131,"booth_name":"G H P School, Ambedkar colony, Kudithini"},"geometry":{"type":"Point","coordinates":[76.75435,15.1993847]}},{"type":"Feature","properties":{"state":"Karnataka","district":12,"district_n":"BELLARY","pc":9,"pc_name":"Bellary","ac":95,"ac_name":"Sandur","booth":134,"booth_name":"Governament Higher Primary School,room No 1, Indiranagar, Kudutini"},"geometry":{"type":"Point","coordinates":[76.75361,15.1995831]}},{"type":"Feature","properties":{"state":"Karnataka","district":12,"district_n":"BELLARY","pc":9,"pc_name":"Bellary","ac":95,"ac_name":"Sandur","booth":137,"booth_name":"Gramapanchayathi office, Kudithini"},"geometry":{"type":"Point","coordinates":[76.7584,15.1980705]}},{"type":"Feature","properties":{"state":"Karnataka","district":12,"district_n":"BELLARY","pc":9,"pc_name":"Bellary","ac":95,"ac_name":"Sandur","booth":139,"booth_name":"H B Composite junior collage, Left wing, Kudithini"},"geometry":{"type":"Point","coordinates":[76.75953,15.1985168]}},{"type":"Feature","properties":{"state":"Karnataka","district":12,"district_n":"BELLARY","pc":9,"pc_name":"Bellary","ac":95,"ac_name":"Sandur","booth":140,"booth_name":"Community hall building, Near new bus stand, Kudithini"},"geometry":{"type":"Point","coordinates":[76.7605438,15.1978645]}},{"type":"Feature","properties":{"state":"Karnataka","district":12,"district_n":"BELLARY","pc":9,"pc_name":"Bellary","ac":95,"ac_name":"Sandur","booth":142,"booth_name":"Government Government Higher Primary School, School, Motal kunta"},"geometry":{"type":"Point","coordinates":[76.705246,14.9715538]}},{"type":"Feature","properties":{"state":"Karnataka","district":12,"district_n":"BELLARY","pc":9,"pc_name":"Bellary","ac":95,"ac_name":"Sandur","booth":143,"booth_name":"Ghps New building Gollalingammana Halli"},"geometry":{"type":"Point","coordinates":[76.63183,15.0025616]}},{"type":"Feature","properties":{"state":"Karnataka","district":12,"district_n":"BELLARY","pc":9,"pc_name":"Bellary","ac":95,"ac_name":"Sandur","booth":145,"booth_name":"Government Government Higher Higher Primary School New building , Tstreetsigeri"},"geometry":{"type":"Point","coordinates":[76.6254654,14.9843311]}},{"type":"Feature","properties":{"state":"Karnataka","district":12,"district_n":"BELLARY","pc":9,"pc_name":"Bellary","ac":95,"ac_name":"Sandur","booth":146,"booth_name":"Anganavadi Kendra, Bandri"},"geometry":{"type":"Point","coordinates":[76.4473343,14.998229]}},{"type":"Feature","properties":{"state":"Karnataka","district":12,"district_n":"BELLARY","pc":9,"pc_name":"Bellary","ac":95,"ac_name":"Sandur","booth":148,"booth_name":"Government Government Higher Primary School, Middle Room, Bandri"},"geometry":{"type":"Point","coordinates":[76.4473343,14.998229]}},{"type":"Feature","properties":{"state":"Karnataka","district":12,"district_n":"BELLARY","pc":9,"pc_name":"Bellary","ac":95,"ac_name":"Sandur","booth":151,"booth_name":"Government Government Higher Primary School School Kodihalli"},"geometry":{"type":"Point","coordinates":[76.46397,14.98702]}},{"type":"Feature","properties":{"state":"Karnataka","district":12,"district_n":"BELLARY","pc":9,"pc_name":"Bellary","ac":95,"ac_name":"Sandur","booth":154,"booth_name":"Government Lower Primary School,uttaramalai"},"geometry":{"type":"Point","coordinates":[76.44706,14.99832]}},{"type":"Feature","properties":{"state":"Karnataka","district":12,"district_n":"BELLARY","pc":9,"pc_name":"Bellary","ac":95,"ac_name":"Sandur","booth":100,"booth_name":"Government Government Composite High School, Room No No 1 D Antapur"},"geometry":{"type":"Point","coordinates":[76.6925659,15.1368847]}},{"type":"Feature","properties":{"state":"Karnataka","district":12,"district_n":"BELLARY","pc":9,"pc_name":"Bellary","ac":95,"ac_name":"Sandur","booth":102,"booth_name":"Government Government Composite High School, School, Room No No 2, D Antapur"},"geometry":{"type":"Point","coordinates":[76.6925659,15.1368847]}},{"type":"Feature","properties":{"state":"Karnataka","district":12,"district_n":"BELLARY","pc":9,"pc_name":"Bellary","ac":95,"ac_name":"Sandur","booth":103,"booth_name":"Government Government Higher Primary School, Chikkanthapura"},"geometry":{"type":"Point","coordinates":[76.6925659,15.1368847]}},{"type":"Feature","properties":{"state":"Karnataka","district":12,"district_n":"BELLARY","pc":9,"pc_name":"Bellary","ac":95,"ac_name":"Sandur","booth":105,"booth_name":"Government Higher Primary School, New Building, Lingadalli"},"geometry":{"type":"Point","coordinates":[76.61106,15.1262274]}},{"type":"Feature","properties":{"state":"Karnataka","district":12,"district_n":"BELLARY","pc":9,"pc_name":"Bellary","ac":95,"ac_name":"Sandur","booth":108,"booth_name":"Government Government Higher Primary School, West wing Vittalapura"},"geometry":{"type":"Point","coordinates":[76.63188,15.0024958]}},{"type":"Feature","properties":{"state":"Karnataka","district":12,"district_n":"BELLARY","pc":9,"pc_name":"Bellary","ac":95,"ac_name":"Sandur","booth":93,"booth_name":"Gramapanchayath office, Torangallu"},"geometry":{"type":"Point","coordinates":[76.67575,15.1964312]}},{"type":"Feature","properties":{"state":"Karnataka","district":12,"district_n":"BELLARY","pc":9,"pc_name":"Bellary","ac":95,"ac_name":"Sandur","booth":104,"booth_name":"Government Government Higher Primary School, Kodalu"},"geometry":{"type":"Point","coordinates":[76.6925659,15.1368847]}},{"type":"Feature","properties":{"state":"Karnataka","district":12,"district_n":"BELLARY","pc":9,"pc_name":"Bellary","ac":95,"ac_name":"Sandur","booth":107,"booth_name":"Government Lower Primary School,marutla"},"geometry":{"type":"Point","coordinates":[76.6882553,15.1009893]}},{"type":"Feature","properties":{"state":"Karnataka","district":12,"district_n":"BELLARY","pc":9,"pc_name":"Bellary","ac":95,"ac_name":"Sandur","booth":81,"booth_name":"Government Government Higher Primary School, North North wing Kurekuppa"},"geometry":{"type":"Point","coordinates":[76.64845,15.2169142]}},{"type":"Feature","properties":{"state":"Karnataka","district":12,"district_n":"BELLARY","pc":9,"pc_name":"Bellary","ac":95,"ac_name":"Sandur","booth":157,"booth_name":"Government Government Higher Higher Primary School, 73 73 Hulikunta"},"geometry":{"type":"Point","coordinates":[76.3969345,15.0032787]}},{"type":"Feature","properties":{"state":"Karnataka","district":12,"district_n":"BELLARY","pc":9,"pc_name":"Bellary","ac":95,"ac_name":"Sandur","booth":159,"booth_name":"Government Government Higher Higher Primary School, Chikka Keriyagina halli"},"geometry":{"type":"Point","coordinates":[76.37589,14.9502325]}},{"type":"Feature","properties":{"state":"Karnataka","district":12,"district_n":"BELLARY","pc":9,"pc_name":"Bellary","ac":95,"ac_name":"Sandur","booth":110,"booth_name":"Government Government Higher Primary School, East wing Vittalapur"},"geometry":{"type":"Point","coordinates":[76.63188,15.0024958]}},{"type":"Feature","properties":{"state":"Karnataka","district":12,"district_n":"BELLARY","pc":9,"pc_name":"Bellary","ac":95,"ac_name":"Sandur","booth":113,"booth_name":"Government Government Lower Primary School School School M Gangalapura"},"geometry":{"type":"Point","coordinates":[76.76523,15.0494051]}},{"type":"Feature","properties":{"state":"Karnataka","district":12,"district_n":"BELLARY","pc":9,"pc_name":"Bellary","ac":95,"ac_name":"Sandur","booth":121,"booth_name":"G H P School, Thimmalapura"},"geometry":{"type":"Point","coordinates":[76.7213745,15.21542]}},{"type":"Feature","properties":{"state":"Karnataka","district":12,"district_n":"BELLARY","pc":9,"pc_name":"Bellary","ac":95,"ac_name":"Sandur","booth":124,"booth_name":"G H P School, New building, Elubenchi"},"geometry":{"type":"Point","coordinates":[76.73244,15.2517385]}},{"type":"Feature","properties":{"state":"Karnataka","district":12,"district_n":"BELLARY","pc":9,"pc_name":"Bellary","ac":95,"ac_name":"Sandur","booth":127,"booth_name":"G H P School,room No 2, Veniveerapura"},"geometry":{"type":"Point","coordinates":[76.80225,15.1966314]}},{"type":"Feature","properties":{"state":"Karnataka","district":12,"district_n":"BELLARY","pc":9,"pc_name":"Bellary","ac":95,"ac_name":"Sandur","booth":133,"booth_name":"Anganavadi centre, Near water tank, Kudithini"},"geometry":{"type":"Point","coordinates":[76.76207,15.1994038]}},{"type":"Feature","properties":{"state":"Karnataka","district":12,"district_n":"BELLARY","pc":9,"pc_name":"Bellary","ac":95,"ac_name":"Sandur","booth":144,"booth_name":"Government Lower Primary School,bommalagunda"},"geometry":{"type":"Point","coordinates":[76.63183,15.0025616]}},{"type":"Feature","properties":{"state":"Karnataka","district":12,"district_n":"BELLARY","pc":9,"pc_name":"Bellary","ac":95,"ac_name":"Sandur","booth":147,"booth_name":"Government Higher Primary School,bandri"},"geometry":{"type":"Point","coordinates":[76.4473343,14.998229]}},{"type":"Feature","properties":{"state":"Karnataka","district":12,"district_n":"BELLARY","pc":9,"pc_name":"Bellary","ac":95,"ac_name":"Sandur","booth":136,"booth_name":"H B Composite junior college, Right wing, Kudithini"},"geometry":{"type":"Point","coordinates":[76.75938,15.1985893]}},{"type":"Feature","properties":{"state":"Karnataka","district":12,"district_n":"BELLARY","pc":9,"pc_name":"Bellary","ac":95,"ac_name":"Sandur","booth":170,"booth_name":"Government Government Lower Primary School School School School Soor Avvanahalli"},"geometry":{"type":"Point","coordinates":[76.49717,14.8835974]}},{"type":"Feature","properties":{"state":"Karnataka","district":12,"district_n":"BELLARY","pc":9,"pc_name":"Bellary","ac":95,"ac_name":"Sandur","booth":173,"booth_name":"Government Higher Primary School, Room No No 3 Chornur"},"geometry":{"type":"Point","coordinates":[76.51939,14.9227686]}},{"type":"Feature","properties":{"state":"Karnataka","district":12,"district_n":"BELLARY","pc":9,"pc_name":"Bellary","ac":95,"ac_name":"Sandur","booth":176,"booth_name":"Government Government Higher Primary School, New building building Tippana maradi"},"geometry":{"type":"Point","coordinates":[76.51939,14.9227686]}},{"type":"Feature","properties":{"state":"Karnataka","district":12,"district_n":"BELLARY","pc":9,"pc_name":"Bellary","ac":95,"ac_name":"Sandur","booth":184,"booth_name":"Government Government Higher Primary School, Jigena halli"},"geometry":{"type":"Point","coordinates":[76.5436249,14.9374123]}},{"type":"Feature","properties":{"state":"Karnataka","district":12,"district_n":"BELLARY","pc":9,"pc_name":"Bellary","ac":95,"ac_name":"Sandur","booth":187,"booth_name":"Government Government Composite High School, M Tumbara Guddi"},"geometry":{"type":"Point","coordinates":[76.57085,14.9489231]}},{"type":"Feature","properties":{"state":"Karnataka","district":12,"district_n":"BELLARY","pc":9,"pc_name":"Bellary","ac":95,"ac_name":"Sandur","booth":190,"booth_name":"Government Government Higher Primary School, Yaradammanhalli"},"geometry":{"type":"Point","coordinates":[76.38649,14.9088192]}},{"type":"Feature","properties":{"state":"Karnataka","district":12,"district_n":"BELLARY","pc":9,"pc_name":"Bellary","ac":95,"ac_name":"Sandur","booth":91,"booth_name":"Government Model Higher Primary School, West wing Torangallu"},"geometry":{"type":"Point","coordinates":[76.67566,15.1958113]}},{"type":"Feature","properties":{"state":"Karnataka","district":12,"district_n":"BELLARY","pc":9,"pc_name":"Bellary","ac":95,"ac_name":"Sandur","booth":24,"booth_name":"Government Government Lower Primary School new building, Vittalanagar"},"geometry":{"type":"Point","coordinates":[76.5987,15.0574818]}},{"type":"Feature","properties":{"state":"Karnataka","district":12,"district_n":"BELLARY","pc":9,"pc_name":"Bellary","ac":95,"ac_name":"Sandur","booth":27,"booth_name":"Government Government Lower Primary School School Deogiri Halli Halli (kamattur)"},"geometry":{"type":"Point","coordinates":[76.62274,15.011405]}},{"type":"Feature","properties":{"state":"Karnataka","district":12,"district_n":"BELLARY","pc":9,"pc_name":"Bellary","ac":95,"ac_name":"Sandur","booth":21,"booth_name":"Kendriya Vidyalaya Nmdc Room no 1 Donimalai T S"},"geometry":{"type":"Point","coordinates":[76.5987,15.0574818]}},{"type":"Feature","properties":{"state":"Karnataka","district":12,"district_n":"BELLARY","pc":9,"pc_name":"Bellary","ac":95,"ac_name":"Sandur","booth":4,"booth_name":"Government Government Higher Primary School, Susheela nagar"},"geometry":{"type":"Point","coordinates":[76.5404053,15.0874853]}},{"type":"Feature","properties":{"state":"Karnataka","district":12,"district_n":"BELLARY","pc":9,"pc_name":"Bellary","ac":95,"ac_name":"Sandur","booth":10,"booth_name":"Government Government Higher Primary School, Old Buildign Krishnanagar"},"geometry":{"type":"Point","coordinates":[76.56507,15.0959349]}},{"type":"Feature","properties":{"state":"Karnataka","district":12,"district_n":"BELLARY","pc":9,"pc_name":"Bellary","ac":95,"ac_name":"Sandur","booth":44,"booth_name":"Government Higher Primary School ward no 6 near virakti mutt Sandur"},"geometry":{"type":"Point","coordinates":[76.54396,15.0849552]}},{"type":"Feature","properties":{"state":"Karnataka","district":12,"district_n":"BELLARY","pc":9,"pc_name":"Bellary","ac":95,"ac_name":"Sandur","booth":47,"booth_name":"Government Government Higher Primary School Near sai baba Temple (east wing)sandur"},"geometry":{"type":"Point","coordinates":[76.55488,15.0881329]}},{"type":"Feature","properties":{"state":"Karnataka","district":12,"district_n":"BELLARY","pc":9,"pc_name":"Bellary","ac":95,"ac_name":"Sandur","booth":50,"booth_name":"Block Education Office Sandur"},"geometry":{"type":"Point","coordinates":[76.53828,15.075386]}},{"type":"Feature","properties":{"state":"Karnataka","district":12,"district_n":"BELLARY","pc":9,"pc_name":"Bellary","ac":95,"ac_name":"Sandur","booth":61,"booth_name":"Government Composite High School (south wing ) Lakshmipura"},"geometry":{"type":"Point","coordinates":[76.54396,15.0849552]}},{"type":"Feature","properties":{"state":"Karnataka","district":12,"district_n":"BELLARY","pc":9,"pc_name":"Bellary","ac":95,"ac_name":"Sandur","booth":64,"booth_name":"Ggovernment Ggovernment Lower Primary School School S Gangalapur"},"geometry":{"type":"Point","coordinates":[76.6146851,15.1439247]}},{"type":"Feature","properties":{"state":"Karnataka","district":12,"district_n":"BELLARY","pc":9,"pc_name":"Bellary","ac":95,"ac_name":"Sandur","booth":70,"booth_name":"Government Government Higher Primary School,s Basapura Road, Vaddu"},"geometry":{"type":"Point","coordinates":[76.6288147,15.1909628]}},{"type":"Feature","properties":{"state":"Karnataka","district":12,"district_n":"BELLARY","pc":9,"pc_name":"Bellary","ac":95,"ac_name":"Sandur","booth":73,"booth_name":"Sports Club,vidya nagar"},"geometry":{"type":"Point","coordinates":[76.63469,15.1715612]}},{"type":"Feature","properties":{"state":"Karnataka","district":12,"district_n":"BELLARY","pc":9,"pc_name":"Bellary","ac":95,"ac_name":"Sandur","booth":81,"booth_name":"Government Government Higher Primary School, East wing Kurekuppa"},"geometry":{"type":"Point","coordinates":[76.64845,15.2169142]}},{"type":"Feature","properties":{"state":"Karnataka","district":12,"district_n":"BELLARY","pc":9,"pc_name":"Bellary","ac":95,"ac_name":"Sandur","booth":84,"booth_name":"Government Higher Primary School,ghorpade Nagar, Toranagallu R S"},"geometry":{"type":"Point","coordinates":[76.65853,15.1981983]}},{"type":"Feature","properties":{"state":"Karnataka","district":12,"district_n":"BELLARY","pc":9,"pc_name":"Bellary","ac":95,"ac_name":"Sandur","booth":87,"booth_name":"Basaveshwara Rural High School,middle Wing, Toranagallu R S"},"geometry":{"type":"Point","coordinates":[76.6576,15.20131]}},{"type":"Feature","properties":{"state":"Karnataka","district":12,"district_n":"BELLARY","pc":9,"pc_name":"Bellary","ac":95,"ac_name":"Sandur","booth":90,"booth_name":"Government High School,east wing, By Pass Road, Toranagallu"},"geometry":{"type":"Point","coordinates":[76.675,15.1938076]}},{"type":"Feature","properties":{"state":"Karnataka","district":12,"district_n":"BELLARY","pc":9,"pc_name":"Bellary","ac":95,"ac_name":"Sandur","booth":193,"booth_name":"Government Composit high School,middle Wing,bommagatta"},"geometry":{"type":"Point","coordinates":[76.56313,14.9319077]}},{"type":"Feature","properties":{"state":"Karnataka","district":12,"district_n":"BELLARY","pc":9,"pc_name":"Bellary","ac":95,"ac_name":"Sandur","booth":196,"booth_name":"Government Government Higher Primary School School School Devara Buddena halli"},"geometry":{"type":"Point","coordinates":[76.6254654,14.9844837]}},{"type":"Feature","properties":{"state":"Karnataka","district":12,"district_n":"BELLARY","pc":9,"pc_name":"Bellary","ac":95,"ac_name":"Sandur","booth":204,"booth_name":"Government Lower Parimary School,mattajanahalli"},"geometry":{"type":"Point","coordinates":[76.6254654,14.9844837]}},{"type":"Feature","properties":{"state":"Karnataka","district":12,"district_n":"BELLARY","pc":9,"pc_name":"Bellary","ac":95,"ac_name":"Sandur","booth":130,"booth_name":"G H P School, North wing, Kudithini"},"geometry":{"type":"Point","coordinates":[76.76018,15.1990242]}},{"type":"Feature","properties":{"state":"Karnataka","district":12,"district_n":"BELLARY","pc":9,"pc_name":"Bellary","ac":95,"ac_name":"Sandur","booth":153,"booth_name":"Government Government Higher Primary School,katin Kamba"},"geometry":{"type":"Point","coordinates":[76.44706,14.99832]}},{"type":"Feature","properties":{"state":"Karnataka","district":12,"district_n":"BELLARY","pc":9,"pc_name":"Bellary","ac":95,"ac_name":"Sandur","booth":156,"booth_name":"Government Higher Higher Primary School,kondapura"},"geometry":{"type":"Point","coordinates":[76.44706,14.99832]}},{"type":"Feature","properties":{"state":"Karnataka","district":12,"district_n":"BELLARY","pc":9,"pc_name":"Bellary","ac":95,"ac_name":"Sandur","booth":164,"booth_name":"Government Government Higher Primary School, East wing Sovena halli"},"geometry":{"type":"Point","coordinates":[76.49717,14.8835974]}},{"type":"Feature","properties":{"state":"Karnataka","district":12,"district_n":"BELLARY","pc":9,"pc_name":"Bellary","ac":95,"ac_name":"Sandur","booth":167,"booth_name":"Government Government Lower Primary School School School School Mallarahalli"},"geometry":{"type":"Point","coordinates":[76.49717,14.8835974]}},{"type":"Feature","properties":{"state":"Karnataka","district":12,"district_n":"BELLARY","pc":9,"pc_name":"Bellary","ac":95,"ac_name":"Sandur","booth":150,"booth_name":"Government Lower Primary School School Bandri Gollarahatti Village"},"geometry":{"type":"Point","coordinates":[76.46316,14.9791584]}},{"type":"Feature","properties":{"state":"Karnataka","district":12,"district_n":"BELLARY","pc":9,"pc_name":"Bellary","ac":95,"ac_name":"Sandur","booth":1,"booth_name":"Government Higher Primary School New Building,jaisingapura"},"geometry":{"type":"Point","coordinates":[76.43924,15.1831083]}},{"type":"Feature","properties":{"state":"Karnataka","district":12,"district_n":"BELLARY","pc":9,"pc_name":"Bellary","ac":95,"ac_name":"Sandur","booth":101,"booth_name":"Government Government Lower Primary School Sulthanpura"},"geometry":{"type":"Point","coordinates":[76.7093,15.1610918]}},{"type":"Feature","properties":{"state":"Karnataka","district":12,"district_n":"BELLARY","pc":9,"pc_name":"Bellary","ac":95,"ac_name":"Sandur","booth":98,"booth_name":"Government Government Composit Highschool, Room No No 3, Hosa Daroji"},"geometry":{"type":"Point","coordinates":[76.664856,15.2066488]}},{"type":"Feature","properties":{"state":"Karnataka","district":12,"district_n":"BELLARY","pc":9,"pc_name":"Bellary","ac":95,"ac_name":"Sandur","booth":106,"booth_name":"Government Government Higher Primary School, Malapura"},"geometry":{"type":"Point","coordinates":[76.6925659,15.1368847]}},{"type":"Feature","properties":{"state":"Karnataka","district":12,"district_n":"BELLARY","pc":9,"pc_name":"Bellary","ac":95,"ac_name":"Sandur","booth":95,"booth_name":"Government Government Higher Primary School, Room No No 1 Madapur"},"geometry":{"type":"Point","coordinates":[76.67321,15.2498026]}},{"type":"Feature","properties":{"state":"Karnataka","district":12,"district_n":"BELLARY","pc":9,"pc_name":"Bellary","ac":95,"ac_name":"Sandur","booth":67,"booth_name":"Government Government Composit High School , West Wing, Talur"},"geometry":{"type":"Point","coordinates":[76.6288147,15.1909628]}},{"type":"Feature","properties":{"state":"Karnataka","district":12,"district_n":"BELLARY","pc":9,"pc_name":"Bellary","ac":95,"ac_name":"Sandur","booth":18,"booth_name":"Government Government Higher Primary School, Muraripura"},"geometry":{"type":"Point","coordinates":[76.5851,15.1332378]}},{"type":"Feature","properties":{"state":"Karnataka","district":12,"district_n":"BELLARY","pc":9,"pc_name":"Bellary","ac":95,"ac_name":"Sandur","booth":7,"booth_name":"Government Government Lower Primary School New building, building, Ramagad"},"geometry":{"type":"Point","coordinates":[76.41611,14.859334]}},{"type":"Feature","properties":{"state":"Karnataka","district":12,"district_n":"BELLARY","pc":9,"pc_name":"Bellary","ac":95,"ac_name":"Sandur","booth":30,"booth_name":"Governme higher Primary School School Ranajit Pura"},"geometry":{"type":"Point","coordinates":[76.60648,15.0461254]}},{"type":"Feature","properties":{"state":"Karnataka","district":12,"district_n":"BELLARY","pc":9,"pc_name":"Bellary","ac":95,"ac_name":"Sandur","booth":75,"booth_name":"Gramapanchayath office, Vaddu"},"geometry":{"type":"Point","coordinates":[76.6288147,15.1909628]}},{"type":"Feature","properties":{"state":"Karnataka","district":12,"district_n":"BELLARY","pc":9,"pc_name":"Bellary","ac":95,"ac_name":"Sandur","booth":9,"booth_name":"Government Higher Primary School Doulatpura"},"geometry":{"type":"Point","coordinates":[76.5404053,15.0874853]}},{"type":"Feature","properties":{"state":"Karnataka","district":12,"district_n":"BELLARY","pc":9,"pc_name":"Bellary","ac":95,"ac_name":"Sandur","booth":78,"booth_name":"Government Government Higher Primary School, South Wing Kurekuppa"},"geometry":{"type":"Point","coordinates":[76.64832,15.2168579]}},{"type":"Feature","properties":{"state":"Karnataka","district":12,"district_n":"BELLARY","pc":9,"pc_name":"Bellary","ac":95,"ac_name":"Sandur","booth":89,"booth_name":"Government Model Higher Primary School School School New Building, Toranagallu"},"geometry":{"type":"Point","coordinates":[76.67538,15.1960812]}},{"type":"Feature","properties":{"state":"Karnataka","district":12,"district_n":"BELLARY","pc":9,"pc_name":"Bellary","ac":95,"ac_name":"Sandur","booth":115,"booth_name":"Government Government Lower Primary School M Gunlahalli"},"geometry":{"type":"Point","coordinates":[76.63188,15.0024958]}},{"type":"Feature","properties":{"state":"Karnataka","district":12,"district_n":"BELLARY","pc":9,"pc_name":"Bellary","ac":95,"ac_name":"Sandur","booth":109,"booth_name":"Government Lower Primary School, Kererampura"},"geometry":{"type":"Point","coordinates":[76.63188,15.0024958]}},{"type":"Feature","properties":{"state":"Karnataka","district":12,"district_n":"BELLARY","pc":9,"pc_name":"Bellary","ac":95,"ac_name":"Sandur","booth":112,"booth_name":"Government Government Higher Primary School, Metriki"},"geometry":{"type":"Point","coordinates":[76.75258,15.0374317]}},{"type":"Feature","properties":{"state":"Karnataka","district":12,"district_n":"BELLARY","pc":9,"pc_name":"Bellary","ac":95,"ac_name":"Sandur","booth":118,"booth_name":"Government Government Composite High School, Room No 2 U Rajapura"},"geometry":{"type":"Point","coordinates":[76.7876053,15.0305157]}},{"type":"Feature","properties":{"state":"Karnataka","district":12,"district_n":"BELLARY","pc":9,"pc_name":"Bellary","ac":95,"ac_name":"Sandur","booth":132,"booth_name":"H D Basavanagouda high school, Kudithini"},"geometry":{"type":"Point","coordinates":[76.75959,15.1986542]}},{"type":"Feature","properties":{"state":"Karnataka","district":12,"district_n":"BELLARY","pc":9,"pc_name":"Bellary","ac":95,"ac_name":"Sandur","booth":135,"booth_name":"Governament Higher Primary School,room No 2, Indiranagar, Kudutini"},"geometry":{"type":"Point","coordinates":[76.7535,15.1995316]}},{"type":"Feature","properties":{"state":"Karnataka","district":12,"district_n":"BELLARY","pc":9,"pc_name":"Bellary","ac":95,"ac_name":"Sandur","booth":138,"booth_name":"R S S N N building, Kudithini"},"geometry":{"type":"Point","coordinates":[76.75795,15.1978722]}},{"type":"Feature","properties":{"state":"Karnataka","district":12,"district_n":"BELLARY","pc":9,"pc_name":"Bellary","ac":95,"ac_name":"Sandur","booth":141,"booth_name":"Community hall building, Near new bus stand, Kudithini"},"geometry":{"type":"Point","coordinates":[76.7606354,15.1978827]}},{"type":"Feature","properties":{"state":"Karnataka","district":12,"district_n":"BELLARY","pc":9,"pc_name":"Bellary","ac":95,"ac_name":"Sandur","booth":152,"booth_name":"Government Government Higher Primary School, Nidugurthi"},"geometry":{"type":"Point","coordinates":[76.44706,14.99832]}},{"type":"Feature","properties":{"state":"Karnataka","district":12,"district_n":"BELLARY","pc":9,"pc_name":"Bellary","ac":95,"ac_name":"Sandur","booth":155,"booth_name":"Government Government Lower Primary School, 72 Mallapur"},"geometry":{"type":"Point","coordinates":[76.44706,14.99832]}},{"type":"Feature","properties":{"state":"Karnataka","district":12,"district_n":"BELLARY","pc":9,"pc_name":"Bellary","ac":95,"ac_name":"Sandur","booth":158,"booth_name":"Government Government Lower Lower Primary School ,girenahalli"},"geometry":{"type":"Point","coordinates":[76.3884354,15.0128527]}},{"type":"Feature","properties":{"state":"Karnataka","district":12,"district_n":"BELLARY","pc":9,"pc_name":"Bellary","ac":95,"ac_name":"Sandur","booth":169,"booth_name":"Government Government Lower Primary School School School School C Lakkala halli"},"geometry":{"type":"Point","coordinates":[76.49717,14.8835974]}},{"type":"Feature","properties":{"state":"Karnataka","district":12,"district_n":"BELLARY","pc":9,"pc_name":"Bellary","ac":95,"ac_name":"Sandur","booth":172,"booth_name":"Government Higher Primary School, Room No 2 2 Chornur"},"geometry":{"type":"Point","coordinates":[76.55071,14.9289093]}},{"type":"Feature","properties":{"state":"Karnataka","district":12,"district_n":"BELLARY","pc":9,"pc_name":"Bellary","ac":95,"ac_name":"Sandur","booth":175,"booth_name":"Government Government Lower Lower Primary School , Hale Vaddinakatti"},"geometry":{"type":"Point","coordinates":[76.51939,14.9227686]}},{"type":"Feature","properties":{"state":"Karnataka","district":12,"district_n":"BELLARY","pc":9,"pc_name":"Bellary","ac":95,"ac_name":"Sandur","booth":178,"booth_name":"Government Government Higher Primary School, Hiral"},"geometry":{"type":"Point","coordinates":[76.51025,14.9613571]}},{"type":"Feature","properties":{"state":"Karnataka","district":12,"district_n":"BELLARY","pc":9,"pc_name":"Bellary","ac":95,"ac_name":"Sandur","booth":181,"booth_name":"Government Lower Primary School,somalapur"},"geometry":{"type":"Point","coordinates":[76.49099,15.032855]}},{"type":"Feature","properties":{"state":"Karnataka","district":12,"district_n":"BELLARY","pc":9,"pc_name":"Bellary","ac":95,"ac_name":"Sandur","booth":189,"booth_name":"Government Government Higher Primary School, Swamy Halli"},"geometry":{"type":"Point","coordinates":[76.6254654,14.9843311]}},{"type":"Feature","properties":{"state":"Karnataka","district":12,"district_n":"BELLARY","pc":9,"pc_name":"Bellary","ac":95,"ac_name":"Sandur","booth":192,"booth_name":"Government Government Composit high School North wing Bommagatta"},"geometry":{"type":"Point","coordinates":[76.5631256,14.9319792]}},{"type":"Feature","properties":{"state":"Karnataka","district":12,"district_n":"BELLARY","pc":9,"pc_name":"Bellary","ac":95,"ac_name":"Sandur","booth":92,"booth_name":"Government High School,west School,west wing, By Pass Road, Toranagallu"},"geometry":{"type":"Point","coordinates":[76.6743546,15.1929722]}},{"type":"Feature","properties":{"state":"Karnataka","district":12,"district_n":"BELLARY","pc":9,"pc_name":"Bellary","ac":95,"ac_name":"Sandur","booth":46,"booth_name":"Government Government Higher Primary School Near sai baba Temple (west wing)sandur"},"geometry":{"type":"Point","coordinates":[76.55488,15.0881329]}},{"type":"Feature","properties":{"state":"Karnataka","district":12,"district_n":"BELLARY","pc":9,"pc_name":"Bellary","ac":95,"ac_name":"Sandur","booth":3,"booth_name":"Government Government Higher Primary School, Siddapur"},"geometry":{"type":"Point","coordinates":[76.46914,15.154953]}},{"type":"Feature","properties":{"state":"Karnataka","district":12,"district_n":"BELLARY","pc":9,"pc_name":"Bellary","ac":95,"ac_name":"Sandur","booth":6,"booth_name":"Government Higher Primary School Susheelanagar"},"geometry":{"type":"Point","coordinates":[76.5404053,15.0874853]}},{"type":"Feature","properties":{"state":"Karnataka","district":12,"district_n":"BELLARY","pc":9,"pc_name":"Bellary","ac":95,"ac_name":"Sandur","booth":15,"booth_name":"Government Model Higher Primary School, (west Wing) New building Taranagara"},"geometry":{"type":"Point","coordinates":[76.61405,15.14353]}},{"type":"Feature","properties":{"state":"Karnataka","district":12,"district_n":"BELLARY","pc":9,"pc_name":"Bellary","ac":95,"ac_name":"Sandur","booth":23,"booth_name":"Kendriya Vidyalaya Nmdc Room no 5 Donimalai T S"},"geometry":{"type":"Point","coordinates":[76.5987,15.0574818]}},{"type":"Feature","properties":{"state":"Karnataka","district":12,"district_n":"BELLARY","pc":9,"pc_name":"Bellary","ac":95,"ac_name":"Sandur","booth":26,"booth_name":"Smiore High School, North Wing, Deogiri"},"geometry":{"type":"Point","coordinates":[76.63135,15.0032167]}},{"type":"Feature","properties":{"state":"Karnataka","district":12,"district_n":"BELLARY","pc":9,"pc_name":"Bellary","ac":95,"ac_name":"Sandur","booth":29,"booth_name":"Government Government Higher Primary School , Narasingapur"},"geometry":{"type":"Point","coordinates":[76.60648,15.0461254]}},{"type":"Feature","properties":{"state":"Karnataka","district":12,"district_n":"BELLARY","pc":9,"pc_name":"Bellary","ac":95,"ac_name":"Sandur","booth":32,"booth_name":"Government Model Higher Primary School, School, School, North North wing Room No No 2 Bhujanga nagar"},"geometry":{"type":"Point","coordinates":[76.55488,15.0881329]}},{"type":"Feature","properties":{"state":"Karnataka","district":12,"district_n":"BELLARY","pc":9,"pc_name":"Bellary","ac":95,"ac_name":"Sandur","booth":35,"booth_name":"Government Higher Primary School, Room No, 1 Yashwanth Nagar"},"geometry":{"type":"Point","coordinates":[76.49428,15.0451174]}},{"type":"Feature","properties":{"state":"Karnataka","district":12,"district_n":"BELLARY","pc":9,"pc_name":"Bellary","ac":95,"ac_name":"Sandur","booth":43,"booth_name":"Government Government Sc/st, (boys) Student Hostel Sandur"},"geometry":{"type":"Point","coordinates":[76.54396,15.0849552]}},{"type":"Feature","properties":{"state":"Karnataka","district":12,"district_n":"BELLARY","pc":9,"pc_name":"Bellary","ac":95,"ac_name":"Sandur","booth":52,"booth_name":"Taluk Panchayath Office Sandur"},"geometry":{"type":"Point","coordinates":[76.5404053,15.0874853]}},{"type":"Feature","properties":{"state":"Karnataka","district":12,"district_n":"BELLARY","pc":9,"pc_name":"Bellary","ac":95,"ac_name":"Sandur","booth":55,"booth_name":"Government Government Higher Primary School,14th Ward,east Ward,east Wing,chapparadahalli, Sandur"},"geometry":{"type":"Point","coordinates":[76.53828,15.075386]}},{"type":"Feature","properties":{"state":"Karnataka","district":12,"district_n":"BELLARY","pc":9,"pc_name":"Bellary","ac":95,"ac_name":"Sandur","booth":58,"booth_name":"Government Government Higher Primary School, Near 8 Kolai , , Sandur"},"geometry":{"type":"Point","coordinates":[76.53828,15.075386]}},{"type":"Feature","properties":{"state":"Karnataka","district":12,"district_n":"BELLARY","pc":9,"pc_name":"Bellary","ac":95,"ac_name":"Sandur","booth":49,"booth_name":"Town Municipality Council Sandur"},"geometry":{"type":"Point","coordinates":[76.5404053,15.0874853]}},{"type":"Feature","properties":{"state":"Karnataka","district":12,"district_n":"BELLARY","pc":9,"pc_name":"Bellary","ac":95,"ac_name":"Sandur","booth":66,"booth_name":"Government Government Composit High School, Nort Wing Talur"},"geometry":{"type":"Point","coordinates":[76.6288147,15.1909628]}},{"type":"Feature","properties":{"state":"Karnataka","district":12,"district_n":"BELLARY","pc":9,"pc_name":"Bellary","ac":95,"ac_name":"Sandur","booth":69,"booth_name":"Government Government Higher Primary School, School, Nagalapura"},"geometry":{"type":"Point","coordinates":[76.61202,15.149579]}},{"type":"Feature","properties":{"state":"Karnataka","district":12,"district_n":"BELLARY","pc":9,"pc_name":"Bellary","ac":95,"ac_name":"Sandur","booth":72,"booth_name":"Kendriya Vidyalaya, Room no 1 1 Vidyanagar"},"geometry":{"type":"Point","coordinates":[76.63278,15.17047]}},{"type":"Feature","properties":{"state":"Karnataka","district":12,"district_n":"BELLARY","pc":9,"pc_name":"Bellary","ac":95,"ac_name":"Sandur","booth":86,"booth_name":"Basaveshwara Rural High School West Wing Torangallu Rs"},"geometry":{"type":"Point","coordinates":[76.65745,15.2014685]}},{"type":"Feature","properties":{"state":"Karnataka","district":12,"district_n":"BELLARY","pc":9,"pc_name":"Bellary","ac":95,"ac_name":"Sandur","booth":12,"booth_name":"Government Government Composite High High School, New Building Building Krishna nagar"},"geometry":{"type":"Point","coordinates":[76.56507,15.0959349]}},{"type":"Feature","properties":{"state":"Karnataka","district":12,"district_n":"BELLARY","pc":9,"pc_name":"Bellary","ac":95,"ac_name":"Sandur","booth":195,"booth_name":"Government Government Composit highschool, highschool, South wing Bommagatta"},"geometry":{"type":"Point","coordinates":[76.56301,14.9318314]}},{"type":"Feature","properties":{"state":"Karnataka","district":12,"district_n":"BELLARY","pc":9,"pc_name":"Bellary","ac":95,"ac_name":"Sandur","booth":198,"booth_name":"Government Government Higher Primary School ,gowripura"},"geometry":{"type":"Point","coordinates":[76.6254654,14.9844837]}},{"type":"Feature","properties":{"state":"Karnataka","district":12,"district_n":"BELLARY","pc":9,"pc_name":"Bellary","ac":95,"ac_name":"Sandur","booth":201,"booth_name":"Government Higher Primary School,near Ankalamma Temple,toranagallu R S"},"geometry":{"type":"Point","coordinates":[76.66412,15.2052135]}},{"type":"Feature","properties":{"state":"Karnataka","district":12,"district_n":"BELLARY","pc":9,"pc_name":"Bellary","ac":95,"ac_name":"Sandur","booth":126,"booth_name":"G H P School, room no 1, Veniveerapura"},"geometry":{"type":"Point","coordinates":[76.80221,15.1961393]}},{"type":"Feature","properties":{"state":"Karnataka","district":12,"district_n":"BELLARY","pc":9,"pc_name":"Bellary","ac":95,"ac_name":"Sandur","booth":129,"booth_name":"Government Higher Primary School, Middle Wing,kkuduthini"},"geometry":{"type":"Point","coordinates":[76.76017,15.1985073]}},{"type":"Feature","properties":{"state":"Karnataka","district":12,"district_n":"BELLARY","pc":9,"pc_name":"Bellary","ac":95,"ac_name":"Sandur","booth":149,"booth_name":"Government Government Higher Primary School, East wing Bandri"},"geometry":{"type":"Point","coordinates":[76.4473343,14.998229]}},{"type":"Feature","properties":{"state":"Karnataka","district":12,"district_n":"BELLARY","pc":9,"pc_name":"Bellary","ac":95,"ac_name":"Sandur","booth":161,"booth_name":"Government Government Higher Primary School, Room No No 1, Hirekeriyaginahalli"},"geometry":{"type":"Point","coordinates":[76.43677,14.9672279]}}]}