{"type":"FeatureCollection","features":[{"type":"Feature","properties":{"state":"Karnataka","district":12,"district_n":"BELLARY","pc":9,"pc_name":"Bellary","ac":96,"ac_name":"Kudligi","booth":73,"booth_name":"Government Higher Primary School Madlaknahalli"},"geometry":{"type":"Point","coordinates":[76.47432,14.7652693]}},{"type":"Feature","properties":{"state":"Karnataka","district":12,"district_n":"BELLARY","pc":9,"pc_name":"Bellary","ac":96,"ac_name":"Kudligi","booth":76,"booth_name":"Government Higher Primary School Hulikunta"},"geometry":{"type":"Point","coordinates":[76.53183,14.7624674]}},{"type":"Feature","properties":{"state":"Karnataka","district":12,"district_n":"BELLARY","pc":9,"pc_name":"Bellary","ac":96,"ac_name":"Kudligi","booth":7,"booth_name":"Government Higher Primary School Jangama Sovenahalli"},"geometry":{"type":"Point","coordinates":[76.34274,14.9566412]}},{"type":"Feature","properties":{"state":"Karnataka","district":12,"district_n":"BELLARY","pc":9,"pc_name":"Bellary","ac":96,"ac_name":"Kudligi","booth":13,"booth_name":"Government Higher Primary School Virupapura"},"geometry":{"type":"Point","coordinates":[76.42427,14.8567095]}},{"type":"Feature","properties":{"state":"Karnataka","district":12,"district_n":"BELLARY","pc":9,"pc_name":"Bellary","ac":96,"ac_name":"Kudligi","booth":36,"booth_name":"Government Higher primary 7th Ward School Hospet Road"},"geometry":{"type":"Point","coordinates":[76.38616,14.9081259]}},{"type":"Feature","properties":{"state":"Karnataka","district":12,"district_n":"BELLARY","pc":9,"pc_name":"Bellary","ac":96,"ac_name":"Kudligi","booth":42,"booth_name":"Government Lower Primary School Ambedkar Nagara 15th Ward"},"geometry":{"type":"Point","coordinates":[76.38011,14.9054317]}},{"type":"Feature","properties":{"state":"Karnataka","district":12,"district_n":"BELLARY","pc":9,"pc_name":"Bellary","ac":96,"ac_name":"Kudligi","booth":50,"booth_name":"Government Higher Primary School east wing Chandrasekarapura"},"geometry":{"type":"Point","coordinates":[76.5420761,14.834444]}},{"type":"Feature","properties":{"state":"Karnataka","district":12,"district_n":"BELLARY","pc":9,"pc_name":"Bellary","ac":96,"ac_name":"Kudligi","booth":53,"booth_name":"Government Lower Primary School Srikantapura Thanda"},"geometry":{"type":"Point","coordinates":[76.92426,15.1435709]}},{"type":"Feature","properties":{"state":"Karnataka","district":12,"district_n":"BELLARY","pc":9,"pc_name":"Bellary","ac":96,"ac_name":"Kudligi","booth":59,"booth_name":"Government Higher Primary School right wing Mahadevapura"},"geometry":{"type":"Point","coordinates":[76.65658,14.8460684]}},{"type":"Feature","properties":{"state":"Karnataka","district":12,"district_n":"BELLARY","pc":9,"pc_name":"Bellary","ac":96,"ac_name":"Kudligi","booth":70,"booth_name":"Government Higher Primary School new building Jermali"},"geometry":{"type":"Point","coordinates":[76.4665,14.825922]}},{"type":"Feature","properties":{"state":"Karnataka","district":12,"district_n":"BELLARY","pc":9,"pc_name":"Bellary","ac":96,"ac_name":"Kudligi","booth":79,"booth_name":"Government Higher Primary School Arjunachinnenahalli"},"geometry":{"type":"Point","coordinates":[76.54792,14.7665424]}},{"type":"Feature","properties":{"state":"Karnataka","district":12,"district_n":"BELLARY","pc":9,"pc_name":"Bellary","ac":96,"ac_name":"Kudligi","booth":82,"booth_name":"Government Lower Primary School Yarragundalahatti"},"geometry":{"type":"Point","coordinates":[76.6135254,14.7658787]}},{"type":"Feature","properties":{"state":"Karnataka","district":12,"district_n":"BELLARY","pc":9,"pc_name":"Bellary","ac":96,"ac_name":"Kudligi","booth":93,"booth_name":"Government Higher Primary School Valase"},"geometry":{"type":"Point","coordinates":[76.5953,14.6984348]}},{"type":"Feature","properties":{"state":"Karnataka","district":12,"district_n":"BELLARY","pc":9,"pc_name":"Bellary","ac":96,"ac_name":"Kudligi","booth":96,"booth_name":"Government Higher Primary School Megalakarnarahatti"},"geometry":{"type":"Point","coordinates":[76.58111,14.7013826]}},{"type":"Feature","properties":{"state":"Karnataka","district":12,"district_n":"BELLARY","pc":9,"pc_name":"Bellary","ac":96,"ac_name":"Kudligi","booth":62,"booth_name":"Government Lower Primary School Appainahalli Thanda"},"geometry":{"type":"Point","coordinates":[76.68477,14.8538132]}},{"type":"Feature","properties":{"state":"Karnataka","district":12,"district_n":"BELLARY","pc":9,"pc_name":"Bellary","ac":96,"ac_name":"Kudligi","booth":90,"booth_name":"Government Higher Primary School (right wing) Chitrathagundu"},"geometry":{"type":"Point","coordinates":[76.6152954,14.72813]}},{"type":"Feature","properties":{"state":"Karnataka","district":12,"district_n":"BELLARY","pc":9,"pc_name":"Bellary","ac":96,"ac_name":"Kudligi","booth":119,"booth_name":"Government Higher Primary School Left wing Amalapura"},"geometry":{"type":"Point","coordinates":[76.42971,14.8111372]}},{"type":"Feature","properties":{"state":"Karnataka","district":12,"district_n":"BELLARY","pc":9,"pc_name":"Bellary","ac":96,"ac_name":"Kudligi","booth":122,"booth_name":"Government Higher Primary School Chikkobanahalli"},"geometry":{"type":"Point","coordinates":[76.7574844,14.7692442]}},{"type":"Feature","properties":{"state":"Karnataka","district":12,"district_n":"BELLARY","pc":9,"pc_name":"Bellary","ac":96,"ac_name":"Kudligi","booth":133,"booth_name":"Government Lower Primary School Agrahara"},"geometry":{"type":"Point","coordinates":[76.3817749,14.7600956]}},{"type":"Feature","properties":{"state":"Karnataka","district":12,"district_n":"BELLARY","pc":9,"pc_name":"Bellary","ac":96,"ac_name":"Kudligi","booth":136,"booth_name":"Government Higher Primary School Beladeri"},"geometry":{"type":"Point","coordinates":[76.43572,15.2890034]}},{"type":"Feature","properties":{"state":"Karnataka","district":12,"district_n":"BELLARY","pc":9,"pc_name":"Bellary","ac":96,"ac_name":"Kudligi","booth":145,"booth_name":"Government Higher Primary School Byluthumbaraguddi"},"geometry":{"type":"Point","coordinates":[76.4155045,14.674737]}},{"type":"Feature","properties":{"state":"Karnataka","district":12,"district_n":"BELLARY","pc":9,"pc_name":"Bellary","ac":96,"ac_name":"Kudligi","booth":159,"booth_name":"Government Lower Primary Schoo , Pujarahalli Thanda hatti"},"geometry":{"type":"Point","coordinates":[76.53066,14.626071]}},{"type":"Feature","properties":{"state":"Karnataka","district":12,"district_n":"BELLARY","pc":9,"pc_name":"Bellary","ac":96,"ac_name":"Kudligi","booth":173,"booth_name":"Konana Mariswamy Government Higher Primary School left wing Alur"},"geometry":{"type":"Point","coordinates":[76.4501343,14.5905571]}},{"type":"Feature","properties":{"state":"Karnataka","district":12,"district_n":"BELLARY","pc":9,"pc_name":"Bellary","ac":96,"ac_name":"Kudligi","booth":162,"booth_name":"Government Higher Primary School right wing Hudem"},"geometry":{"type":"Point","coordinates":[76.57937,14.6307392]}},{"type":"Feature","properties":{"state":"Karnataka","district":12,"district_n":"BELLARY","pc":9,"pc_name":"Bellary","ac":96,"ac_name":"Kudligi","booth":165,"booth_name":"Government Higher Primary School South wing Thayakanahalli"},"geometry":{"type":"Point","coordinates":[76.58525,14.6439409]}},{"type":"Feature","properties":{"state":"Karnataka","district":12,"district_n":"BELLARY","pc":9,"pc_name":"Bellary","ac":96,"ac_name":"Kudligi","booth":176,"booth_name":"Government Government Higher Primary School west wing Kanamadagu"},"geometry":{"type":"Point","coordinates":[76.44471,14.6025438]}},{"type":"Feature","properties":{"state":"Karnataka","district":12,"district_n":"BELLARY","pc":9,"pc_name":"Bellary","ac":96,"ac_name":"Kudligi","booth":156,"booth_name":"Government Higher Primary School Jummobanahalli"},"geometry":{"type":"Point","coordinates":[76.9304047,14.6572771]}},{"type":"Feature","properties":{"state":"Karnataka","district":12,"district_n":"BELLARY","pc":9,"pc_name":"Bellary","ac":96,"ac_name":"Kudligi","booth":33,"booth_name":"Government Higher primary Sollamma School Kottur Road 10th Ward"},"geometry":{"type":"Point","coordinates":[76.38592,14.8963118]}},{"type":"Feature","properties":{"state":"Karnataka","district":12,"district_n":"BELLARY","pc":9,"pc_name":"Bellary","ac":96,"ac_name":"Kudligi","booth":139,"booth_name":"Government Model Higher Primary School Right wing Nimbalageri"},"geometry":{"type":"Point","coordinates":[76.35774,14.6946869]}},{"type":"Feature","properties":{"state":"Karnataka","district":12,"district_n":"BELLARY","pc":9,"pc_name":"Bellary","ac":96,"ac_name":"Kudligi","booth":142,"booth_name":"Government Higher Primary School Hirekumbalagunte Gollarahatti"},"geometry":{"type":"Point","coordinates":[76.41152,14.6393557]}},{"type":"Feature","properties":{"state":"Karnataka","district":12,"district_n":"BELLARY","pc":9,"pc_name":"Bellary","ac":96,"ac_name":"Kudligi","booth":153,"booth_name":"Government Model Higher Primary School new Building left wing Hosahalli"},"geometry":{"type":"Point","coordinates":[76.46617,14.6489916]}},{"type":"Feature","properties":{"state":"Karnataka","district":12,"district_n":"BELLARY","pc":9,"pc_name":"Bellary","ac":96,"ac_name":"Kudligi","booth":99,"booth_name":"Government Higher Primary School Gundumunugu"},"geometry":{"type":"Point","coordinates":[76.51799,14.719161]}},{"type":"Feature","properties":{"state":"Karnataka","district":12,"district_n":"BELLARY","pc":9,"pc_name":"Bellary","ac":96,"ac_name":"Kudligi","booth":102,"booth_name":"Government Higher Primary School right wing Makanaduku"},"geometry":{"type":"Point","coordinates":[76.48483,14.7350311]}},{"type":"Feature","properties":{"state":"Karnataka","district":12,"district_n":"BELLARY","pc":9,"pc_name":"Bellary","ac":96,"ac_name":"Kudligi","booth":105,"booth_name":"Government Junior College weast sida Chikkajogihalli"},"geometry":{"type":"Point","coordinates":[76.49073,14.72112]}},{"type":"Feature","properties":{"state":"Karnataka","district":12,"district_n":"BELLARY","pc":9,"pc_name":"Bellary","ac":96,"ac_name":"Kudligi","booth":125,"booth_name":"Government Higher Primary School right wing Harakabhavi"},"geometry":{"type":"Point","coordinates":[76.41902,14.72298]}},{"type":"Feature","properties":{"state":"Karnataka","district":12,"district_n":"BELLARY","pc":9,"pc_name":"Bellary","ac":96,"ac_name":"Kudligi","booth":39,"booth_name":"Government Government animal Hajbindri Hajbindri Hospetal 14th Ward Hospet road Kudligi"},"geometry":{"type":"Point","coordinates":[76.38231,14.9070253]}},{"type":"Feature","properties":{"state":"Karnataka","district":12,"district_n":"BELLARY","pc":9,"pc_name":"Bellary","ac":96,"ac_name":"Kudligi","booth":56,"booth_name":"Government High School Left wing Gudekota"},"geometry":{"type":"Point","coordinates":[76.62911,14.8318768]}},{"type":"Feature","properties":{"state":"Karnataka","district":12,"district_n":"BELLARY","pc":9,"pc_name":"Bellary","ac":96,"ac_name":"Kudligi","booth":10,"booth_name":"Government Higher Primary School Kyvalyapura"},"geometry":{"type":"Point","coordinates":[76.3694839,14.931325]}},{"type":"Feature","properties":{"state":"Karnataka","district":12,"district_n":"BELLARY","pc":9,"pc_name":"Bellary","ac":96,"ac_name":"Kudligi","booth":113,"booth_name":"Government Lower Lower Primary School Kyasanakere Gollarahatt"},"geometry":{"type":"Point","coordinates":[76.43123,14.8237534]}},{"type":"Feature","properties":{"state":"Karnataka","district":12,"district_n":"BELLARY","pc":9,"pc_name":"Bellary","ac":96,"ac_name":"Kudligi","booth":116,"booth_name":"Government lower Primary School T Basapura"},"geometry":{"type":"Point","coordinates":[76.35766,14.8177385]}},{"type":"Feature","properties":{"state":"Karnataka","district":12,"district_n":"BELLARY","pc":9,"pc_name":"Bellary","ac":96,"ac_name":"Kudligi","booth":179,"booth_name":"Government Higher Primary School yambalivaddarahatti"},"geometry":{"type":"Point","coordinates":[76.48019,14.6009264]}},{"type":"Feature","properties":{"state":"Karnataka","district":12,"district_n":"BELLARY","pc":9,"pc_name":"Bellary","ac":96,"ac_name":"Kudligi","booth":182,"booth_name":"Government Lower Primary School School Malihalli"},"geometry":{"type":"Point","coordinates":[76.54287,14.5732679]}},{"type":"Feature","properties":{"state":"Karnataka","district":12,"district_n":"BELLARY","pc":9,"pc_name":"Bellary","ac":96,"ac_name":"Kudligi","booth":185,"booth_name":"Government Higher Primary School Joladakudligi"},"geometry":{"type":"Point","coordinates":[76.21262,14.7601252]}},{"type":"Feature","properties":{"state":"Karnataka","district":12,"district_n":"BELLARY","pc":9,"pc_name":"Bellary","ac":96,"ac_name":"Kudligi","booth":188,"booth_name":"Government Higher Primary School left wing Kalapura"},"geometry":{"type":"Point","coordinates":[76.26568,14.7413568]}},{"type":"Feature","properties":{"state":"Karnataka","district":12,"district_n":"BELLARY","pc":9,"pc_name":"Bellary","ac":96,"ac_name":"Kudligi","booth":196,"booth_name":"Government Higher Primary Girls School Thooalhalli"},"geometry":{"type":"Point","coordinates":[76.2325439,14.6933928]}},{"type":"Feature","properties":{"state":"Karnataka","district":12,"district_n":"BELLARY","pc":9,"pc_name":"Bellary","ac":96,"ac_name":"Kudligi","booth":199,"booth_name":"V S S S N Godam Ujjini"},"geometry":{"type":"Point","coordinates":[76.28787,14.72555]}},{"type":"Feature","properties":{"state":"Karnataka","district":12,"district_n":"BELLARY","pc":9,"pc_name":"Bellary","ac":96,"ac_name":"Kudligi","booth":202,"booth_name":"Government Girls Higher Primary School New building Ujjini"},"geometry":{"type":"Point","coordinates":[76.2854843,14.7255678]}},{"type":"Feature","properties":{"state":"Karnataka","district":12,"district_n":"BELLARY","pc":9,"pc_name":"Bellary","ac":96,"ac_name":"Kudligi","booth":16,"booth_name":"Government Higher Primary School School Moraba ( Left Wing )"},"geometry":{"type":"Point","coordinates":[76.37112,15.2866011]}},{"type":"Feature","properties":{"state":"Karnataka","district":12,"district_n":"BELLARY","pc":9,"pc_name":"Bellary","ac":96,"ac_name":"Kudligi","booth":19,"booth_name":"Government Lower Lower Primary School, Beeralagudda"},"geometry":{"type":"Point","coordinates":[76.38592,15.2866011]}},{"type":"Feature","properties":{"state":"Karnataka","district":12,"district_n":"BELLARY","pc":9,"pc_name":"Bellary","ac":96,"ac_name":"Kudligi","booth":160,"booth_name":"Government Higher Primary School right wing Katrikehatti"},"geometry":{"type":"Point","coordinates":[76.56896,14.6002941]}},{"type":"Feature","properties":{"state":"Karnataka","district":12,"district_n":"BELLARY","pc":9,"pc_name":"Bellary","ac":96,"ac_name":"Kudligi","booth":140,"booth_name":"Government Model Higher Primary School Left wing Nimbalageri"},"geometry":{"type":"Point","coordinates":[76.3577347,14.6945524]}},{"type":"Feature","properties":{"state":"Karnataka","district":12,"district_n":"BELLARY","pc":9,"pc_name":"Bellary","ac":96,"ac_name":"Kudligi","booth":154,"booth_name":"Government Higher Primary School School Kulumehatti"},"geometry":{"type":"Point","coordinates":[76.47523,14.6530037]}},{"type":"Feature","properties":{"state":"Karnataka","district":12,"district_n":"BELLARY","pc":9,"pc_name":"Bellary","ac":96,"ac_name":"Kudligi","booth":2,"booth_name":"Government Higher Primary School Hireheggadahal North Side"},"geometry":{"type":"Point","coordinates":[76.33114,14.9319086]}},{"type":"Feature","properties":{"state":"Karnataka","district":12,"district_n":"BELLARY","pc":9,"pc_name":"Bellary","ac":96,"ac_name":"Kudligi","booth":11,"booth_name":"Government Higher Primary School Ammanakeri"},"geometry":{"type":"Point","coordinates":[76.41611,14.859334]}},{"type":"Feature","properties":{"state":"Karnataka","district":12,"district_n":"BELLARY","pc":9,"pc_name":"Bellary","ac":96,"ac_name":"Kudligi","booth":114,"booth_name":"Government Higher Primary School Right wing Chowdapura"},"geometry":{"type":"Point","coordinates":[76.38572,14.8173361]}},{"type":"Feature","properties":{"state":"Karnataka","district":12,"district_n":"BELLARY","pc":9,"pc_name":"Bellary","ac":96,"ac_name":"Kudligi","booth":180,"booth_name":"Government Higher Primary School,picharahatti"},"geometry":{"type":"Point","coordinates":[76.50211,14.594409]}},{"type":"Feature","properties":{"state":"Karnataka","district":12,"district_n":"BELLARY","pc":9,"pc_name":"Bellary","ac":96,"ac_name":"Kudligi","booth":183,"booth_name":"Government Higher Primary School Harakanahalu"},"geometry":{"type":"Point","coordinates":[76.26577,14.76393]}},{"type":"Feature","properties":{"state":"Karnataka","district":12,"district_n":"BELLARY","pc":9,"pc_name":"Bellary","ac":96,"ac_name":"Kudligi","booth":191,"booth_name":"Government Higher Primary School Nagarakatti"},"geometry":{"type":"Point","coordinates":[76.21133,14.7301474]}},{"type":"Feature","properties":{"state":"Karnataka","district":12,"district_n":"BELLARY","pc":9,"pc_name":"Bellary","ac":96,"ac_name":"Kudligi","booth":194,"booth_name":"Taralabalu Siddeshwara High School School right side Thooalhalli"},"geometry":{"type":"Point","coordinates":[76.23329,14.6953754]}},{"type":"Feature","properties":{"state":"Karnataka","district":12,"district_n":"BELLARY","pc":9,"pc_name":"Bellary","ac":96,"ac_name":"Kudligi","booth":197,"booth_name":"Government Higher Primary School Hanumanahalli"},"geometry":{"type":"Point","coordinates":[76.20871,14.6955109]}},{"type":"Feature","properties":{"state":"Karnataka","district":12,"district_n":"BELLARY","pc":9,"pc_name":"Bellary","ac":96,"ac_name":"Kudligi","booth":200,"booth_name":"Government Higher Primary School Ujjini"},"geometry":{"type":"Point","coordinates":[76.28525,14.7257109]}},{"type":"Feature","properties":{"state":"Karnataka","district":12,"district_n":"BELLARY","pc":9,"pc_name":"Bellary","ac":96,"ac_name":"Kudligi","booth":203,"booth_name":"Government lower Primary School School School Benakanahalli"},"geometry":{"type":"Point","coordinates":[76.29149,14.707449]}},{"type":"Feature","properties":{"state":"Karnataka","district":12,"district_n":"BELLARY","pc":9,"pc_name":"Bellary","ac":96,"ac_name":"Kudligi","booth":128,"booth_name":"Infront Government Higher Primary School Harakabhavi"},"geometry":{"type":"Point","coordinates":[76.41925,14.7227325]}},{"type":"Feature","properties":{"state":"Karnataka","district":12,"district_n":"BELLARY","pc":9,"pc_name":"Bellary","ac":96,"ac_name":"Kudligi","booth":54,"booth_name":"Government Higher Primary School Yarrobayyanahatti"},"geometry":{"type":"Point","coordinates":[76.60461,14.83601]}},{"type":"Feature","properties":{"state":"Karnataka","district":12,"district_n":"BELLARY","pc":9,"pc_name":"Bellary","ac":96,"ac_name":"Kudligi","booth":37,"booth_name":"Ashrama Residential School Hospet Road 14th Ward"},"geometry":{"type":"Point","coordinates":[76.38616,14.9018116]}},{"type":"Feature","properties":{"state":"Karnataka","district":12,"district_n":"BELLARY","pc":9,"pc_name":"Bellary","ac":96,"ac_name":"Kudligi","booth":31,"booth_name":"Government Girls Higher Primary School ,bb Thanda Road 6th ward"},"geometry":{"type":"Point","coordinates":[76.38616,14.9081116]}},{"type":"Feature","properties":{"state":"Karnataka","district":12,"district_n":"BELLARY","pc":9,"pc_name":"Bellary","ac":96,"ac_name":"Kudligi","booth":204,"booth_name":"Government Lower Primary School Byradevaragudda"},"geometry":{"type":"Point","coordinates":[76.3078842,14.74622]}},{"type":"Feature","properties":{"state":"Karnataka","district":12,"district_n":"BELLARY","pc":9,"pc_name":"Bellary","ac":96,"ac_name":"Kudligi","booth":198,"booth_name":"Grama Panchayath Office Ujjini"},"geometry":{"type":"Point","coordinates":[76.28774,14.7229614]}},{"type":"Feature","properties":{"state":"Karnataka","district":12,"district_n":"BELLARY","pc":9,"pc_name":"Bellary","ac":96,"ac_name":"Kudligi","booth":201,"booth_name":"Animal Husbendary Hospital (new bulding) Ujjini"},"geometry":{"type":"Point","coordinates":[76.2881,14.727541]}},{"type":"Feature","properties":{"state":"Karnataka","district":12,"district_n":"BELLARY","pc":9,"pc_name":"Bellary","ac":96,"ac_name":"Kudligi","booth":187,"booth_name":"Government Higher Primary School Hunisi Katte"},"geometry":{"type":"Point","coordinates":[76.23498,14.7778978]}},{"type":"Feature","properties":{"state":"Karnataka","district":12,"district_n":"BELLARY","pc":9,"pc_name":"Bellary","ac":96,"ac_name":"Kudligi","booth":189,"booth_name":"Government Higher Primary School Nadumavinahalli"},"geometry":{"type":"Point","coordinates":[76.27596,14.7480364]}},{"type":"Feature","properties":{"state":"Karnataka","district":12,"district_n":"BELLARY","pc":9,"pc_name":"Bellary","ac":96,"ac_name":"Kudligi","booth":190,"booth_name":"Government Lower Primary School Chinnenahalli"},"geometry":{"type":"Point","coordinates":[76.3745651,15.26479]}},{"type":"Feature","properties":{"state":"Karnataka","district":12,"district_n":"BELLARY","pc":9,"pc_name":"Bellary","ac":96,"ac_name":"Kudligi","booth":192,"booth_name":"Government Lower Lower Primary School Konnahalli"},"geometry":{"type":"Point","coordinates":[76.2224,14.7292271]}},{"type":"Feature","properties":{"state":"Karnataka","district":12,"district_n":"BELLARY","pc":9,"pc_name":"Bellary","ac":96,"ac_name":"Kudligi","booth":193,"booth_name":"Government Lower Lower Primary School Kurabanahalli"},"geometry":{"type":"Point","coordinates":[76.22544,14.7125931]}},{"type":"Feature","properties":{"state":"Karnataka","district":12,"district_n":"BELLARY","pc":9,"pc_name":"Bellary","ac":96,"ac_name":"Kudligi","booth":195,"booth_name":"Taralabalu Siddeshwara High School leftside Thooalhalli"},"geometry":{"type":"Point","coordinates":[76.2334747,14.6953192]}},{"type":"Feature","properties":{"state":"Karnataka","district":12,"district_n":"BELLARY","pc":9,"pc_name":"Bellary","ac":96,"ac_name":"Kudligi","booth":178,"booth_name":"Government Higher Primary School left wing Kenchamallanahalli"},"geometry":{"type":"Point","coordinates":[76.48341,14.5791826]}},{"type":"Feature","properties":{"state":"Karnataka","district":12,"district_n":"BELLARY","pc":9,"pc_name":"Bellary","ac":96,"ac_name":"Kudligi","booth":181,"booth_name":"Government Higher Primary School right wing Kallahalli"},"geometry":{"type":"Point","coordinates":[76.52921,14.5678911]}},{"type":"Feature","properties":{"state":"Karnataka","district":12,"district_n":"BELLARY","pc":9,"pc_name":"Bellary","ac":96,"ac_name":"Kudligi","booth":184,"booth_name":"Government Higher Primary School Hirevaderahalli"},"geometry":{"type":"Point","coordinates":[76.26511,14.7785969]}},{"type":"Feature","properties":{"state":"Karnataka","district":12,"district_n":"BELLARY","pc":9,"pc_name":"Bellary","ac":96,"ac_name":"Kudligi","booth":186,"booth_name":"Government Higher Primary School Manganahalli"},"geometry":{"type":"Point","coordinates":[76.21255,14.7465086]}},{"type":"Feature","properties":{"state":"Karnataka","district":12,"district_n":"BELLARY","pc":9,"pc_name":"Bellary","ac":96,"ac_name":"Kudligi","booth":131,"booth_name":"Grama Panchayath Office Solladahalli"},"geometry":{"type":"Point","coordinates":[76.39568,14.7582912]}},{"type":"Feature","properties":{"state":"Karnataka","district":12,"district_n":"BELLARY","pc":9,"pc_name":"Bellary","ac":96,"ac_name":"Kudligi","booth":134,"booth_name":"Government Higher Primary School Sunkadakal"},"geometry":{"type":"Point","coordinates":[76.32077,14.7762861]}},{"type":"Feature","properties":{"state":"Karnataka","district":12,"district_n":"BELLARY","pc":9,"pc_name":"Bellary","ac":96,"ac_name":"Kudligi","booth":137,"booth_name":"Government Higher Primary School reght side Mangapura"},"geometry":{"type":"Point","coordinates":[76.33161,14.70727]}},{"type":"Feature","properties":{"state":"Karnataka","district":12,"district_n":"BELLARY","pc":9,"pc_name":"Bellary","ac":96,"ac_name":"Kudligi","booth":148,"booth_name":"Government Higher Primary School School Bhishnahalli"},"geometry":{"type":"Point","coordinates":[76.45543,14.6970024]}},{"type":"Feature","properties":{"state":"Karnataka","district":12,"district_n":"BELLARY","pc":9,"pc_name":"Bellary","ac":96,"ac_name":"Kudligi","booth":151,"booth_name":"Government Model Higher Primary School left wing Hosahalli"},"geometry":{"type":"Point","coordinates":[76.46637,14.6489716]}},{"type":"Feature","properties":{"state":"Karnataka","district":12,"district_n":"BELLARY","pc":9,"pc_name":"Bellary","ac":96,"ac_name":"Kudligi","booth":157,"booth_name":"Government Higher Primary School J J Myasarahatti"},"geometry":{"type":"Point","coordinates":[76.53202,14.6580553]}},{"type":"Feature","properties":{"state":"Karnataka","district":12,"district_n":"BELLARY","pc":9,"pc_name":"Bellary","ac":96,"ac_name":"Kudligi","booth":168,"booth_name":"Government Higher Primary School Poojarahalli"},"geometry":{"type":"Point","coordinates":[76.5302353,14.6099634]}},{"type":"Feature","properties":{"state":"Karnataka","district":12,"district_n":"BELLARY","pc":9,"pc_name":"Bellary","ac":96,"ac_name":"Kudligi","booth":171,"booth_name":"Government Model Higher Primary School South wing Hulikere"},"geometry":{"type":"Point","coordinates":[76.45309,14.6240606]}},{"type":"Feature","properties":{"state":"Karnataka","district":12,"district_n":"BELLARY","pc":9,"pc_name":"Bellary","ac":96,"ac_name":"Kudligi","booth":174,"booth_name":"Konana Mariswamy Government Higher Primary School Right wing Alur"},"geometry":{"type":"Point","coordinates":[76.45028,14.5904856]}},{"type":"Feature","properties":{"state":"Karnataka","district":12,"district_n":"BELLARY","pc":9,"pc_name":"Bellary","ac":96,"ac_name":"Kudligi","booth":71,"booth_name":"Government Higher Primary School Gaddalagattta"},"geometry":{"type":"Point","coordinates":[76.49748,14.8060713]}},{"type":"Feature","properties":{"state":"Karnataka","district":12,"district_n":"BELLARY","pc":9,"pc_name":"Bellary","ac":96,"ac_name":"Kudligi","booth":45,"booth_name":"Government Higher primary School Govind giri Thanda 20th Ward"},"geometry":{"type":"Point","coordinates":[76.40053,14.9167709]}},{"type":"Feature","properties":{"state":"Karnataka","district":12,"district_n":"BELLARY","pc":9,"pc_name":"Bellary","ac":96,"ac_name":"Kudligi","booth":74,"booth_name":"Government Higher Primary School Neelabommanahalli"},"geometry":{"type":"Point","coordinates":[76.4704056,14.7485991]}},{"type":"Feature","properties":{"state":"Karnataka","district":12,"district_n":"BELLARY","pc":9,"pc_name":"Bellary","ac":96,"ac_name":"Kudligi","booth":177,"booth_name":"Government Higher Primary School right wing Kenchamallanahalli"},"geometry":{"type":"Point","coordinates":[76.48353,14.5791435]}},{"type":"Feature","properties":{"state":"Karnataka","district":12,"district_n":"BELLARY","pc":9,"pc_name":"Bellary","ac":96,"ac_name":"Kudligi","booth":5,"booth_name":"Government Higher Primary School (south Wing) Shivpura"},"geometry":{"type":"Point","coordinates":[76.36432,14.9560957]}},{"type":"Feature","properties":{"state":"Karnataka","district":12,"district_n":"BELLARY","pc":9,"pc_name":"Bellary","ac":96,"ac_name":"Kudligi","booth":8,"booth_name":"Government Government Higher Primary School North wing Bande Basapura Tanda"},"geometry":{"type":"Point","coordinates":[76.38535,14.94458]}},{"type":"Feature","properties":{"state":"Karnataka","district":12,"district_n":"BELLARY","pc":9,"pc_name":"Bellary","ac":96,"ac_name":"Kudligi","booth":14,"booth_name":"Government Lower Primary School Adavisuravvanahalli"},"geometry":{"type":"Point","coordinates":[76.45956,14.841774]}},{"type":"Feature","properties":{"state":"Karnataka","district":12,"district_n":"BELLARY","pc":9,"pc_name":"Bellary","ac":96,"ac_name":"Kudligi","booth":22,"booth_name":"Government Higher Primary School School Badaladuku"},"geometry":{"type":"Point","coordinates":[76.87112,15.2866011]}},{"type":"Feature","properties":{"state":"Karnataka","district":12,"district_n":"BELLARY","pc":9,"pc_name":"Bellary","ac":96,"ac_name":"Kudligi","booth":28,"booth_name":"Government Lower Primary Urdu School Ward No 3"},"geometry":{"type":"Point","coordinates":[76.3945847,14.9038935]}},{"type":"Feature","properties":{"state":"Karnataka","district":12,"district_n":"BELLARY","pc":9,"pc_name":"Bellary","ac":96,"ac_name":"Kudligi","booth":34,"booth_name":"Government Higher primary School Kk Hatti 9th ward"},"geometry":{"type":"Point","coordinates":[76.4142456,14.8934135]}},{"type":"Feature","properties":{"state":"Karnataka","district":12,"district_n":"BELLARY","pc":9,"pc_name":"Bellary","ac":96,"ac_name":"Kudligi","booth":48,"booth_name":"Government Higher Primary School Ramadurg"},"geometry":{"type":"Point","coordinates":[76.54706,14.853282]}},{"type":"Feature","properties":{"state":"Karnataka","district":12,"district_n":"BELLARY","pc":9,"pc_name":"Bellary","ac":96,"ac_name":"Kudligi","booth":51,"booth_name":"Government Higher Primary School, Nagara Hunisi"},"geometry":{"type":"Point","coordinates":[76.52216,14.8483429]}},{"type":"Feature","properties":{"state":"Karnataka","district":12,"district_n":"BELLARY","pc":9,"pc_name":"Bellary","ac":96,"ac_name":"Kudligi","booth":57,"booth_name":"Government Model Higher Primary School right wing Gudekota"},"geometry":{"type":"Point","coordinates":[76.62354,14.8310919]}},{"type":"Feature","properties":{"state":"Karnataka","district":12,"district_n":"BELLARY","pc":9,"pc_name":"Bellary","ac":96,"ac_name":"Kudligi","booth":68,"booth_name":"Government Higher Primary School Narasimhagiri"},"geometry":{"type":"Point","coordinates":[76.5184555,14.79958]}},{"type":"Feature","properties":{"state":"Karnataka","district":12,"district_n":"BELLARY","pc":9,"pc_name":"Bellary","ac":96,"ac_name":"Kudligi","booth":77,"booth_name":"Government Higher Primary School Karadihalli"},"geometry":{"type":"Point","coordinates":[76.5132,14.7570944]}},{"type":"Feature","properties":{"state":"Karnataka","district":12,"district_n":"BELLARY","pc":9,"pc_name":"Bellary","ac":96,"ac_name":"Kudligi","booth":91,"booth_name":"Government Higher Primary School (left wing) Chitrathagundu"},"geometry":{"type":"Point","coordinates":[76.61527,14.7282877]}},{"type":"Feature","properties":{"state":"Karnataka","district":12,"district_n":"BELLARY","pc":9,"pc_name":"Bellary","ac":96,"ac_name":"Kudligi","booth":94,"booth_name":"Government Higher Primary School left wing Hurlihalu"},"geometry":{"type":"Point","coordinates":[76.5532455,14.7172089]}},{"type":"Feature","properties":{"state":"Karnataka","district":12,"district_n":"BELLARY","pc":9,"pc_name":"Bellary","ac":96,"ac_name":"Kudligi","booth":97,"booth_name":"Government Higher Primary School Siddapura"},"geometry":{"type":"Point","coordinates":[76.49866,14.6932859]}},{"type":"Feature","properties":{"state":"Karnataka","district":12,"district_n":"BELLARY","pc":9,"pc_name":"Bellary","ac":96,"ac_name":"Kudligi","booth":65,"booth_name":"Government Lower Primary School Kasapura"},"geometry":{"type":"Point","coordinates":[76.64231,14.7881985]}},{"type":"Feature","properties":{"state":"Karnataka","district":12,"district_n":"BELLARY","pc":9,"pc_name":"Bellary","ac":96,"ac_name":"Kudligi","booth":85,"booth_name":"Government Lower Primary School Maremmanahalli"},"geometry":{"type":"Point","coordinates":[76.63043,14.7493744]}},{"type":"Feature","properties":{"state":"Karnataka","district":12,"district_n":"BELLARY","pc":9,"pc_name":"Bellary","ac":96,"ac_name":"Kudligi","booth":108,"booth_name":"Government Higher Primary School left wing M B Iyyanahalli"},"geometry":{"type":"Point","coordinates":[76.45584,14.72852]}},{"type":"Feature","properties":{"state":"Karnataka","district":12,"district_n":"BELLARY","pc":9,"pc_name":"Bellary","ac":96,"ac_name":"Kudligi","booth":111,"booth_name":"Government Lower Lower Primary School Thammayyanagudda"},"geometry":{"type":"Point","coordinates":[76.57683,14.6667471]}},{"type":"Feature","properties":{"state":"Karnataka","district":12,"district_n":"BELLARY","pc":9,"pc_name":"Bellary","ac":96,"ac_name":"Kudligi","booth":117,"booth_name":"Government Higher Primary School Iyagalamallapura"},"geometry":{"type":"Point","coordinates":[76.40394,14.8255453]}},{"type":"Feature","properties":{"state":"Karnataka","district":12,"district_n":"BELLARY","pc":9,"pc_name":"Bellary","ac":96,"ac_name":"Kudligi","booth":120,"booth_name":"Government Model Higher Primary School South wing Banavikal"},"geometry":{"type":"Point","coordinates":[76.439064,14.7649508]}},{"type":"Feature","properties":{"state":"Karnataka","district":12,"district_n":"BELLARY","pc":9,"pc_name":"Bellary","ac":96,"ac_name":"Kudligi","booth":25,"booth_name":"Government Lower Primary School Thupakanahalli"},"geometry":{"type":"Point","coordinates":[76.3151855,14.8747482]}},{"type":"Feature","properties":{"state":"Karnataka","district":12,"district_n":"BELLARY","pc":9,"pc_name":"Bellary","ac":96,"ac_name":"Kudligi","booth":27,"booth_name":"Government Composite Pu College Mg Road 1st Ward Ward Room No 1"},"geometry":{"type":"Point","coordinates":[76.3896942,14.9033213]}},{"type":"Feature","properties":{"state":"Karnataka","district":12,"district_n":"BELLARY","pc":9,"pc_name":"Bellary","ac":96,"ac_name":"Kudligi","booth":175,"booth_name":"Government Government Higher Primary School right wing Kanamadagu"},"geometry":{"type":"Point","coordinates":[76.4447556,14.602581]}},{"type":"Feature","properties":{"state":"Karnataka","district":12,"district_n":"BELLARY","pc":9,"pc_name":"Bellary","ac":96,"ac_name":"Kudligi","booth":32,"booth_name":"Main Boys Government Higher Primary School 8th Ward Madakari Circle"},"geometry":{"type":"Point","coordinates":[76.38616,14.9081259]}},{"type":"Feature","properties":{"state":"Karnataka","district":12,"district_n":"BELLARY","pc":9,"pc_name":"Bellary","ac":96,"ac_name":"Kudligi","booth":167,"booth_name":"Government Higher Primary School Kbk Hatti(nadavalahatti)"},"geometry":{"type":"Point","coordinates":[76.60026,14.6445274]}},{"type":"Feature","properties":{"state":"Karnataka","district":12,"district_n":"BELLARY","pc":9,"pc_name":"Bellary","ac":96,"ac_name":"Kudligi","booth":169,"booth_name":"Government Higher Primary School East Side Lokikere"},"geometry":{"type":"Point","coordinates":[76.5027,14.62668]}},{"type":"Feature","properties":{"state":"Karnataka","district":12,"district_n":"BELLARY","pc":9,"pc_name":"Bellary","ac":96,"ac_name":"Kudligi","booth":170,"booth_name":"Government Model Higher Primary School north wing Hulikere"},"geometry":{"type":"Point","coordinates":[76.45314,14.6245832]}},{"type":"Feature","properties":{"state":"Karnataka","district":12,"district_n":"BELLARY","pc":9,"pc_name":"Bellary","ac":96,"ac_name":"Kudligi","booth":172,"booth_name":"Government Lower Primary School Sakalapuradahatti"},"geometry":{"type":"Point","coordinates":[76.46795,14.6169691]}},{"type":"Feature","properties":{"state":"Karnataka","district":12,"district_n":"BELLARY","pc":9,"pc_name":"Bellary","ac":96,"ac_name":"Kudligi","booth":143,"booth_name":"Government Higher Primary School, Dasobanahalli"},"geometry":{"type":"Point","coordinates":[76.41779,14.6397591]}},{"type":"Feature","properties":{"state":"Karnataka","district":12,"district_n":"BELLARY","pc":9,"pc_name":"Bellary","ac":96,"ac_name":"Kudligi","booth":144,"booth_name":"Government Higher Primary School Hirekumbalagunta"},"geometry":{"type":"Point","coordinates":[76.39666,14.6361113]}},{"type":"Feature","properties":{"state":"Karnataka","district":12,"district_n":"BELLARY","pc":9,"pc_name":"Bellary","ac":96,"ac_name":"Kudligi","booth":146,"booth_name":"Government Higher Primary School Ranganathanahalli"},"geometry":{"type":"Point","coordinates":[76.43077,14.6727152]}},{"type":"Feature","properties":{"state":"Karnataka","district":12,"district_n":"BELLARY","pc":9,"pc_name":"Bellary","ac":96,"ac_name":"Kudligi","booth":147,"booth_name":"Government Higher Primary School Bellikatti"},"geometry":{"type":"Point","coordinates":[76.4222,14.7007189]}},{"type":"Feature","properties":{"state":"Karnataka","district":12,"district_n":"BELLARY","pc":9,"pc_name":"Bellary","ac":96,"ac_name":"Kudligi","booth":149,"booth_name":"Government Higher Primary School S Imadapura"},"geometry":{"type":"Point","coordinates":[76.46724,14.6823854]}},{"type":"Feature","properties":{"state":"Karnataka","district":12,"district_n":"BELLARY","pc":9,"pc_name":"Bellary","ac":96,"ac_name":"Kudligi","booth":150,"booth_name":"Government Model Higher Primary School right wing Hosahalli"},"geometry":{"type":"Point","coordinates":[76.4659653,14.6490641]}},{"type":"Feature","properties":{"state":"Karnataka","district":12,"district_n":"BELLARY","pc":9,"pc_name":"Bellary","ac":96,"ac_name":"Kudligi","booth":152,"booth_name":"Grama Panchayath Office Hosahalli New Building"},"geometry":{"type":"Point","coordinates":[76.46808,14.64948]}},{"type":"Feature","properties":{"state":"Karnataka","district":12,"district_n":"BELLARY","pc":9,"pc_name":"Bellary","ac":96,"ac_name":"Kudligi","booth":155,"booth_name":"Government Government Higher Primary School School Juttalinganahatti"},"geometry":{"type":"Point","coordinates":[76.44496,14.6652136]}},{"type":"Feature","properties":{"state":"Karnataka","district":12,"district_n":"BELLARY","pc":9,"pc_name":"Bellary","ac":96,"ac_name":"Kudligi","booth":158,"booth_name":"Government Higher Primary School Kannaboraiahanahatti"},"geometry":{"type":"Point","coordinates":[76.53626,14.6126137]}},{"type":"Feature","properties":{"state":"Karnataka","district":12,"district_n":"BELLARY","pc":9,"pc_name":"Bellary","ac":96,"ac_name":"Kudligi","booth":161,"booth_name":"Government lower lower Primary School Thippehalli"},"geometry":{"type":"Point","coordinates":[76.55446,14.5844955]}},{"type":"Feature","properties":{"state":"Karnataka","district":12,"district_n":"BELLARY","pc":9,"pc_name":"Bellary","ac":96,"ac_name":"Kudligi","booth":163,"booth_name":"Government Higher Primary School west wing Hudem"},"geometry":{"type":"Point","coordinates":[76.5793839,14.630784]}},{"type":"Feature","properties":{"state":"Karnataka","district":12,"district_n":"BELLARY","pc":9,"pc_name":"Bellary","ac":96,"ac_name":"Kudligi","booth":164,"booth_name":"Government lower lower Primary School Hosur"},"geometry":{"type":"Point","coordinates":[76.57321,14.6075449]}},{"type":"Feature","properties":{"state":"Karnataka","district":12,"district_n":"BELLARY","pc":9,"pc_name":"Bellary","ac":96,"ac_name":"Kudligi","booth":166,"booth_name":"Government Higher Primary School North wing Thayakanahalli"},"geometry":{"type":"Point","coordinates":[76.58548,14.6439924]}},{"type":"Feature","properties":{"state":"Karnataka","district":12,"district_n":"BELLARY","pc":9,"pc_name":"Bellary","ac":96,"ac_name":"Kudligi","booth":107,"booth_name":"Government Model Higher Primary School east wing Chikkajogihalli Thanda"},"geometry":{"type":"Point","coordinates":[76.4884,14.70995]}},{"type":"Feature","properties":{"state":"Karnataka","district":12,"district_n":"BELLARY","pc":9,"pc_name":"Bellary","ac":96,"ac_name":"Kudligi","booth":109,"booth_name":"Government Higher Primary School right wing M B Iyyanahalli"},"geometry":{"type":"Point","coordinates":[76.45591,14.7285929]}},{"type":"Feature","properties":{"state":"Karnataka","district":12,"district_n":"BELLARY","pc":9,"pc_name":"Bellary","ac":96,"ac_name":"Kudligi","booth":110,"booth_name":"Government Higher Primary School Kumathi"},"geometry":{"type":"Point","coordinates":[76.59143,14.677125]}},{"type":"Feature","properties":{"state":"Karnataka","district":12,"district_n":"BELLARY","pc":9,"pc_name":"Bellary","ac":96,"ac_name":"Kudligi","booth":112,"booth_name":"Government Higher Primary School Kyasanakere"},"geometry":{"type":"Point","coordinates":[76.43084,14.8255033]}},{"type":"Feature","properties":{"state":"Karnataka","district":12,"district_n":"BELLARY","pc":9,"pc_name":"Bellary","ac":96,"ac_name":"Kudligi","booth":115,"booth_name":"Government Higher Primary School Left wing Chowdapura"},"geometry":{"type":"Point","coordinates":[76.38606,14.8172808]}},{"type":"Feature","properties":{"state":"Karnataka","district":12,"district_n":"BELLARY","pc":9,"pc_name":"Bellary","ac":96,"ac_name":"Kudligi","booth":118,"booth_name":"Government Higher Primary School Right wing Amalapura"},"geometry":{"type":"Point","coordinates":[76.42991,14.8110809]}},{"type":"Feature","properties":{"state":"Karnataka","district":12,"district_n":"BELLARY","pc":9,"pc_name":"Bellary","ac":96,"ac_name":"Kudligi","booth":121,"booth_name":"Government Model Higher Primary School North wing Banavikal"},"geometry":{"type":"Point","coordinates":[76.439064,14.7648659]}},{"type":"Feature","properties":{"state":"Karnataka","district":12,"district_n":"BELLARY","pc":9,"pc_name":"Bellary","ac":96,"ac_name":"Kudligi","booth":123,"booth_name":"Government Lower Primary School School Ullanahali"},"geometry":{"type":"Point","coordinates":[76.449234,14.7652931]}},{"type":"Feature","properties":{"state":"Karnataka","district":12,"district_n":"BELLARY","pc":9,"pc_name":"Bellary","ac":96,"ac_name":"Kudligi","booth":124,"booth_name":"Government Higher Primary School Kenchobanahalli"},"geometry":{"type":"Point","coordinates":[76.4639053,14.7752924]}},{"type":"Feature","properties":{"state":"Karnataka","district":12,"district_n":"BELLARY","pc":9,"pc_name":"Bellary","ac":96,"ac_name":"Kudligi","booth":126,"booth_name":"Government Higher Primary School left wing Harakabhavi"},"geometry":{"type":"Point","coordinates":[76.4189453,14.722806]}},{"type":"Feature","properties":{"state":"Karnataka","district":12,"district_n":"BELLARY","pc":9,"pc_name":"Bellary","ac":96,"ac_name":"Kudligi","booth":127,"booth_name":"Behind Government Higher Primary School Harakabhavi"},"geometry":{"type":"Point","coordinates":[76.4187546,14.7228909]}},{"type":"Feature","properties":{"state":"Karnataka","district":12,"district_n":"BELLARY","pc":9,"pc_name":"Bellary","ac":96,"ac_name":"Kudligi","booth":129,"booth_name":"Government Higher Primary School left wing Solladahalli"},"geometry":{"type":"Point","coordinates":[76.39646,14.7573853]}},{"type":"Feature","properties":{"state":"Karnataka","district":12,"district_n":"BELLARY","pc":9,"pc_name":"Bellary","ac":96,"ac_name":"Kudligi","booth":130,"booth_name":"Government Higher Primary School Right wing Solladahalli"},"geometry":{"type":"Point","coordinates":[76.3963852,14.7573261]}},{"type":"Feature","properties":{"state":"Karnataka","district":12,"district_n":"BELLARY","pc":9,"pc_name":"Bellary","ac":96,"ac_name":"Kudligi","booth":132,"booth_name":"Government Lower Primary School Gunasagara"},"geometry":{"type":"Point","coordinates":[76.38558,14.77554]}},{"type":"Feature","properties":{"state":"Karnataka","district":12,"district_n":"BELLARY","pc":9,"pc_name":"Bellary","ac":96,"ac_name":"Kudligi","booth":135,"booth_name":"Government Higher Primary School Palayyanakote"},"geometry":{"type":"Point","coordinates":[76.34861,14.7583]}},{"type":"Feature","properties":{"state":"Karnataka","district":12,"district_n":"BELLARY","pc":9,"pc_name":"Bellary","ac":96,"ac_name":"Kudligi","booth":138,"booth_name":"Government Higher Primary School left left side Mangapura"},"geometry":{"type":"Point","coordinates":[76.33148,14.7072554]}},{"type":"Feature","properties":{"state":"Karnataka","district":12,"district_n":"BELLARY","pc":9,"pc_name":"Bellary","ac":96,"ac_name":"Kudligi","booth":141,"booth_name":"Government Higher Primary School new bilding Ganagatta"},"geometry":{"type":"Point","coordinates":[76.35339,14.68088]}},{"type":"Feature","properties":{"state":"Karnataka","district":12,"district_n":"BELLARY","pc":9,"pc_name":"Bellary","ac":96,"ac_name":"Kudligi","booth":89,"booth_name":"Government Higher Primary School School Thimmavvanahalli"},"geometry":{"type":"Point","coordinates":[76.6179047,14.7548981]}},{"type":"Feature","properties":{"state":"Karnataka","district":12,"district_n":"BELLARY","pc":9,"pc_name":"Bellary","ac":96,"ac_name":"Kudligi","booth":92,"booth_name":"Government Higher Primary School Meenakeri"},"geometry":{"type":"Point","coordinates":[76.62885,14.7044458]}},{"type":"Feature","properties":{"state":"Karnataka","district":12,"district_n":"BELLARY","pc":9,"pc_name":"Bellary","ac":96,"ac_name":"Kudligi","booth":95,"booth_name":"Government Higher Primary School right wing Hurlihalu"},"geometry":{"type":"Point","coordinates":[76.55331,14.71419]}},{"type":"Feature","properties":{"state":"Karnataka","district":12,"district_n":"BELLARY","pc":9,"pc_name":"Bellary","ac":96,"ac_name":"Kudligi","booth":98,"booth_name":"Government Higher Primary School Siddapura Vaddarahatti"},"geometry":{"type":"Point","coordinates":[76.51134,14.6933622]}},{"type":"Feature","properties":{"state":"Karnataka","district":12,"district_n":"BELLARY","pc":9,"pc_name":"Bellary","ac":96,"ac_name":"Kudligi","booth":100,"booth_name":"Government Higher Primary School Obalashettihalli"},"geometry":{"type":"Point","coordinates":[76.5451,14.7333107]}},{"type":"Feature","properties":{"state":"Karnataka","district":12,"district_n":"BELLARY","pc":9,"pc_name":"Bellary","ac":96,"ac_name":"Kudligi","booth":101,"booth_name":"Government Lower Primary School Hosahatti"},"geometry":{"type":"Point","coordinates":[76.5307541,14.7501078]}},{"type":"Feature","properties":{"state":"Karnataka","district":12,"district_n":"BELLARY","pc":9,"pc_name":"Bellary","ac":96,"ac_name":"Kudligi","booth":103,"booth_name":"Government Higher Primary School Kurihatti"},"geometry":{"type":"Point","coordinates":[76.50708,14.7310219]}},{"type":"Feature","properties":{"state":"Karnataka","district":12,"district_n":"BELLARY","pc":9,"pc_name":"Bellary","ac":96,"ac_name":"Kudligi","booth":104,"booth_name":"Government Junior College College east east side Chikkajogihalli"},"geometry":{"type":"Point","coordinates":[76.49238,14.7193508]}},{"type":"Feature","properties":{"state":"Karnataka","district":12,"district_n":"BELLARY","pc":9,"pc_name":"Bellary","ac":96,"ac_name":"Kudligi","booth":106,"booth_name":"Government Model Higher Primary School west wing Chikkajogihalli Thanda"},"geometry":{"type":"Point","coordinates":[76.48811,14.7097044]}},{"type":"Feature","properties":{"state":"Karnataka","district":12,"district_n":"BELLARY","pc":9,"pc_name":"Bellary","ac":96,"ac_name":"Kudligi","booth":47,"booth_name":"Government Higher Primary School Harudi"},"geometry":{"type":"Point","coordinates":[76.49639,14.8340864]}},{"type":"Feature","properties":{"state":"Karnataka","district":12,"district_n":"BELLARY","pc":9,"pc_name":"Bellary","ac":96,"ac_name":"Kudligi","booth":49,"booth_name":"Government Higher Primary School west wing Chandrasekarapura"},"geometry":{"type":"Point","coordinates":[76.54216,14.8345556]}},{"type":"Feature","properties":{"state":"Karnataka","district":12,"district_n":"BELLARY","pc":9,"pc_name":"Bellary","ac":96,"ac_name":"Kudligi","booth":52,"booth_name":"Government Higher Primary School Kudereduvu"},"geometry":{"type":"Point","coordinates":[76.55447,14.8580494]}},{"type":"Feature","properties":{"state":"Karnataka","district":12,"district_n":"BELLARY","pc":9,"pc_name":"Bellary","ac":96,"ac_name":"Kudligi","booth":55,"booth_name":"Government High School Right wing Gudekota"},"geometry":{"type":"Point","coordinates":[76.62889,14.8317394]}},{"type":"Feature","properties":{"state":"Karnataka","district":12,"district_n":"BELLARY","pc":9,"pc_name":"Bellary","ac":96,"ac_name":"Kudligi","booth":58,"booth_name":"Government Model Higher Primary School left wing Gudekote"},"geometry":{"type":"Point","coordinates":[76.62348,14.83104]}},{"type":"Feature","properties":{"state":"Karnataka","district":12,"district_n":"BELLARY","pc":9,"pc_name":"Bellary","ac":96,"ac_name":"Kudligi","booth":60,"booth_name":"Government Higher Primary School Appainahalli"},"geometry":{"type":"Point","coordinates":[76.6883545,14.8580408]}},{"type":"Feature","properties":{"state":"Karnataka","district":12,"district_n":"BELLARY","pc":9,"pc_name":"Bellary","ac":96,"ac_name":"Kudligi","booth":61,"booth_name":"Government Lower Primary School Siddapura"},"geometry":{"type":"Point","coordinates":[76.70192,14.8565521]}},{"type":"Feature","properties":{"state":"Karnataka","district":12,"district_n":"BELLARY","pc":9,"pc_name":"Bellary","ac":96,"ac_name":"Kudligi","booth":63,"booth_name":"Government Lower Primary School Halasagara"},"geometry":{"type":"Point","coordinates":[76.66694,14.8457928]}},{"type":"Feature","properties":{"state":"Karnataka","district":12,"district_n":"BELLARY","pc":9,"pc_name":"Bellary","ac":96,"ac_name":"Kudligi","booth":64,"booth_name":"Government Higher Primary School K Rayapura"},"geometry":{"type":"Point","coordinates":[76.72768,14.8169127]}},{"type":"Feature","properties":{"state":"Karnataka","district":12,"district_n":"BELLARY","pc":9,"pc_name":"Bellary","ac":96,"ac_name":"Kudligi","booth":66,"booth_name":"Government Higher Primary School Sidegallu"},"geometry":{"type":"Point","coordinates":[76.57447,14.8010206]}},{"type":"Feature","properties":{"state":"Karnataka","district":12,"district_n":"BELLARY","pc":9,"pc_name":"Bellary","ac":96,"ac_name":"Kudligi","booth":67,"booth_name":"Government Higher Primary School Belligatta"},"geometry":{"type":"Point","coordinates":[76.53004,14.8023233]}},{"type":"Feature","properties":{"state":"Karnataka","district":12,"district_n":"BELLARY","pc":9,"pc_name":"Bellary","ac":96,"ac_name":"Kudligi","booth":69,"booth_name":"Government Lower Primary School katrahalli"},"geometry":{"type":"Point","coordinates":[76.5126648,14.8144541]}},{"type":"Feature","properties":{"state":"Karnataka","district":12,"district_n":"BELLARY","pc":9,"pc_name":"Bellary","ac":96,"ac_name":"Kudligi","booth":72,"booth_name":"Government Higher Primary School Kadekolla"},"geometry":{"type":"Point","coordinates":[76.4814,14.752492]}},{"type":"Feature","properties":{"state":"Karnataka","district":12,"district_n":"BELLARY","pc":9,"pc_name":"Bellary","ac":96,"ac_name":"Kudligi","booth":75,"booth_name":"Government Higher Primary School Bhimasamudra"},"geometry":{"type":"Point","coordinates":[76.50434,14.75074]}},{"type":"Feature","properties":{"state":"Karnataka","district":12,"district_n":"BELLARY","pc":9,"pc_name":"Bellary","ac":96,"ac_name":"Kudligi","booth":78,"booth_name":"Government Higher Primary School Yerralinganahalli"},"geometry":{"type":"Point","coordinates":[76.5592346,14.754055]}},{"type":"Feature","properties":{"state":"Karnataka","district":12,"district_n":"BELLARY","pc":9,"pc_name":"Bellary","ac":96,"ac_name":"Kudligi","booth":80,"booth_name":"Government Lower Primary School Koracharahatti"},"geometry":{"type":"Point","coordinates":[76.56418,14.7417021]}},{"type":"Feature","properties":{"state":"Karnataka","district":12,"district_n":"BELLARY","pc":9,"pc_name":"Bellary","ac":96,"ac_name":"Kudligi","booth":81,"booth_name":"Government Higher Primary School east Ramasagarahatti"},"geometry":{"type":"Point","coordinates":[76.60496,14.7620068]}},{"type":"Feature","properties":{"state":"Karnataka","district":12,"district_n":"BELLARY","pc":9,"pc_name":"Bellary","ac":96,"ac_name":"Kudligi","booth":83,"booth_name":"Govt Govt Lower primary school , K K Dibbadahalli"},"geometry":{"type":"Point","coordinates":[76.5956039,14.76424]}},{"type":"Feature","properties":{"state":"Karnataka","district":12,"district_n":"BELLARY","pc":9,"pc_name":"Bellary","ac":96,"ac_name":"Kudligi","booth":84,"booth_name":"Government Lower Primary School Uradihalli"},"geometry":{"type":"Point","coordinates":[76.64383,14.7605114]}},{"type":"Feature","properties":{"state":"Karnataka","district":12,"district_n":"BELLARY","pc":9,"pc_name":"Bellary","ac":96,"ac_name":"Kudligi","booth":86,"booth_name":"Government Higher Primary School Kombihalli"},"geometry":{"type":"Point","coordinates":[76.64239,14.7182646]}},{"type":"Feature","properties":{"state":"Karnataka","district":12,"district_n":"BELLARY","pc":9,"pc_name":"Bellary","ac":96,"ac_name":"Kudligi","booth":87,"booth_name":"Government Lower Primary School School Gaddada Boraiahana Hatti"},"geometry":{"type":"Point","coordinates":[76.64584,14.734581]}},{"type":"Feature","properties":{"state":"Karnataka","district":12,"district_n":"BELLARY","pc":9,"pc_name":"Bellary","ac":96,"ac_name":"Kudligi","booth":43,"booth_name":"Government Higher primary School School Ad Gudda"},"geometry":{"type":"Point","coordinates":[76.4182053,14.9087858]}},{"type":"Feature","properties":{"state":"Karnataka","district":12,"district_n":"BELLARY","pc":9,"pc_name":"Bellary","ac":96,"ac_name":"Kudligi","booth":44,"booth_name":"Government Lower primary School School Ad Gudda Gudda Gollaratti"},"geometry":{"type":"Point","coordinates":[76.4182,14.9063034]}},{"type":"Feature","properties":{"state":"Karnataka","district":12,"district_n":"BELLARY","pc":9,"pc_name":"Bellary","ac":96,"ac_name":"Kudligi","booth":46,"booth_name":"Government Higher Primary School A Dibbadahalli"},"geometry":{"type":"Point","coordinates":[76.51516,14.840456]}},{"type":"Feature","properties":{"state":"Karnataka","district":12,"district_n":"BELLARY","pc":9,"pc_name":"Bellary","ac":96,"ac_name":"Kudligi","booth":35,"booth_name":"Government Higher primary Sollamma School Kottur Road 10th Ward"},"geometry":{"type":"Point","coordinates":[76.3826447,14.9040737]}},{"type":"Feature","properties":{"state":"Karnataka","district":12,"district_n":"BELLARY","pc":9,"pc_name":"Bellary","ac":96,"ac_name":"Kudligi","booth":38,"booth_name":"Government Higher primary 4th Ward School,17th Ward Ramnagara"},"geometry":{"type":"Point","coordinates":[76.38018,14.9039173]}},{"type":"Feature","properties":{"state":"Karnataka","district":12,"district_n":"BELLARY","pc":9,"pc_name":"Bellary","ac":96,"ac_name":"Kudligi","booth":40,"booth_name":"Government Higher primary School , 15th Ward Ward Ward Ram Nagara"},"geometry":{"type":"Point","coordinates":[76.38026,14.90519]}},{"type":"Feature","properties":{"state":"Karnataka","district":12,"district_n":"BELLARY","pc":9,"pc_name":"Bellary","ac":96,"ac_name":"Kudligi","booth":41,"booth_name":"Government Higher primary primary School,rajeev Gandhi nagar 16th Ward"},"geometry":{"type":"Point","coordinates":[76.38011,14.9054317]}},{"type":"Feature","properties":{"state":"Karnataka","district":12,"district_n":"BELLARY","pc":9,"pc_name":"Bellary","ac":96,"ac_name":"Kudligi","booth":29,"booth_name":"Government Composite Pu College, Mg Road, Ist ward, Room no 3"},"geometry":{"type":"Point","coordinates":[76.38616,14.9081259]}},{"type":"Feature","properties":{"state":"Karnataka","district":12,"district_n":"BELLARY","pc":9,"pc_name":"Bellary","ac":96,"ac_name":"Kudligi","booth":26,"booth_name":"Government Higher Primary School Nagalapura"},"geometry":{"type":"Point","coordinates":[76.22622,14.8237524]}},{"type":"Feature","properties":{"state":"Karnataka","district":12,"district_n":"BELLARY","pc":9,"pc_name":"Bellary","ac":96,"ac_name":"Kudligi","booth":24,"booth_name":"Government Lower Primary School Doddagollarahatti"},"geometry":{"type":"Point","coordinates":[76.38592,14.8963118]}},{"type":"Feature","properties":{"state":"Karnataka","district":12,"district_n":"BELLARY","pc":9,"pc_name":"Bellary","ac":96,"ac_name":"Kudligi","booth":21,"booth_name":"Government Higher Primary School Echala Bommanahalli"},"geometry":{"type":"Point","coordinates":[76.38592,14.8963118]}},{"type":"Feature","properties":{"state":"Karnataka","district":12,"district_n":"BELLARY","pc":9,"pc_name":"Bellary","ac":96,"ac_name":"Kudligi","booth":23,"booth_name":"Gramapanchayathi New bilding Badeladuku"},"geometry":{"type":"Point","coordinates":[76.38592,14.8963118]}},{"type":"Feature","properties":{"state":"Karnataka","district":12,"district_n":"BELLARY","pc":9,"pc_name":"Bellary","ac":96,"ac_name":"Kudligi","booth":17,"booth_name":"Government Higher Primary School, Moraban Halli"},"geometry":{"type":"Point","coordinates":[76.37112,15.2866011]}},{"type":"Feature","properties":{"state":"Karnataka","district":12,"district_n":"BELLARY","pc":9,"pc_name":"Bellary","ac":96,"ac_name":"Kudligi","booth":18,"booth_name":"Government Lower Lower Primary School, Marab Gollarahatti"},"geometry":{"type":"Point","coordinates":[76.37112,15.2866011]}},{"type":"Feature","properties":{"state":"Karnataka","district":12,"district_n":"BELLARY","pc":9,"pc_name":"Bellary","ac":96,"ac_name":"Kudligi","booth":20,"booth_name":"Government Higher Primary School Kuppinkeri"},"geometry":{"type":"Point","coordinates":[76.3719,14.9007072]}},{"type":"Feature","properties":{"state":"Karnataka","district":12,"district_n":"BELLARY","pc":9,"pc_name":"Bellary","ac":96,"ac_name":"Kudligi","booth":15,"booth_name":"Government Higher Primary School Moraba ( Right Wing)"},"geometry":{"type":"Point","coordinates":[76.37112,15.2866011]}},{"type":"Feature","properties":{"state":"Karnataka","district":12,"district_n":"BELLARY","pc":9,"pc_name":"Bellary","ac":96,"ac_name":"Kudligi","booth":12,"booth_name":"Government Higher Primary School Kakkupi"},"geometry":{"type":"Point","coordinates":[76.4469147,14.8660469]}},{"type":"Feature","properties":{"state":"Karnataka","district":12,"district_n":"BELLARY","pc":9,"pc_name":"Bellary","ac":96,"ac_name":"Kudligi","booth":1,"booth_name":"Government Higher Primary School Boppalapura"},"geometry":{"type":"Point","coordinates":[76.3056946,14.9310856]}},{"type":"Feature","properties":{"state":"Karnataka","district":12,"district_n":"BELLARY","pc":9,"pc_name":"Bellary","ac":96,"ac_name":"Kudligi","booth":3,"booth_name":"Government Higher Primary School School South Side Hireheggadahal"},"geometry":{"type":"Point","coordinates":[76.3310852,14.9318991]}},{"type":"Feature","properties":{"state":"Karnataka","district":12,"district_n":"BELLARY","pc":9,"pc_name":"Bellary","ac":96,"ac_name":"Kudligi","booth":4,"booth_name":"Government Higher Primary School Sasalawada"},"geometry":{"type":"Point","coordinates":[76.3358154,14.9193573]}},{"type":"Feature","properties":{"state":"Karnataka","district":12,"district_n":"BELLARY","pc":9,"pc_name":"Bellary","ac":96,"ac_name":"Kudligi","booth":6,"booth_name":"Government Higher Primary School (north Wing) Shivpura"},"geometry":{"type":"Point","coordinates":[76.36434,14.9560928]}},{"type":"Feature","properties":{"state":"Karnataka","district":12,"district_n":"BELLARY","pc":9,"pc_name":"Bellary","ac":96,"ac_name":"Kudligi","booth":9,"booth_name":"Government Model Higher Primary School (south Wing)bande Basapura Tanda"},"geometry":{"type":"Point","coordinates":[76.38552,14.9444761]}}]}